     3.03           OBSERVATION DATA    M: Mixed            RINEX VERSION / TYPE
                                        20240120 001242 UTC PGM / RUN BY / DATE 
                                                            MARKER NAME         
                                                            MARKER NUMBER       
                                                            MARKER TYPE         
                                                            OBSERVER / AGENCY   
                                                            REC # / TYPE / VERS 
                                                            ANT # / TYPE        
 -3817690.2015  3562847.3632  3650172.6616                  APPROX POSITION XYZ 
        0.0000        0.0000        0.0000                  ANTENNA: DELTA H/E/N
G    8 C1C L1C D1C S1C C2L L2L D2L S2L                      SYS / # / OBS TYPES 
R    8 C1C L1C D1C S1C C2C L2C D2C S2C                      SYS / # / OBS TYPES 
E    8 C1C L1C D1C S1C C7Q L7Q D7Q S7Q                      SYS / # / OBS TYPES 
J    8 C1C L1C D1C S1C C2L L2L D2L S2L                      SYS / # / OBS TYPES 
C    8 C7I L7I D7I S7I C2I L2I D2I S2I                      SYS / # / OBS TYPES 
  2023    07    11    06    06   09.9810000     GPS         TIME OF FIRST OBS   
  2023    07    11    06    07   48.9810000     GPS         TIME OF LAST OBS    
G L1C                                                       SYS / PHASE SHIFT   
G L2L  0.00000                                              SYS / PHASE SHIFT   
R L1C                                                       SYS / PHASE SHIFT   
R L2C                                                       SYS / PHASE SHIFT   
E L1C  0.00000                                              SYS / PHASE SHIFT   
E L7Q  0.00000                                              SYS / PHASE SHIFT   
J L1C                                                       SYS / PHASE SHIFT   
J L2L  0.00000                                              SYS / PHASE SHIFT   
C L7I                                                       SYS / PHASE SHIFT   
C L2I                                                       SYS / PHASE SHIFT   
  0                                                         GLONASS SLOT / FRQ #
 C1C    0.000 C1P    0.000 C2C    0.000 C2P    0.000        GLONASS COD/PHS/BIS 
                                                            END OF HEADER       
> 2023 07 11 06 06 09.9810000  0 38                     
G05  15819196.749    83130548.027        1786.365          45.000    15819188.677    64777035.112        1392.506          40.000  
G06  16283835.902    85572173.916       -2216.535          43.000    16283831.986    66679627.577       -1727.193          42.000  
G07  17838289.055    93741038.000         247.870          42.000    17838282.016    73044941.111         193.182          37.000  
G09  18918906.346    99419590.893       -3206.695          37.000    18918900.702    77469851.709       -2499.372          34.000  
G11  14617384.833    76814952.380         250.751          46.000    14617376.286    59855809.762         195.496          49.000  
G13  15965247.855    83898086.710        3290.284          45.000                                                                  
G15  18838017.444    98994492.229        3885.143          38.000    18838014.051    77138559.094        3027.223          32.000  
G19  19588052.757   102935882.113       -3608.431          34.000                                                                  
G20  14928897.877    78451964.612         768.518          45.000                                                                  
G29  17949544.023    94325520.551        2220.157          39.000    17949536.940    73500376.757        1729.818          35.000  
G30  17278972.841    90801775.035        1759.404          43.000    17278969.337    70754707.281        1370.904          40.000  
R02  16119265.263    86015612.131       -2908.296          47.000    16119257.842    66900964.787       -2261.958          42.000  
R03  13891181.236    74360715.182        -317.465          48.000    13891167.922    57836128.627        -246.894          47.000  
R04  15754815.792    84366439.403        2632.299          44.000    15754806.831    65618257.091        2047.353          44.000  
R12  18590219.470    99305641.207        2398.716          43.000                                                                  
R17  14768504.884    79029259.726       -2838.593          47.000    14768495.551    61467136.300       -2207.782          46.000  
R18  13574184.211    72459998.000         970.499          48.000    13574176.272    56357748.967         754.967          48.000  
R19  16041945.422    85813610.169        3914.169          32.000    16041936.422    66743895.973        3044.424          40.000  
E04  21138308.293   111082623.379        2887.076          38.000    21138309.626    85115270.583        2211.925          41.000  
E07  23217247.714   122007449.382       -2524.988          36.000    23217248.951    93486255.266       -1934.902          36.000  
E10  20440806.095   107417181.126        2703.045          41.000    20440804.400    82306669.295        2071.146          45.000  
E12  18656838.738    98042392.063        1900.224          43.000    18656832.048    75123413.109        1456.120          46.000  
E14  14731296.757    77413492.563        3509.426          40.000                                                                  
E19  18255282.611    95932209.349         765.177          40.000    18255277.039    73506506.244         586.165          47.000  
E20  20637783.066   108452353.355        -382.611          39.000                                                                  
E26  21376191.767   112332568.734       -2296.160          39.000    21376193.155    86072954.324       -1759.355          40.000  
J02  32244736.625   169447211.929          52.564          35.000    32244746.088   132036601.719          41.698          36.000  
J03  31646939.808   166305766.251         840.739          44.000                                                                  
J04  32835451.700   172551449.564        -293.047          43.000    32835443.155   134455639.996        -228.350          46.000  
J07  31521198.037   165644983.328         254.141          37.000    31521190.444   129074009.430         197.707          43.000  
C07  33872062.991   136388635.497       -1167.837          39.000    33872073.433   176380633.116       -1510.356          37.000  
C08  31517927.913   126909695.381         528.073          44.000    31517945.115   164122241.431         683.071          42.000  
C10  33469592.847   134768083.477       -1131.207          36.000    33469598.995   174284879.007       -1462.693          37.000  
C13  32345072.394   130240259.720         545.767          43.000    32345080.065   168429326.978         705.970          43.000  
C14  19546871.674    78707147.483       -1786.295          43.000    19546885.330   101785720.399       -2309.567          37.000  
C24                                                                  20531486.772   106912887.261        1421.429          37.000  
C27                                                                  16645813.276    86679155.190        1039.174          48.000  
C28                                                                  16731962.145    87127702.370       -1840.016          47.000  
> 2023 07 11 06 06 10.9810000  0 38                     
G05  15818856.798    83128761.272        1786.543          45.000    15818848.675    64775642.847        1392.344          40.000  
G06  16284257.731    85574390.551       -2216.481          43.000    16284253.892    66681354.838       -1727.510          42.000  
G07  17838241.973    93740790.214         247.311          42.000    17838234.915    73044748.046         192.549          37.000  
G09  18919516.530    99422797.376       -3206.449          37.000    18919510.924    77472350.265       -2498.727          34.000  
G11  14617337.043    76814701.516         250.739          46.000    14617328.585    59855614.287         195.372          49.000  
G13  15964621.647    83894796.269        3290.406          45.000                                                                  
G15  18837278.000    98990606.927        3885.272          38.000    18837274.678    77135531.596        3027.573          32.000  
G19  19588739.528   102939490.706       -3608.183          34.000                                                                  
G20  14928751.732    78451195.942         768.713          45.000                                                                  
G29  17949121.543    94323300.008        2220.273          38.000    17949114.454    73498646.465        1730.053          35.000  
G30  17278637.995    90800015.621        1759.228          43.000    17278634.572    70753336.298        1370.880          40.000  
R02  16119810.212    86018520.056       -2907.948          47.000    16119802.799    66903226.497       -2261.728          42.000  
R03  13891240.486    74361032.485        -317.444          48.000    13891227.183    57836375.417        -246.885          47.000  
R04  15754324.171    84363806.942        2632.473          44.000    15754315.141    65616209.639        2047.321          44.000  
R12  18589770.485    99303242.371        2398.611          44.000                                                                  
R17  14769035.370    79032098.284       -2838.728          47.000    14769025.935    61469344.059       -2207.918          46.000  
R18  13574002.402    72459027.613         970.035          48.000    13573994.440    56356994.224         754.524          48.000  
R19  16041213.761    85809695.617        3914.666          32.000    16041204.653    66740851.318        3044.714          39.000  
E04  21137758.920   111079736.143        2887.225          38.000    21137760.191    85113058.265        2212.498          41.000  
E07  23217728.148   122009973.869       -2524.382          36.000    23217729.380    93488189.609       -1934.658          35.000  
E10  20440291.671   107414477.929        2703.241          41.000    20440290.008    82304598.020        2071.171          45.000  
E12  18656477.251    98040491.601        1900.455          43.000    18656470.378    75121956.917        1456.118          46.000  
E14  14730629.044    77409983.545        3508.473          40.000                                                                  
E19  18255136.784    95931444.092         765.318          40.000    18255131.257    73505919.878         586.307          46.000  
E20  20637856.027   108452736.234        -382.881          38.000                                                                  
E26  21376628.789   112334864.628       -2296.164          39.000    21376630.029    86074713.498       -1759.325          40.000  
J02  32244726.384   169447158.518          53.503          35.000    32244735.933   132036560.132          41.594          36.000  
J03  31646779.759   166304925.285         841.080          44.000                                                                  
J04  32835507.395   172551742.385        -292.626          43.000    32835498.904   134455868.168        -228.127          46.000  
J07  31521149.560   165644729.068         254.057          38.000    31521142.160   129073811.302         198.147          43.000  
C07  33872352.890   136389802.970       -1167.198          39.000    33872363.388   176382142.929       -1509.735          37.000  
C08  31517796.752   126909166.945         528.452          44.000    31517813.943   164121558.059         683.319          42.000  
C10  33469873.700   134769214.346       -1130.933          36.000    33469879.794   174286341.505       -1462.514          37.000  
C13  32344936.816   130239713.560         546.360          43.000    32344944.387   168428620.683         706.467          43.000  
C14  19547315.209    78708933.424       -1785.872          43.000    19547328.856   101788030.039       -2309.460          38.000  
C24                                                                  20531213.732   106911465.434        1421.945          37.000  
C27                                                                  16645613.784    86678116.041        1039.017          48.000  
C28                                                                  16732315.524    87129542.259       -1839.945          47.000  
> 2023 07 11 06 06 11.9810000  0 38                     
G05  15818516.822    83126974.799        1786.534          45.000    15818508.760    64774250.781        1392.578          40.000  
G06  16284679.642    85576607.678       -2217.247          42.000    16284675.837    66683082.446       -1727.552          42.000  
G07  17838195.008    93740542.999         246.953          42.000    17838187.872    73044555.409         192.419          37.000  
G09  18920126.719    99426004.064       -3206.574          37.000    18920121.104    77474848.939       -2498.146          35.000  
G11  14617289.296    76814451.254         250.167          46.000    14617280.911    59855419.277         194.955          49.000  
G13  15963995.578    83891506.337        3289.800          45.000                                                                  
G15  18836538.653    98986721.880        3885.119          38.000    18836535.219    77132504.273        3028.097          32.000  
G19  19589426.239   102943099.256       -3607.974          34.000                                                                  
G20  14928605.595    78450427.575         768.175          45.000                                                                  
G29  17948699.080    94321080.121        2219.584          39.000    17948692.078    73496916.672        1729.692          35.000  
G30  17278303.168    90798256.736        1759.044          43.000    17278299.869    70751965.745        1370.725          40.000  
R02  16120355.198    86021428.161       -2907.991          47.000    16120347.629    66905488.361       -2261.802          42.000  
R03  13891299.893    74361350.380        -318.027          48.000    13891286.544    57836622.670        -247.375          47.000  
R04  15753832.672    84361175.058        2631.862          44.000    15753823.684    65614162.610        2047.008          44.000  
R12  18589321.341    99300844.058        2398.237          44.000                                                                  
R17  14769565.990    79034937.568       -2839.396          47.000    14769556.588    61471552.394       -2208.564          46.000  
R18  13573820.800    72458058.162         969.137          48.000    13573812.820    56356240.204         753.891          48.000  
R19  16040482.119    85805781.489        3915.120          32.000    16040472.989    66737807.035        3044.311          39.000  
E04  21137209.629   111076849.148        2887.150          38.000    21137210.823    85110846.194        2211.707          41.000  
E07  23218208.877   122012498.408       -2524.062          35.000    23218209.693    93490123.985       -1934.100          36.000  
E10  20439777.461   107411774.910        2703.139          41.000    20439775.752    82302526.874        2071.228          45.000  
E12  18656115.475    98038591.463        1900.047          42.000    18656108.781    75120500.966        1455.912          46.000  
E14  14729961.507    77406475.918        3507.003          40.000                                                                  
E19  18254991.381    95930679.329         764.613          40.000    18254985.738    73505333.888         585.878          47.000  
E20  20637928.964   108453119.549        -383.481          38.000                                                                  
E26  21377065.714   112337160.768       -2296.396          38.000    21377067.029    86076472.888       -1759.465          40.000  
J02  32244716.340   169447105.174          53.194          35.000    32244725.830   132036518.570          41.303          36.000  
J03  31646619.756   166304084.463         840.943          44.000                                                                  
J04  32835563.207   172552035.251        -292.754          43.000    32835554.536   134456096.373        -228.013          46.000  
J07  31521101.216   165644474.926         254.001          37.000    31521093.746   129073613.245         198.212          43.000  
C07  33872642.859   136390970.506       -1167.572          39.000    33872653.369   176383652.850       -1510.177          37.000  
C08  31517665.545   126908638.529         528.699          44.000    31517682.747   164120874.700         683.572          42.000  
C10  33470154.561   134770345.326       -1130.681          36.000    33470160.653   174287804.093       -1462.319          37.000  
C13  32344801.256   130239167.439         546.180          43.000    32344808.652   168427914.420         706.387          43.000  
C14  19547758.808    78710719.419       -1785.819          43.000    19547772.418   101790339.724       -2309.304          38.000  
C24                                                                  20530940.799   106910044.091        1421.155          37.000  
C27                                                                  16645414.421    86677077.518        1038.403          48.000  
C28                                                                  16732668.951    87131382.682       -1840.541          47.000  
> 2023 07 11 06 06 12.9810000  0 38                     
G05  15818177.041    83125188.687        1785.665          45.000    15818168.852    64772859.033        1391.312          40.000  
G06  16285101.672    85578825.328       -2218.136          43.000    16285097.726    66684810.476       -1728.327          42.000  
G07  17838148.126    93740296.470         245.884          42.000    17838140.863    73044363.307         191.431          37.000  
G09  18920736.950    99429210.949       -3207.463          37.000    18920731.393    77477347.804       -2498.743          35.000  
G11  14617241.767    76814201.644         249.321          46.000    14617233.368    59855224.787         194.037          49.000  
G13  15963369.719    83888216.950        3288.778          45.000                                                                  
G15  18835799.388    98982837.109        3884.199          38.000    18835795.636    77129477.215        3026.549          32.000  
G19  19590112.954   102946707.848       -3608.739          34.000                                                                  
G20  14928459.418    78449659.555         767.704          45.000                                                                  
G29  17948276.837    94318860.941        2218.821          39.000    17948269.670    73495187.447        1728.668          35.000  
G30  17277968.630    90796498.462        1757.864          43.000    17277965.341    70750595.667        1369.867          40.000  
R02  16120900.185    86024336.536       -2908.705          47.000    16120892.688    66907750.420       -2262.345          42.000  
R03  13891359.299    74361668.931        -319.047          48.000    13891346.347    57836870.432        -248.120          47.000  
R04  15753341.224    84358543.803        2630.792          44.000    15753332.311    65612116.082        2046.219          44.000  
R12  18588872.425    99298446.365        2397.185          44.000                                                                  
R17  14770096.732    79037777.661       -2840.634          47.000    14770087.291    61473761.346       -2209.340          46.000  
R18  13573639.451    72457089.721         967.765          48.000    13573631.350    56355486.979         752.713          48.000  
R19  16039750.674    85801867.986        3913.404          33.000    16039741.297    66734763.161        3043.637          39.000  
E04  21136660.380   111073962.516        2886.431          38.000    21136661.535    85108634.333        2211.642          41.000  
E07  23218689.283   122015023.102       -2525.019          35.000    23218690.143    93492058.500       -1934.968          34.000  
E10  20439263.215   107409072.127        2702.733          41.000    20439261.195    82300455.921        2070.757          45.000  
E12  18655753.996    98036691.703        1899.486          42.000    18655747.184    75119045.305        1455.419          46.000  
E14  14729294.350    77402969.748        3505.329          40.000                                                                  
E19  18254845.853    95929915.076         764.107          40.000    18254840.327    73504748.293         585.345          46.000  
E20  20638001.982   108453503.384        -384.305          38.000                                                                  
E26  21377502.896   112339457.253       -2296.863          38.000    21377503.969    86078232.513       -1759.791          40.000  
J02  32244706.256   169447051.881          53.214          35.000    32244715.709   132036477.033          40.986          36.000  
J03  31646459.787   166303243.849         840.494          44.000                                                                  
J04  32835619.046   172552328.219        -293.030          43.000    32835610.224   134456324.667        -228.413          46.000  
J07  31521052.814   165644220.915         253.246          37.000    31521045.483   129073415.322         197.768          43.000  
C07  33872932.863   136392138.165       -1167.521          39.000    33872943.307   176385162.870       -1510.009          37.000  
C08  31517534.300   126908110.194         528.162          44.000    31517551.420   164120191.446         683.237          42.000  
C10  33470435.466   134771476.434       -1131.124          36.000    33470441.561   174289266.865       -1462.811          37.000  
C13  32344665.609   130238621.374         545.680          43.000    32344673.045   168427208.230         706.083          43.000  
C14  19548202.401    78712505.520       -1786.394          43.000    19548215.932   101792649.554       -2310.250          38.000  
C24                                                                  20530667.949   106908623.243        1420.341          38.000  
C27                                                                  16645215.026    86676039.683        1037.208          48.000  
C28                                                                  16733022.413    87133223.678       -1841.262          47.000  
> 2023 07 11 06 06 13.9810000  0 38                     
G05  15817837.202    83123402.827        1786.193          45.000    15817828.956    64771467.461        1391.433          40.000  
G06  16285523.820    85581043.391       -2218.216          43.000    16285519.834    66686538.858       -1728.589          42.000  
G07  17838101.211    93740050.516         245.419          42.000    17838094.037    73044171.668         191.202          37.000  
G09  18921347.236    99432417.955       -3206.728          38.000    18921341.726    77479846.792       -2499.006          35.000  
G11  14617194.298    76813952.623         248.871          46.000    14617185.946    59855030.740         193.747          49.000  
G13  15962743.837    83884928.036        3288.734          45.000                                                                  
G15  18835060.192    98978952.526        3884.530          38.000    18835056.487    77126450.301        3026.213          32.000  
G19  19590799.559   102950316.385       -3608.402          33.000                                                                  
G20  14928313.277    78448891.845         767.435          45.000                                                                  
G29  17947854.788    94316642.424        2217.947          39.000    17947847.478    73493458.726        1728.368          35.000  
G30  17277634.092    90794740.678        1757.617          43.000    17277630.798    70749225.981        1369.266          40.000  
R02  16121445.265    86027245.082       -2908.723          47.000    16121437.829    66910012.626       -2262.329          42.000  
R03  13891418.954    74361988.039        -319.405          48.000    13891405.992    57837118.632        -248.385          47.000  
R04  15752849.958    84355913.034        2630.612          44.000    15752841.032    65610069.929        2046.031          44.000  
R12  18588423.633    99296049.201        2396.826          45.000                                                                  
R17  14770627.492    79040618.452       -2841.059          47.000    14770618.271    61475970.856       -2209.810          46.000  
R18  13573458.297    72456122.195         967.042          48.000    13573450.116    56354734.452         752.197          48.000  
R19  16039019.028    85797954.837        3913.212          33.000    16039009.822    66731719.624        3043.104          39.000  
E04  21136110.953   111071076.112        2886.163          38.000    21136112.321    85106422.694        2211.392          42.000  
E07  23219169.910   122017547.807       -2524.613          35.000    23219170.524    93493993.022       -1934.288          34.000  
E10  20438748.862   107406369.512        2702.707          41.000    20438747.003    82298385.074        2070.898          45.000  
E12  18655392.547    98034792.270        1899.307          42.000    18655385.763    75117589.888        1455.456          46.000  
E14  14728627.357    77399464.950        3504.236          40.000                                                                  
E19  18254700.501    95929151.301         763.539          40.000    18254694.971    73504163.058         585.076          47.000  
E20  20638075.098   108453887.635        -384.660          38.000                                                                  
E26  21377939.929   112341753.982       -2296.732          38.000    21377941.014    86079992.345       -1759.967          41.000  
J02  32244696.367   169446998.616          52.979          35.000    32244705.653   132036435.523          41.700          36.000  
J03  31646299.797   166302403.364         840.387          44.000                                                                  
J04  32835674.652   172552621.210        -292.859          43.000    32835665.989   134456552.975        -228.278          46.000  
J07  31521004.437   165643966.956         254.066          37.000    31520997.179   129073217.443         197.697          43.000  
C07  33873222.868   136393305.895       -1167.972          39.000    33873233.306   176386672.998       -1510.458          37.000  
C08  31517403.081   126907581.835         528.349          44.000    31517420.320   164119508.163         683.144          42.000  
C10  33470716.353   134772607.614       -1131.030          36.000    33470722.364   174290729.744       -1462.811          37.000  
C13  32344529.974   130238075.290         546.144          43.000    32344537.460   168426502.030         706.281          43.000  
C14  19548645.992    78714291.631       -1786.012          43.000    19548659.445   101794959.377       -2309.590          38.000  
C24                                                                  20530395.029   106907202.831        1420.211          38.000  
C27                                                                  16645015.838    86675002.444        1036.934          48.000  
C28                                                                  16733376.046    87135065.193       -1841.726          47.000  
> 2023 07 11 06 06 14.9810000  0 38                     
G05  15817497.402    83121617.103        1785.938          45.000    15817489.245    64770075.997        1391.196          40.000  
G06  16285946.012    85583261.770       -2218.504          43.000    16285941.892    66688267.456       -1728.771          42.000  
G07  17838054.534    93739804.980         245.488          42.000    17838047.362    73043980.338         191.463          37.000  
G09  18921957.465    99435624.959       -3206.682          37.000    18921951.993    77482345.768       -2499.269          35.000  
G11  14617147.112    76813704.015         248.387          46.000    14617138.630    59854837.015         193.631          49.000  
G13  15962117.981    83881639.435        3288.733          45.000                                                                  
G15  18834321.036    98975068.016        3884.833          38.000    18834317.385    77123423.425        3026.377          32.000  
G19  19591486.299   102953924.706       -3608.539          34.000                                                                  
G20  14928167.161    78448124.243         767.606          45.000                                                                  
G29  17947432.634    94314424.318        2218.474          39.000    17947425.419    73491730.341        1728.139          35.000  
G30  17277299.674    90792983.243        1757.394          43.000    17277296.387    70747856.554        1369.391          40.000  
R02  16121990.202    86030153.609       -2908.354          47.000    16121982.940    66912274.818       -2262.200          42.000  
R03  13891478.662    74362307.530        -319.398          48.000    13891465.643    57837367.131        -248.501          47.000  
R04  15752358.633    84353282.593        2630.437          44.000    15752349.775    65608024.028        2045.983          44.000  
R12  18587974.957    99293652.419        2396.742          44.000                                                                  
R17  14771158.540    79043459.757       -2841.390          47.000    14771149.095    61478180.752       -2210.012          46.000  
R18  13573277.131    72455155.390         966.674          48.000    13573268.980    56353982.497         751.754          48.000  
R19  16038287.605    85794042.004        3912.975          33.000    16038278.384    66728676.266        3043.799          39.000  
E04  21135561.720   111068189.815        2886.293          38.000    21135563.087    85104211.101        2211.594          41.000  
E07  23219650.549   122020072.368       -2524.175          35.000    23219650.939    93495927.487       -1934.522          33.000  
E10  20438234.651   107403666.899        2702.833          41.000    20438232.559    82296314.254        2070.938          45.000  
E12  18655031.226    98032892.957        1899.577          42.000    18655024.369    75116134.577        1455.546          46.000  
E14  14727960.617    77395961.350        3503.223          40.000                                                                  
E19  18254555.216    95928387.792         763.514          40.000    18254549.665    73503578.039         585.023          46.000  
E20  20638148.312   108454272.159        -384.608          38.000                                                                  
E26  21378376.931   112344050.792       -2296.725          38.000    21378378.132    86081752.247       -1759.821          40.000  
J02  32244686.284   169446945.181          53.503          35.000    32244695.481   132036393.882          41.677          36.000  
J03  31646139.807   166301562.828         840.708          44.000                                                                  
J04  32835730.292   172552914.078        -292.714          43.000    32835721.716   134456781.174        -227.935          46.000  
J07  31520956.170   165643712.930         254.542          38.000    31520948.805   129073019.502         198.104          43.000  
C07  33873512.825   136394473.518       -1167.476          39.000    33873523.335   176388182.987       -1509.750          37.000  
C08  31517271.820   126907053.339         528.721          44.000    31517288.991   164118824.710         683.625          42.000  
C10  33470997.316   134773738.801       -1131.299          36.000    33471003.378   174292192.620       -1462.920          37.000  
C13  32344394.231   130237529.100         546.340          43.000    32344401.896   168425795.686         706.641          43.000  
C14  19549089.499    78716077.664       -1785.803          43.000    19549102.937   101797269.124       -2309.477          37.000  
C24                                                                  20530122.341   106905782.674        1420.259          38.000  
C27                                                                  16644816.820    86673965.649        1036.672          48.000  
C28                                                                  16733729.725    87136907.039       -1841.857          47.000  
> 2023 07 11 06 06 15.9810000  0 38                     
G05  15817157.535    83119831.514        1785.437          45.000    15817149.519    64768684.602        1391.464          40.000  
G06  16286368.176    85585480.434       -2218.621          43.000    16286364.149    66689996.282       -1728.826          42.000  
G07  17838007.949    93739559.919         244.684          43.000    17838000.731    73043789.386         190.512          37.000  
G09  18922567.809    99438831.993       -3207.606          37.000    18922562.229    77484844.723       -2499.411          34.000  
G11  14617099.881    76813455.859         247.776          46.000    14617091.496    59854643.644         193.027          49.000  
G13  15961492.245    83878351.197        3288.008          45.000                                                                  
G15  18833581.800    98971183.588        3884.412          39.000    18833577.854    77120396.577        3026.697          32.000  
G19  19592172.897   102957532.820       -3608.299          34.000                                                                  
G20  14928021.123    78447356.801         767.175          45.000                                                                  
G29  17947010.630    94312206.743        2217.247          39.000    17947003.437    73490002.369        1727.271          35.000  
G30  17276965.395    90791226.189        1756.572          43.000    17276961.958    70746487.411        1369.251          40.000  
R02  16122535.224    86033062.120       -2908.572          47.000    16122528.015    66914536.985       -2262.335          42.000  
R03  13891538.530    74362627.450        -320.338          48.000    13891525.511    57837615.945        -249.100          47.000  
R04  15751867.539    84350652.506        2629.867          44.000    15751858.659    65605978.407        2045.501          44.000  
R12  18587526.328    99291256.067        2396.131          44.000                                                                  
R17  14771689.574    79046301.611       -2842.157          47.000    14771680.152    61480391.083       -2210.701          46.000  
R18  13573096.207    72454189.362         965.462          48.000    13573088.059    56353231.140         750.876          48.000  
R19  16037556.086    85790129.449        3912.444          32.000    16037547.008    66725633.218        3042.615          39.000  
E04  21135012.511   111065303.600        2886.176          38.000    21135013.842    85101999.599        2211.381          41.000  
E07  23220130.800   122022596.871       -2524.520          35.000    23220131.302    93497861.837       -1934.350          33.000  
E10  20437720.312   107400964.310        2702.563          42.000    20437718.351    82294243.433        2070.768          45.000  
E12  18654669.727    98030993.837        1899.016          43.000    18654662.905    75114679.410        1455.124          46.000  
E14  14727294.196    77392458.985        3501.903          41.000                                                                  
E19  18254410.108    95927624.598         762.953          40.000    18254404.493    73502993.257         584.645          46.000  
E20  20638221.501   108454656.993        -385.081          39.000                                                                  
E26  21378814.020   112346347.745       -2297.108          39.000    21378815.358    86083512.239       -1760.222          40.000  
J02  32244676.046   169446891.585          53.862          35.000    32244685.220   132036352.152          41.731          36.000  
J03  31645979.860   166300722.297         840.513          44.000                                                                  
J04  32835786.011   172553206.830        -292.742          43.000    32835777.476   134457009.301        -228.198          46.000  
J07  31520907.805   165643458.841         254.160          38.000    31520900.417   129072821.520         197.701          43.000  
C07  33873802.738   136395641.125       -1167.874          39.000    33873813.302   176389692.952       -1510.084          37.000  
C08  31517140.585   126906524.786         528.376          44.000    31517157.851   164118141.153         683.491          42.000  
C10  33471278.269   134774869.910       -1130.723          36.000    33471284.188   174293655.421       -1462.772          37.000  
C13  32344258.537   130236982.818         546.093          43.000    32344266.285   168425089.214         706.548          43.000  
C14  19549533.022    78717863.632       -1786.190          43.000    19549546.518   101799578.773       -2309.738          37.000  
C24                                                                  20529849.701   106904362.845        1419.355          38.000  
C27                                                                  16644617.751    86672929.336        1036.023          48.000  
C28                                                                  16734083.555    87138749.266       -1842.584          47.000  
> 2023 07 11 06 06 16.9810000  0 38                     
G05  15816817.795    83118046.253        1785.298          45.000    15816809.769    64767293.499        1391.060          40.000  
G06  16286790.478    85587699.641       -2219.356          43.000    16286786.657    66691725.514       -1729.466          42.000  
G07  17837961.419    93739315.509         243.708          42.000    17837954.286    73043598.909         190.552          37.000  
G09  18923178.033    99442039.163       -3206.943          37.000    18923172.607    77487343.838       -2499.520          34.000  
G11  14617052.829    76813208.322         247.567          46.000    14617044.422    59854450.756         192.879          49.000  
G13  15960866.455    83875063.482        3287.696          45.000                                                                  
G15  18832842.718    98967299.436        3884.445          38.000    18832838.721    77117369.999        3026.255          32.000  
G19  19592859.482   102961140.907       -3607.668          34.000                                                                  
G20  14927875.159    78446589.691         766.941          45.000                                                                  
G29  17946588.810    94309989.854        2216.877          39.000    17946581.604    73488274.907        1727.425          35.000  
G30  17276631.178    90789469.697        1756.427          43.000    17276627.605    70745118.716        1368.706          40.000  
R02  16123080.344    86035970.826       -2908.629          47.000    16123073.124    66916799.307       -2262.375          42.000  
R03  13891598.432    74362947.959        -320.662          48.000    13891585.180    57837865.225        -249.189          47.000  
R04  15751376.561    84348023.001        2629.333          44.000    15751367.591    65603933.237        2045.185          44.000  
R12  18587077.952    99288860.275        2395.927          44.000                                                                  
R17  14772220.897    79049144.259       -2842.921          47.000    14772211.393    61482602.011       -2211.029          46.000  
R18  13572915.494    72453224.316         964.838          48.000    13572907.340    56352480.549         750.391          48.000  
R19  16036824.777    85786217.402        3911.815          32.000    16036815.763    66722590.523        3042.416          39.000  
E04  21134463.471   111062417.704        2885.841          38.000    21134464.746    85099788.325        2211.408          41.000  
E07  23220611.038   122025121.471       -2524.626          34.000    23220611.874    93499796.285       -1934.476          34.000  
E10  20437206.081   107398261.945        2702.409          41.000    20437204.075    82292172.795        2070.670          45.000  
E12  18654308.524    98029095.087        1898.739          42.000    18654301.658    75113224.517        1454.928          46.000  
E14  14726628.155    77388958.074        3500.523          40.000                                                                  
E19  18254265.059    95926861.944         762.442          40.000    18254259.437    73502408.874         584.336          46.000  
E20  20638294.901   108455042.300        -385.643          38.000                                                                  
E26  21379251.213   112348644.995       -2297.235          39.000    21379252.387    86085272.452       -1760.133          40.000  
J02  32244665.948   169446838.123          53.659          35.000    32244675.093   132036310.460          41.764          36.000  
J03  31645820.081   166299881.941         840.521          44.000                                                                  
J04  32835841.682   172553499.664        -292.780          43.000    32835833.259   134457237.478        -228.021          46.000  
J07  31520859.431   165643204.891         254.230          38.000    31520852.088   129072623.622         198.118          43.000  
C07  33874092.743   136396808.788       -1167.587          39.000    33874103.327   176391203.021       -1509.637          37.000  
C08  31517009.224   126905996.251         528.605          44.000    31517026.510   164117457.642         683.847          42.000  
C10  33471559.182   134776001.175       -1131.013          36.000    33471565.219   174295118.384       -1462.625          37.000  
C13  32344122.869   130236436.578         546.339          43.000    32344130.610   168424382.816         706.577          43.000  
C14  19549976.577    78719649.667       -1786.135          43.000    19549990.052   101801888.514       -2309.641          37.000  
C24                                                                  20529577.157   106902943.481        1419.203          38.000  
C27                                                                  16644418.858    86671893.677        1035.507          48.000  
C28                                                                  16734437.398    87140592.047       -1842.879          47.000  
> 2023 07 11 06 06 17.9810000  0 38                     
G05  15816478.113    83116261.220        1784.606          45.000    15816470.091    64765902.562        1390.527          40.000  
G06  16287212.862    85589919.232       -2219.768          42.000    16287208.994    66693455.078       -1730.021          42.000  
G07  17837914.985    93739071.621         243.160          42.000    17837907.787    73043408.902         189.745          37.000  
G09  18923788.312    99445246.478       -3207.574          37.000    18923782.835    77489843.028       -2499.477          34.000  
G11  14617005.854    76812961.339         246.716          46.000    14616997.413    59854258.311         192.062          49.000  
G13  15960240.943    83871776.233        3286.809          45.000                                                                  
G15  18832103.696    98963415.487        3883.792          38.000    18832099.565    77114343.525        3025.913          32.000  
G19  19593546.037   102964748.948       -3608.461          34.000                                                                  
G20  14927729.149    78445822.839         766.453          45.000                                                                  
G29  17946166.939    94307773.557        2215.658          39.000    17946159.874    73486547.916        1726.542          35.000  
G30  17276296.964    90787713.684        1755.648          43.000    17276293.510    70743750.421        1367.885          40.000  
R02  16123625.568    86038879.686       -2909.075          47.000    16123618.226    66919061.764       -2262.885          42.000  
R03  13891658.405    74363269.004        -321.600          48.000    13891645.121    57838114.934        -250.003          47.000  
R04  15750885.585    84345393.989        2628.560          44.000    15750876.698    65601888.458        2044.428          44.000  
R12  18586629.530    99286464.991        2394.739          44.000                                                                  
R17  14772752.228    79051987.622       -2843.879          47.000    14772742.799    61484813.523       -2211.884          46.000  
R18  13572734.884    72452260.172         963.454          48.000    13572726.653    56351730.658         749.324          48.000  
R19  16036093.637    85782305.833        3910.664          32.000    16036084.484    66719548.135        3042.446          39.000  
E04  21133914.316   111059532.018        2884.970          38.000    21133915.605    85097577.228        2210.821          41.000  
E07  23221091.224   122027646.026       -2524.100          34.000    23221092.469    93501730.725       -1934.467          34.000  
E10  20436691.970   107395559.719        2701.742          41.000    20436689.865    82290102.249        2070.328          45.000  
E12  18653947.302    98027196.595        1898.011          43.000    18653940.453    75111769.835        1454.411          46.000  
E14  14725962.239    77385458.496        3498.550          41.000                                                                  
E19  18254119.903    95926099.677         761.930          40.000    18254114.434    73501824.815         583.702          46.000  
E20  20638368.210   108455427.984        -385.890          39.000                                                                  
E26  21379688.301   112350942.471       -2297.620          39.000    21379689.675    86087032.862       -1760.878          40.000  
J02  32244655.828   169446784.588          53.263          35.000    32244664.869   132036268.764          41.234          36.000  
J03  31645660.140   166299041.691         839.983          44.000                                                                  
J04  32835897.353   172553792.489        -292.921          43.000    32835888.925   134457465.659        -228.309          46.000  
J07  31520811.076   165642950.985         253.809          37.000    31520803.746   129072425.772         197.807          43.000  
C07  33874382.809   136397976.524       -1168.173          39.000    33874393.467   176392713.142       -1510.216          37.000  
C08  31516877.983   126905467.689         528.542          44.000    31516895.336   164116774.111         683.369          42.000  
C10  33471840.133   134777132.439       -1130.962          36.000    33471846.315   174296581.406       -1462.833          36.000  
C13  32343987.188   130235890.308         546.055          43.000    32343994.902   168423676.361         706.259          43.000  
C14  19550420.194    78721435.705       -1786.002          43.000    19550433.656   101804198.256       -2309.731          37.000  
C24                                                                  20529304.701   106901524.508        1418.526          38.000  
C27                                                                  16644219.973    86670858.608        1034.514          48.000  
C28                                                                  16734791.336    87142435.307       -1843.815          47.000  
> 2023 07 11 06 06 18.9810000  0 38                     
G05  15816138.468    83114476.372        1784.806          45.000    15816130.446    64764511.781        1390.602          40.000  
G06  16287635.267    85592139.199       -2219.962          43.000    16287631.389    66695184.906       -1729.814          42.000  
G07  17837868.636    93738828.246         243.230          42.000    17837861.526    73043219.271         189.496          37.000  
G09  18924398.585    99448453.849       -3207.234          37.000    18924393.096    77492342.299       -2499.176          34.000  
G11  14616959.030    76812714.888         246.054          46.000    14616950.458    59854066.249         191.969          49.000  
G13  15959615.511    83868489.357        3286.996          45.000                                                                  
G15  18831364.603    98959531.636        3884.218          38.000    18831360.600    77111317.133        3026.410          32.000  
G19  19594232.550   102968356.821       -3607.804          34.000                                                                  
G20  14927583.272    78445056.183         766.763          45.000                                                                  
G29  17945745.312    94305557.783        2216.181          39.000    17945738.189    73484821.364        1726.400          35.000  
G30  17275962.821    90785958.114        1755.674          43.000    17275959.463    70742382.449        1367.654          40.000  
R02  16124170.607    86041788.664       -2908.920          47.000    16124163.302    66921324.298       -2262.671          42.000  
R03  13891718.454    74363590.539        -321.556          48.000    13891705.048    57838365.025        -250.280          47.000  
R04  15750394.791    84342765.421        2628.400          44.000    15750385.771    65599844.011        2044.373          44.000  
R12  18586181.255    99284070.173        2394.544          44.000                                                                  
R17  14773283.739    79054831.619       -2844.305          47.000    14773274.265    61487025.511       -2212.078          46.000  
R18  13572554.403    72451296.843         963.039          48.000    13572546.213    56350981.398         749.004          48.000  
R19  16035362.466    85778394.570        3911.339          33.000    16035353.350    66716506.082        3041.624          39.000  
E04  21133365.215   111056646.494        2885.831          39.000    21133366.468    85095366.258        2210.955          42.000  
E07  23221571.679   122030170.616       -2524.176          34.000    23221572.876    93503665.150       -1934.208          36.000  
E10  20436177.730   107392857.569        2702.189          41.000    20436175.572    82288031.773        2070.504          45.000  
E12  18653585.982    98025298.327        1898.169          43.000    18653579.303    75110315.325        1454.319          46.000  
E14  14725296.501    77381960.212        3497.647          41.000                                                                  
E19  18253974.921    95925337.838         761.763          40.000    18253969.325    73501241.069         583.565          47.000  
E20  20638441.723   108455814.076        -386.284          39.000                                                                  
E26  21380125.539   112353240.105       -2297.551          39.000    21380126.923    86088793.375       -1760.527          40.000  
J02  32244645.626   169446730.988          53.888          35.000    32244654.691   132036226.979          41.893          36.000  
J03  31645500.153   166298201.478         840.327          44.000                                                                  
J04  32835953.101   172554085.277        -292.762          43.000    32835944.536   134457693.793        -227.946          46.000  
J07  31520762.691   165642697.067         254.305          37.000    31520755.453   129072227.925         197.780          43.000  
C07  33874672.877   136399144.213       -1167.798          39.000    33874683.429   176394223.250       -1510.077          37.000  
C08  31516746.663   126904939.047         528.908          44.000    31516763.987   164116090.458         683.806          42.000  
C10  33472121.141   134778263.792       -1131.188          36.000    33472127.257   174298044.471       -1462.730          36.000  
C13  32343851.515   130235343.977         546.307          43.000    32343859.235   168422969.807         706.945          43.000  
C14  19550863.814    78723221.730       -1785.962          43.000    19550877.306   101806507.985       -2309.412          37.000  
C24                                                                  20529032.250   106900105.912        1418.273          38.000  
C27                                                                  16644021.296    86669824.058        1034.386          48.000  
C28                                                                  16735145.370    87144278.988       -1843.639          47.000  
> 2023 07 11 06 06 19.9810000  0 38                     
G05  15815798.957    83112691.836        1784.269          45.000    15815790.866    64763121.220        1390.604          40.000  
G06  16288057.734    85594359.640       -2220.479          43.000    16288054.026    66696915.119       -1730.159          42.000  
G07  17837822.477    93738585.499         242.478          42.000    17837815.315    73043030.128         188.625          37.000  
G09  18925008.897    99451661.415       -3207.931          37.000    18925003.465    77494841.663       -2499.184          34.000  
G11  14616912.261    76812469.007         245.642          46.000    14616903.695    59853874.663         191.300          49.000  
G13  15958990.116    83865203.009        3285.936          45.000                                                                  
G15  18830625.572    98955648.059        3883.347          39.000    18830621.529    77108290.945        3026.223          32.000  
G19  19594919.111   102971964.672       -3608.167          34.000                                                                  
G20  14927437.530    78444289.870         766.088          45.000                                                                  
G29  17945323.779    94303342.712        2214.583          39.000    17945316.699    73483095.308        1725.738          35.000  
G30  17275628.882    90784203.076        1754.926          43.000    17275625.515    70741014.879        1367.347          40.000  
R02  16124715.712    86044697.831       -2909.190          47.000    16124708.531    66923586.971       -2262.800          42.000  
R03  13891778.666    74363912.702        -322.435          48.000    13891765.148    57838615.587        -250.864          47.000  
R04  15749904.069    84340137.387        2627.639          44.000    15749894.892    65597799.995        2043.798          44.000  
R12  18585733.115    99281675.901        2393.971          44.000                                                                  
R17  14773815.362    79057676.278       -2844.965          47.000    14773805.937    61489238.026       -2212.942          46.000  
R18  13572374.106    72450334.444         961.889          48.000    13572365.991    56350232.869         748.162          48.000  
R19  16034631.435    85774483.784        3910.444          33.000    16034622.342    66713464.354        3041.546          39.000  
E04  21132816.219   111053761.266        2884.971          39.000    21132817.308    85093155.499        2210.688          41.000  
E07  23222052.294   122032695.264       -2524.646          33.000    23222053.218    93505599.589       -1934.441          35.000  
E10  20435663.538   107390155.601        2701.932          41.000    20435661.323    82285961.445        2070.232          44.000  
E12  18653224.834    98023400.381        1897.829          43.000    18653218.036    75108861.063        1453.974          46.000  
E14  14724630.979    77378463.324        3496.106          41.000                                                                  
E19  18253830.016    95924576.491         761.304          40.000    18253824.405    73500657.694         583.154          46.000  
E20  20638515.205   108456200.579        -386.662          39.000                                                                  
E26  21380562.815   112355538.032       -2297.962          39.000    21380564.100    86090554.123       -1760.909          40.000  
J02  32244635.351   169446677.426          53.435          35.000    32244644.614   132036185.242          42.230          36.000  
J03  31645340.217   166297361.431         839.834          44.000                                                                  
J04  32836008.749   172554378.099        -292.836          43.000    32836000.279   134457921.974        -228.137          46.000  
J07  31520714.393   165642443.258         253.683          37.000    31520707.173   129072030.144         197.751          43.000  
C07  33874962.877   136400311.994       -1167.858          39.000    33874973.403   176395733.457       -1510.231          37.000  
C08  31516615.361   126904410.463         528.325          44.000    31516632.595   164115406.864         683.462          42.000  
C10  33472402.073   134779395.246       -1131.644          36.000    33472408.185   174299507.658       -1462.918          36.000  
C13  32343715.801   130234797.667         546.218          43.000    32343723.546   168422263.331         706.465          43.000  
C14  19551307.447    78725007.799       -1786.148          43.000    19551320.991   101808817.783       -2310.055          37.000  
C24                                                                  20528759.780   106898687.746        1417.916          38.000  
C27                                                                  16643822.752    86668790.143        1033.546          48.000  
C28                                                                  16735499.532    87146123.205       -1844.479          47.000  
> 2023 07 11 06 06 20.9810000  0 38                     
G05  15815459.412    83110907.391        1783.878          45.000    15815451.290    64761730.747        1390.056          41.000  
G06  16288480.333    85596580.357       -2220.796          43.000    16288476.771    66698645.548       -1730.629          42.000  
G07  17837776.331    93738343.194         241.773          43.000    17837769.207    73042841.293         188.277          37.000  
G09  18925619.301    99454868.926       -3207.836          37.000    18925613.799    77497341.042       -2499.848          34.000  
G11  14616865.655    76812223.537         245.198          46.000    14616857.087    59853683.392         190.910          49.000  
G13  15958364.815    83861916.955        3285.681          45.000                                                                  
G15  18829886.641    98951764.496        3883.463          39.000    18829882.667    77105264.807        3026.438          32.000  
G19  19595605.655   102975572.282       -3607.428          34.000                                                                  
G20  14927291.742    78443523.647         765.917          45.000                                                                  
G29  17944902.421    94301128.075        2214.183          39.000    17944895.322    73481369.622        1725.181          35.000  
G30  17275294.985    90782448.393        1754.365          43.000    17275291.601    70739647.587        1367.139          40.000  
R02  16125260.836    86047606.960       -2909.252          47.000    16125253.612    66925849.627       -2262.773          42.000  
R03  13891838.953    74364235.272        -322.926          48.000    13891825.364    57838866.478        -251.184          47.000  
R04  15749413.396    84337509.678        2627.277          44.000    15749404.165    65595756.236        2043.361          44.000  
R12  18585285.042    99279281.976        2393.662          44.000                                                                  
R17  14774347.048    79060521.407       -2845.631          47.000    14774337.572    61491450.896       -2213.221          46.000  
R18  13572193.845    72449372.777         961.088          48.000    13572185.896    56349484.903         747.507          48.000  
R19  16033900.500    85770573.261        3910.925          33.000    16033891.218    66710422.854        3041.422          39.000  
E04  21132267.061   111050876.098        2885.104          38.000    21132268.367    85090944.801        2210.391          42.000  
E07  23222532.702   122035219.796       -2524.619          32.000    23222533.619    93507533.956       -1934.421          36.000  
E10  20435149.263   107387453.640        2701.554          41.000    20435147.282    82283891.112        2070.128          45.000  
E12  18652863.743    98021502.603        1897.321          42.000    18652856.820    75107406.903        1453.881          46.000  
E14  14723965.736    77374967.637        3494.812          40.000                                                                  
E19  18253685.222    95923815.444         760.597          40.000    18253679.517    73500074.554         582.775          47.000  
E20  20638588.918   108456587.378        -387.216          38.000                                                                  
E26  21381000.239   112357836.038       -2298.287          38.000    21381001.338    86092314.912       -1760.797          41.000  
J02  32244625.065   169446623.696          53.647          35.000    32244634.296   132036143.397          41.475          36.000  
J03  31645180.235   166296521.323         839.857          44.000                                                                  
J04  32836064.394   172554670.787        -292.761          43.000    32836055.911   134458150.042        -228.168          46.000  
J07  31520666.147   165642189.360         253.389          37.000    31520658.877   129071832.294         197.882          43.000  
C07  33875252.877   136401479.696       -1167.848          39.000    33875263.417   176397243.564       -1510.347          37.000  
C08  31516483.964   126903881.710         528.654          44.000    31516501.353   164114723.082         683.677          42.000  
C10  33472683.069   134780526.596       -1131.329          36.000    33472689.195   174300970.820       -1463.694          36.000  
C13  32343580.072   130234251.219         546.075          43.000    32343587.798   168421556.646         706.525          42.000  
C14  19551750.979    78726793.769       -1786.038          43.000    19551764.480   101811127.448       -2309.854          37.000  
C24                                                                  20528487.482   106897269.860        1417.735          38.000  
C27                                                                  16643624.189    86667756.668        1032.983          48.000  
C28                                                                  16735853.709    87147967.755       -1844.924          47.000  
> 2023 07 11 06 06 21.9810000  0 38                     
G05  15815119.898    83109123.105        1784.215          45.000    15815111.869    64760340.402        1390.216          41.000  
G06  16288902.933    85598801.442       -2221.241          43.000    16288899.502    66700376.256       -1730.859          42.000  
G07  17837730.339    93738101.381         240.913          43.000    17837723.188    73042652.855         188.294          37.000  
G09  18926229.743    99458076.451       -3207.235          37.000    18926224.187    77499840.444       -2499.479          34.000  
G11  14616819.031    76811978.558         244.854          46.000    14616810.504    59853492.505         190.717          49.000  
G13  15957739.580    83858631.300        3285.521          45.000                                                                  
G15  18829147.560    98947881.058        3883.564          38.000    18829143.686    77102238.772        3026.090          32.000  
G19  19596292.066   102979179.791       -3607.884          34.000                                                                  
G20  14927145.951    78442757.641         765.942          45.000                                                                  
G29  17944481.088    94298913.986        2213.792          39.000    17944473.959    73479644.383        1724.493          35.000  
G30  17274961.146    90780694.120        1754.153          43.000    17274957.760    70738280.625        1366.977          40.000  
R02  16125806.067    86050516.105       -2909.061          47.000    16125798.878    66928112.297       -2262.709          42.000  
R03  13891899.306    74364558.331        -323.241          48.000    13891885.653    57839117.746        -251.488          47.000  
R04  15748922.857    84334882.410        2627.198          44.000    15748913.507    65593712.807        2043.213          44.000  
R12  18584837.040    99276888.506        2393.246          44.000                                                                  
R17  14774878.872    79063367.158       -2846.020          47.000    14774869.377    61493664.263       -2213.691          46.000  
R18  13572013.838    72448411.934         960.554          48.000    13572005.907    56348737.579         747.058          48.000  
R19  16033169.502    85766663.143        3910.459          33.000    16033160.108    66707381.623        3041.519          39.000  
E04  21131718.232   111047991.115        2884.758          38.000    21131719.332    85088734.227        2210.487          41.000  
E07  23223012.928   122037744.257       -2524.553          32.000    23223013.952    93509468.253       -1934.040          36.000  
E10  20434635.002   107384751.753        2701.865          41.000    20434633.027    82281820.834        2070.283          45.000  
E12  18652502.686    98019605.022        1897.635          42.000    18652495.802    75105952.922        1453.965          46.000  
E14  14723300.866    77371473.252        3493.731          40.000                                                                  
E19  18253540.463    95923054.769         760.441          40.000    18253534.786    73499491.694         582.692          46.000  
E20  20638662.530   108456974.504        -387.460          38.000                                                                  
E26  21381437.641   112360134.214       -2298.375          38.000    21381438.866    86094075.850       -1761.156          40.000  
J02  32244614.784   169446569.892          53.657          35.000    32244623.987   132036101.442          42.277          36.000  
J03  31645020.414   166295681.261         840.076          44.000                                                                  
J04  32836120.210   172554963.411        -292.522          43.000    32836111.538   134458378.066        -228.028          46.000  
J07  31520617.866   165641935.416         254.344          38.000    31520610.600   129071634.443         197.791          43.000  
C07  33875542.862   136402647.367       -1167.510          39.000    33875553.526   176398753.650       -1510.381          37.000  
C08  31516352.696   126903352.910         528.953          44.000    31516370.030   164114039.224         684.157          42.000  
C10  33472964.022   134781658.005       -1131.362          36.000    33472970.153   174302433.940       -1463.022          36.000  
C13  32343444.316   130233704.716         546.439          43.000    32343451.965   168420849.903         706.924          42.000  
C14  19552194.502    78728579.705       -1785.861          43.000    19552208.014   101813437.056       -2309.472          37.000  
C24                                                                  20528215.335   106895852.314        1417.396          38.000  
C27                                                                  16643425.777    86666723.708        1032.722          48.000  
C28                                                                  16736208.102    87149812.724       -1845.048          47.000  
> 2023 07 11 06 06 22.9810000  0 38                     
G05  15814780.459    83107338.892        1784.155          45.000    15814772.425    64758950.107        1390.111          41.000  
G06  16289325.560    85601022.773       -2221.772          43.000    16289322.112    66702107.153       -1731.047          42.000  
G07  17837684.439    93737859.891         241.186          43.000    17837677.201    73042464.718         187.668          37.000  
G09  18926840.110    99461283.951       -3207.486          38.000    18926834.447    77502339.777       -2499.471          34.000  
G11  14616772.531    76811733.973         244.398          46.000    14616763.863    59853301.907         190.481          49.000  
G13  15957114.356    83855345.918        3285.137          45.000                                                                  
G15  18828408.624    98943997.645        3883.217          38.000    18828404.691    77099212.736        3026.578          32.000  
G19  19596978.409   102982787.014       -3607.644          34.000                                                                  
G20  14927000.275    78441991.715         765.797          45.000                                                                  
G29  17944059.914    94296700.322        2213.676          39.000    17944052.816    73477919.404        1725.342          35.000  
G30  17274627.419    90778940.159        1753.800          43.000    17274624.060    70736913.906        1366.805          40.000  
R02  16126351.285    86053425.201       -2909.203          47.000    16126343.971    66930374.910       -2262.657          42.000  
R03  13891959.691    74364881.716        -323.666          48.000    13891945.964    57839369.264        -251.716          47.000  
R04  15748432.225    84332255.453        2626.683          44.000    15748422.914    65591669.610        2042.908          44.000  
R12  18584389.058    99274495.356        2392.881          44.000                                                                  
R17  14775410.822    79066213.423       -2846.514          47.000    14775401.235    61495878.019       -2214.051          46.000  
R18  13571833.949    72447451.818         959.643          48.000    13571825.949    56347990.820         746.493          48.000  
R19  16032438.800    85762753.239        3909.703          33.000    16032429.273    66704340.590        3040.910          39.000  
E04  21131169.156   111045106.152        2884.935          38.000    21131170.420    85086523.683        2210.246          41.000  
E07  23223493.333   122040268.521       -2523.749          32.000    23223494.185    93511402.451       -1934.242          36.000  
E10  20434120.802   107382049.804        2702.087          40.000    20434118.935    82279750.521        2070.319          44.000  
E12  18652141.779    98017707.552        1897.337          42.000    18652134.841    75104499.018        1453.768          46.000  
E14  14722636.232    77367980.015        3492.646          40.000                                                                  
E19  18253395.752    95922294.320         760.168          39.000    18253390.051    73498909.014         582.602          46.000  
E20  20638736.429   108457361.843        -387.461          38.000                                                                  
E26  21381874.926   112362432.416       -2298.159          39.000    21381876.071    86095836.818       -1761.351          40.000  
J02  32244604.506   169446515.883          53.867          35.000    32244613.732   132036059.359          42.399          36.000  
J03  31644860.592   166294841.114         840.258          44.000                                                                  
J04  32836175.918   172555255.865        -292.610          43.000    32836167.232   134458605.941        -227.770          46.000  
J07  31520569.504   165641681.380         254.022          38.000    31520562.176   129071436.474         197.922          43.000  
C07  33875832.806   136403814.976       -1167.869          39.000    33875843.490   176400263.576       -1509.835          37.000  
C08  31516221.294   126902823.959         528.966          44.000    31516238.564   164113355.189         683.798          42.000  
C10  33473244.976   134782789.301       -1131.140          36.000    33473251.180   174303896.970       -1462.860          36.000  
C13  32343308.592   130233158.053         546.648          43.000    32343316.175   168420142.946         707.047          42.000  
C14  19552638.040    78730365.523       -1785.778          43.000    19552651.518   101815746.500       -2309.263          37.000  
C24                                                                  20527943.202   106894435.006        1416.958          38.000  
C27                                                                  16643227.434    86665691.161        1032.293          48.000  
C28                                                                  16736562.405    87151657.991       -1845.411          47.000  
> 2023 07 11 06 06 23.9810000  0 38                     
G05  15814441.014    83105554.863        1783.534          45.000    15814433.006    64757559.962        1389.669          41.000  
G06  16289748.381    85603244.450       -2222.349          43.000    16289744.918    66703838.330       -1731.653          42.000  
G07  17837638.565    93737618.946         240.372          43.000    17837631.363    73042276.992         186.707          37.000  
G09  18927450.488    99464491.499       -3207.976          38.000    18927444.872    77504839.135       -2499.308          35.000  
G11  14616726.082    76811489.877         243.516          46.000    14616717.396    59853111.706         189.706          49.000  
G13  15956489.213    83852060.931        3284.479          45.000                                                                  
G15  18827669.599    98940114.351        3882.832          38.000    18827665.770    77096186.807        3025.903          32.000  
G19  19597664.634   102986394.066       -3607.469          34.000                                                                  
G20  14926854.595    78441225.982         765.306          45.000                                                                  
G29  17943638.851    94294487.217        2212.456          39.000    17943631.719    73476194.936        1723.752          35.000  
G30  17274293.755    90777186.629        1752.936          43.000    17274290.378    70735547.531        1366.010          40.000  
R02  16126896.472    86056334.399       -2909.786          47.000    16126889.188    66932637.628       -2263.265          42.000  
R03  13892020.111    74365205.549        -324.295          48.000    13892006.505    57839621.140        -252.281          47.000  
R04  15747941.880    84329628.897        2626.020          44.000    15747932.446    65589626.750        2042.355          44.000  
R12  18583941.079    99272102.672        2392.185          44.000                                                                  
R17  14775942.855    79069060.334       -2847.604          47.000    14775933.290    61498092.284       -2214.827          46.000  
R18  13571654.299    72446492.531         958.464          48.000    13571646.122    56347244.714         745.479          48.000  
R19  16031707.876    85758843.674        3909.114          33.000    16031698.295    66701299.817        3040.467          39.000  
E04  21130620.322   111042221.372        2883.996          38.000    21130621.396    85084313.260        2209.957          41.000  
E07  23223973.928   122042792.780       -2524.746          33.000    23223974.641    93513336.590       -1933.950          36.000  
E10  20433606.713   107379347.973        2701.257          41.000    20433604.879    82277680.280        2069.820          44.000  
E12  18651780.691    98015810.303        1896.685          42.000    18651773.757    75103045.277        1453.375          46.000  
E14  14721971.820    77364488.078        3490.937          40.000                                                                  
E19  18253251.060    95921534.249         759.228          40.000    18253245.498    73498326.616         582.041          46.000  
E20  20638810.271   108457749.544        -388.396          38.000                                                                  
E26  21382312.228   112364730.819       -2299.077          39.000    21382313.469    86097597.893       -1761.399          40.000  
J02  32244594.102   169446461.769          54.100          36.000    32244603.558   132036017.218          41.818          36.000  
J03  31644700.769   166294001.022         839.625          44.000                                                                  
J04  32836231.508   172555548.241        -292.653          43.000    32836222.951   134458833.780        -228.040          46.000  
J07  31520521.253   165641427.310         253.384          38.000    31520513.905   129071238.511         197.692          43.000  
C07  33876122.811   136404982.533       -1167.855          39.000    33876133.532   176401773.504       -1510.073          37.000  
C08  31516089.978   126902294.943         528.734          44.000    31516107.218   164112671.042         683.749          42.000  
C10  33473525.922   134783920.634       -1131.754          36.000    33473532.333   174305360.027       -1463.049          36.000  
C13  32343172.866   130232611.337         546.558          43.000    32343180.449   168419435.924         706.766          42.000  
C14  19553081.503    78732151.307       -1785.954          43.000    19553095.061   101818055.936       -2309.523          37.000  
C24                                                                  20527671.177   106893018.029        1416.586          38.000  
C27                                                                  16643029.281    86664659.130        1031.411          48.000  
C28                                                                  16736916.675    87153503.691       -1846.293          47.000  
> 2023 07 11 06 06 24.9810000  0 38                     
G05  15814101.586    83103771.047        1783.461          45.000    15814093.534    64756169.963        1389.874          41.000  
G06  16290171.299    85605466.523       -2222.678          43.000    16290167.834    66705569.810       -1731.826          42.000  
G07  17837592.683    93737378.534         239.817          43.000    17837585.613    73042089.613         187.178          37.000  
G09  18928060.836    99467699.132       -3207.746          38.000    18928055.228    77507338.598       -2499.996          35.000  
G11  14616679.750    76811246.299         242.948          46.000    14616671.100    59852921.895         189.371          49.000  
G13  15955864.344    83848776.356        3284.072          45.000                                                                  
G15  18826930.550    98936231.211        3882.922          38.000    18826926.775    77093161.000        3025.846          32.000  
G19  19598351.043   102990000.990       -3607.280          34.000                                                                  
G20  14926708.892    78440460.472         765.117          45.000                                                                  
G29  17943217.860    94292274.671        2211.790          39.000    17943210.784    73474470.862        1723.621          35.000  
G30  17273960.179    90775433.538        1752.527          43.000    17273956.792    70734181.491        1365.603          40.000  
R02  16127441.660    86059243.736       -2909.781          47.000    16127434.335    66934900.433       -2263.164          42.000  
R03  13892080.766    74365529.865        -324.763          48.000    13892066.995    57839873.382        -252.645          47.000  
R04  15747451.527    84327002.794        2625.645          45.000    15747441.875    65587584.221        2042.024          44.000  
R12  18583493.356    99269710.453        2391.891          44.000                                                                  
R17  14776475.011    79071907.883       -2848.090          47.000    14776465.377    61500307.040       -2215.279          46.000  
R18  13571474.692    72445534.071         957.733          48.000    13571466.655    56346499.243         744.905          48.000  
R19  16030977.054    85754934.492        3908.283          33.000    16030967.507    66698259.323        3040.393          39.000  
E04  21130071.362   111039336.761        2884.302          38.000    21130072.377    85082102.979        2209.992          41.000  
E07  23224454.267   122045317.021       -2524.637          32.000    23224454.897    93515270.765       -1934.459          36.000  
E10  20433092.498   107376646.207        2701.453          41.000    20433090.700    82275610.110        2069.716          44.000  
E12  18651419.605    98013913.298        1896.565          42.000    18651412.713    75101591.724        1453.305          46.000  
E14  14721307.652    77360997.470        3489.502          41.000                                                                  
E19  18253106.662    95920774.565         759.005          40.000    18253100.962    73497744.529         581.671          46.000  
E20  20638884.134   108458137.619        -388.654          39.000                                                                  
E26  21382749.634   112367029.389       -2299.213          39.000    21382750.869    86099359.148       -1761.677          40.000  
J02  32244583.784   169446407.636          53.895          36.000    32244593.249   132035975.018          42.025          36.000  
J03  31644540.884   166293160.979         839.593          44.000                                                                  
J04  32836287.070   172555840.593        -292.529          43.000    32836278.681   134459061.586        -228.053          46.000  
J07  31520472.928   165641173.258         254.150          37.000    31520465.445   129071040.551         197.765          43.000  
C07  33876412.794   136406150.096       -1167.797          39.000    33876423.488   176403283.423       -1509.866          37.000  
C08  31515958.540   126901765.870         528.961          44.000    31515975.800   164111986.840         684.006          42.000  
C10  33473806.909   134785051.978       -1131.299          35.000    33473813.183   174306823.133       -1463.558          36.000  
C13  32343037.082   130232064.574         546.642          43.000    32343044.681   168418728.837         706.770          42.000  
C14  19553525.050    78733937.074       -1785.801          43.000    19553538.562   101820365.318       -2309.525          38.000  
C24                                                                  20527399.087   106891601.447        1416.071          38.000  
C27                                                                  16642831.270    86663627.646        1030.954          48.000  
C28                                                                  16737271.126    87155349.817       -1846.655          47.000  
> 2023 07 11 06 06 25.9810000  0 38                     
G05  15813762.165    83101987.568        1783.567          45.000    15813754.145    64754780.253        1389.655          41.000  
G06  16290594.232    85607689.106       -2222.847          43.000    16290590.762    66707301.688       -1732.051          42.000  
G07  17837547.030    93737138.741         239.867          43.000    17837539.990    73041902.789         186.525          37.000  
G09  18928671.231    99470906.955       -3207.375          38.000    18928665.690    77509838.238       -2500.097          34.000  
G11  14616633.404    76811003.365         242.795          46.000    14616624.803    59852732.600         189.244          49.000  
G13  15955239.409    83845492.344        3283.930          45.000                                                                  
G15  18826191.657    98932348.362        3882.990          38.000    18826187.697    77090135.394        3026.077          32.000  
G19  19599037.510   102993607.957       -3606.915          34.000                                                                  
G20  14926563.331    78439695.332         765.141          45.000                                                                  
G29  17942796.938    94290062.804        2211.772          39.000    17942789.975    73472747.321        1723.665          35.000  
G30  17273626.612    90773681.041        1752.474          43.000    17273623.363    70732815.907        1365.452          40.000  
R02  16127986.797    86062153.287       -2909.418          47.000    16127979.678    66937163.422       -2262.867          42.000  
R03  13892141.570    74365854.808        -325.007          48.000    13892127.787    57840126.117        -252.797          47.000  
R04  15746961.345    84324377.287        2625.367          45.000    15746951.580    65585542.169        2041.940          44.000  
R12  18583045.688    99267318.817        2391.667          44.000                                                                  
R17  14777007.311    79074756.233       -2848.512          47.000    14776997.568    61502522.412       -2215.455          46.000  
R18  13571295.424    72444576.596         957.149          48.000    13571287.373    56345754.541         744.447          48.000  
R19  16030246.214    85751025.792        3908.608          33.000    16030236.699    66695219.261        3040.181          39.000  
E04  21129522.569   111036452.472        2884.424          38.000    21129523.414    85079892.950        2210.032          41.000  
E07  23224934.748   122047841.348       -2524.742          32.000    23224935.337    93517205.000       -1933.916          36.000  
E10  20432578.384   107373944.686        2701.826          41.000    20432576.509    82273540.101        2070.261          44.000  
E12  18651058.601    98012016.669        1896.645          42.000    18651051.610    75100138.468        1453.284          46.000  
E14  14720643.725    77357508.275        3488.731          41.000                                                                  
E19  18252962.253    95920015.424         759.183          40.000    18252956.455    73497162.844         581.814          46.000  
E20  20638958.135   108458526.191        -388.753          39.000                                                                  
E26  21383187.130   112369328.276       -2298.769          39.000    21383188.328    86101120.620       -1761.302          40.000  
J02  32244573.554   169446353.569          53.781          36.000    32244582.945   132035932.864          42.452          36.000  
J03  31644381.133   166292321.149         839.869          44.000                                                                  
J04  32836342.773   172556133.040        -292.200          43.000    32836334.288   134459289.467        -227.791          46.000  
J07  31520424.647   165640919.364         254.349          37.000    31520417.191   129070842.708         197.866          43.000  
C07  33876702.808   136407317.762       -1167.400          39.000    33876713.568   176404793.522       -1510.202          37.000  
C08  31515827.230   126901236.880         528.973          44.000    31515844.395   164111302.730         684.294          42.000  
C10  33474087.915   134786183.486       -1131.197          35.000    33474094.083   174308286.424       -1463.254          36.000  
C13  32342901.287   130231517.869         546.828          43.000    32342908.961   168418021.822         707.242          42.000  
C14  19553968.592    78735722.948       -1785.940          43.000    19553982.053   101822674.843       -2309.374          38.000  
C24                                                                  20527127.176   106890185.333        1416.187          37.000  
C27                                                                  16642633.241    86662596.837        1030.830          48.000  
C28                                                                  16737625.818    87157196.527       -1846.778          47.000  
> 2023 07 11 06 06 26.9810000  0 38                     
G05  15813422.793    83100204.316        1782.941          45.000    15813414.861    64753390.706        1389.255          41.000  
G06  16291017.214    85609912.069       -2223.194          43.000    16291013.809    66709033.864       -1732.284          42.000  
G07  17837501.501    93736899.523         239.287          42.000    17837494.457    73041716.367         186.540          37.000  
G09  18929281.662    99474114.910       -3208.415          38.000    18929276.153    77512337.921       -2499.968          34.000  
G11  14616587.211    76810760.945         242.134          46.000    14616578.581    59852543.706         188.729          49.000  
G13  15954614.662    83842208.740        3283.181          45.000                                                                  
G15  18825452.693    98928465.659        3882.456          38.000    18825448.927    77087109.955        3024.915          32.000  
G19  19599723.926   102997214.755       -3606.154          34.000                                                                  
G20  14926417.744    78438930.401         764.864          45.000                                                                  
G29  17942376.149    94287851.516        2211.166          39.000    17942369.216    73471024.256        1722.628          35.000  
G30  17273293.263    90771928.995        1751.783          43.000    17273289.916    70731450.679        1365.212          40.000  
R02  16128532.125    86065062.903       -2909.691          47.000    16128524.911    66939426.436       -2262.793          42.000  
R03  13892202.406    74366180.261        -325.656          48.000    13892188.530    57840379.247        -253.344          47.000  
R04  15746471.199    84321752.227        2624.921          45.000    15746461.383    65583500.458        2041.536          44.000  
R12  18582598.044    99264927.624        2391.025          43.000                                                                  
R17  14777539.648    79077605.206       -2849.144          47.000    14777529.915    61504738.283       -2216.156          46.000  
R18  13571116.277    72443619.989         956.070          48.000    13571108.141    56345010.512         743.640          48.000  
R19  16029515.560    85747117.520        3907.661          33.000    16029506.079    66692179.475        3039.612          39.000  
E04  21128973.583   111033568.383        2883.743          38.000    21128974.768    85077683.071        2209.638          41.000  
E07  23225415.150   122050365.618       -2523.882          32.000    23225415.747    93519139.231       -1934.448          36.000  
E10  20432064.313   107371243.279        2701.344          41.000    20432062.395    82271470.195        2069.755          44.000  
E12  18650697.690    98010120.274        1896.293          42.000    18650690.872    75098685.390        1452.987          46.000  
E14  14719979.952    77354020.406        3487.331          41.000                                                                  
E19  18252817.719    95919256.661         758.623          40.000    18252812.070    73496581.470         581.174          46.000  
E20  20639032.144   108458915.119        -389.189          39.000                                                                  
E26  21383624.715   112371627.359       -2299.346          39.000    21383625.948    86102882.252       -1761.798          40.000  
J02  32244563.268   169446299.424          54.351          36.000    32244572.704   132035890.706          42.229          36.000  
J03  31644221.256   166291481.362         839.815          44.000                                                                  
J04  32836398.534   172556425.454        -292.319          43.000    32836389.972   134459517.316        -227.813          46.000  
J07  31520376.283   165640665.500         253.739          37.000    31520368.840   129070644.870         197.991          43.000  
C07  33876992.829   136408485.459       -1167.769          39.000    33877003.549   176406303.576       -1509.951          37.000  
C08  31515695.908   126900707.834         529.099          44.000    31515713.071   164110618.572         684.244          42.000  
C10  33474368.984   134787315.024       -1131.669          35.000    33474375.005   174309749.761       -1463.369          36.000  
C13  32342765.454   130230971.115         546.923          43.000    32342773.163   168417314.766         707.072          42.000  
C14  19554412.084    78737508.778       -1785.866          43.000    19554425.517   101824984.335       -2309.767          37.000  
C24                                                                  20526855.304   106888769.590        1415.776          37.000  
C27                                                                  16642435.434    86661566.580        1030.043          48.000  
C28                                                                  16737980.573    87159043.676       -1847.441          47.000  
> 2023 07 11 06 06 27.9810000  0 38                     
G05  15813083.524    83098421.223        1783.129          45.000    15813075.590    64752001.272        1389.684          41.000  
G06  16291440.317    85612135.416       -2223.584          43.000    16291436.856    66710766.341       -1732.645          42.000  
G07  17837456.001    93736660.787         238.506          42.000    17837449.021    73041530.356         185.624          37.000  
G09  18929892.098    99477322.852       -3207.582          38.000    18929886.633    77514837.618       -2499.530          35.000  
G11  14616541.253    76810519.035         241.601          46.000    14616532.585    59852355.199         188.388          49.000  
G13  15953989.815    83838925.532        3283.246          45.000                                                                  
G15  18824713.834    98924583.084        3882.612          38.000    18824710.227    77084084.585        3024.967          32.000  
G19  19600410.260   103000821.470       -3606.858          35.000                                                                  
G20  14926272.298    78438165.692         764.526          45.000                                                                  
G29  17941955.505    94285640.791        2210.438          39.000    17941948.552    73469301.609        1722.265          35.000  
G30  17272959.952    90770177.379        1751.539          43.000    17272956.649    70730085.783        1364.765          40.000  
R02  16129077.464    86067972.539       -2909.658          47.000    16129070.238    66941689.503       -2263.086          42.000  
R03  13892263.236    74366506.202        -326.114          48.000    13892249.429    57840632.755        -253.725          47.000  
R04  15745981.116    84319127.604        2624.348          45.000    15745971.107    65581459.070        2041.298          44.000  
R12  18582150.413    99262536.900        2390.598          43.000                                                                  
R17  14778072.238    79080454.775       -2849.872          47.000    14778062.431    61506954.604       -2216.566          46.000  
R18  13570937.289    72442664.206         955.423          48.000    13570929.128    56344267.127         743.125          48.000  
R19  16028784.895    85743209.549        3908.173          33.000    16028775.527    66689139.966        3039.279          39.000  
E04  21128424.840   111030684.462        2883.693          39.000    21128425.994    85075473.317        2209.680          41.000  
E07  23225895.466   122052889.952       -2524.900          32.000    23225895.957    93521073.395       -1934.192          36.000  
E10  20431550.153   107368541.939        2701.510          41.000    20431548.387    82269400.334        2069.936          44.000  
E12  18650336.882    98008224.119        1895.970          43.000    18650330.157    75097232.486        1452.919          46.000  
E14  14719316.484    77350533.849        3485.910          42.000                                                                  
E19  18252673.355    95918498.287         757.995          41.000    18252667.684    73496000.375         580.885          46.000  
E20  20639106.169   108459304.402        -389.416          39.000                                                                  
E26  21384062.000   112373926.606       -2299.267          39.000    21384063.406    86104644.004       -1761.772          40.000  
J02  32244552.878   169446245.226          54.083          36.000    32244562.427   132035848.466          42.227          37.000  
J03  31644061.483   166290641.640         839.708          44.000                                                                  
J04  32836454.214   172556717.809        -292.234          43.000    32836445.574   134459745.126        -227.752          46.000  
J07  31520327.944   165640411.594         254.083          38.000    31520320.507   129070447.047         197.843          43.000  
C07  33877282.826   136409653.131       -1167.455          39.000    33877293.518   176407813.644       -1510.015          37.000  
C08  31515564.517   126900178.735         529.169          44.000    31515581.666   164109934.331         684.254          42.000  
C10  33474649.997   134788446.604       -1132.115          35.000    33474656.008   174311213.123       -1464.042          36.000  
C13  32342629.719   130230424.299         546.996          43.000    32342637.359   168416607.604         707.192          42.000  
C14  19554855.647    78739294.586       -1785.606          43.000    19554868.978   101827293.772       -2309.265          37.000  
C24                                                                  20526583.360   106887354.241        1414.989          37.000  
C27                                                                  16642237.731    86660536.846        1029.507          48.000  
C28                                                                  16738335.428    87160891.241       -1847.610          47.000  
> 2023 07 11 06 06 28.9810000  0 38                     
G05  15812744.267    83096638.187        1782.660          45.000    15812736.348    64750611.901        1389.103          41.000  
G06  16291863.421    85614358.962       -2223.720          43.000    16291860.028    66712498.965       -1732.776          42.000  
G07  17837410.649    93736422.427         238.140          42.000    17837403.692    73041344.624         185.404          37.000  
G09  18930502.579    99480530.737       -3207.572          38.000    18930497.074    77517337.241       -2499.216          35.000  
G11  14616495.316    76810277.460         241.223          46.000    14616486.659    59852166.967         187.917          49.000  
G13  15953365.044    83835642.596        3282.577          45.000                                                                  
G15  18823974.898    98920700.503        3882.428          38.000    18823971.244    77081059.199        3024.840          32.000  
G19  19601096.494   103004427.845       -3606.245          35.000                                                                  
G20  14926126.854    78437401.015         764.562          45.000                                                                  
G29  17941534.910    94283430.447        2210.070          39.000    17941527.944    73467579.280        1721.760          35.000  
G30  17272626.686    90768426.042        1751.030          43.000    17272623.407    70728721.108        1364.314          40.000  
R02  16129622.713    86070882.121       -2909.626          47.000    16129615.458    66943952.497       -2262.994          42.000  
R03  13892324.186    74366832.467        -326.526          48.000    13892310.317    57840886.517        -253.980          47.000  
R04  15745491.132    84316503.230        2624.065          45.000    15745480.895    65579417.912        2040.866          44.000  
R12  18581702.883    99260146.507        2389.997          43.000                                                                  
R17  14778604.787    79083304.779       -2850.363          47.000    14778595.091    61509171.279       -2216.982          46.000  
R18  13570758.287    72441709.092         954.600          48.000    13570750.118    56343524.261         742.511          48.000  
R19  16028054.643    85739301.831        3907.424          33.000    16028044.946    66686100.624        3039.049          39.000  
E04  21127875.953   111027800.536        2883.569          38.000    21127877.228    85073263.578        2209.407          41.000  
E07  23226375.289   122055413.984       -2523.743          31.000    23226376.118    93523007.409       -1933.946          36.000  
E10  20431036.108   107365840.554        2701.318          41.000    20431034.389    82267330.443        2069.860          44.000  
E12  18649976.152    98006328.048        1895.875          42.000    18649969.356    75095779.658        1452.671          46.000  
E14  14718653.275    77347048.410        3485.037          41.000                                                                  
E19  18252529.119    95917740.123         758.057          40.000    18252523.515    73495419.451         580.693          46.000  
E20  20639180.363   108459693.889        -390.068          39.000                                                                  
E26  21384499.504   112376225.881       -2299.314          39.000    21384501.040    86106405.778       -1761.673          40.000  
J02  32244542.480   169446190.794          54.238          36.000    32244552.016   132035806.058          42.287          37.000  
J03  31643901.677   166289801.797         839.820          44.000                                                                  
J04  32836509.845   172557009.961        -292.164          43.000    32836501.170   134459972.773        -227.656          46.000  
J07  31520279.606   165640157.570         253.632          38.000    31520272.201   129070249.083         197.924          43.000  
C07  33877572.782   136410820.672       -1167.297          39.000    33877583.440   176409323.552       -1509.957          37.000  
C08  31515433.103   126899649.472         529.093          44.000    31515450.137   164109249.877         684.187          42.000  
C10  33474931.029   134789577.994       -1131.220          35.000    33474937.073   174312676.310       -1463.335          36.000  
C13  32342493.868   130229877.326         546.874          43.000    32342501.485   168415900.232         707.356          42.000  
C14  19555299.079    78741080.265       -1785.829          43.000    19555312.448   101829603.048       -2309.171          38.000  
C24                                                                  20526311.628   106885939.060        1415.041          37.000  
C27                                                                  16642040.018    86659507.486        1029.146          48.000  
C28                                                                  16738690.329    87162739.098       -1848.135          47.000  
> 2023 07 11 06 06 29.9810000  0 38                     
G05  15812404.954    83094855.408        1782.880          45.000    15812397.118    64749222.733        1389.161          41.000  
G06  16292286.578    85616582.976       -2224.425          43.000    16292283.293    66714231.955       -1732.848          42.000  
G07  17837365.393    93736184.662         237.142          42.000    17837358.436    73041159.331         185.274          37.000  
G09  18931113.005    99483738.761       -3207.964          38.000    18931107.451    77519836.996       -2499.299          34.000  
G11  14616449.419    76810036.477         240.839          46.000    14616440.721    59851979.185         187.615          49.000  
G13  15952740.382    83832360.120        3282.412          45.000                                                                  
G15  18823236.193    98916818.133        3882.358          38.000    18823232.514    77078033.970        3025.384          32.000  
G19  19601782.729   103008034.190       -3606.101          35.000                                                                  
G20  14925981.368    78436636.617         764.436          45.000                                                                  
G29  17941114.480    94281220.740        2209.472          39.000    17941107.538    73465857.426        1721.469          35.000  
G30  17272293.508    90766675.232        1750.792          43.000    17272290.258    70727356.843        1364.080          40.000  
R02  16130167.991    86073791.903       -2909.801          47.000    16130160.706    66946215.659       -2263.195          42.000  
R03  13892385.119    74367159.284        -326.965          48.000    13892371.389    57841140.709        -254.263          47.000  
R04  15745001.241    84313879.397        2623.835          45.000    15744990.928    65577377.159        2040.480          44.000  
R12  18581255.503    99257756.647        2389.763          43.000                                                                  
R17  14779137.429    79086155.502       -2850.940          47.000    14779127.891    61511388.507       -2217.487          46.000  
R18  13570579.396    72440754.893         953.824          48.000    13570571.392    56342782.110         741.904          48.000  
R19  16027324.194    85735394.510        3907.632          33.000    16027314.420    66683061.621        3038.840          39.000  
E04  21127327.372   111024916.867        2883.722          38.000    21127328.517    85071054.011        2209.594          41.000  
E07  23226855.254   122057938.117       -2523.660          31.000    23226856.515    93524941.472       -1933.803          35.000  
E10  20430522.242   107363139.320        2701.255          41.000    20430520.351    82265260.673        2069.777          44.000  
E12  18649615.334    98004432.281        1895.791          42.000    18649608.561    75094327.061        1452.526          45.000  
E14  14717990.275    77343564.366        3483.569          41.000                                                                  
E19  18252384.979    95916982.439         757.631          40.000    18252379.374    73494838.880         580.508          46.000  
E20  20639254.682   108460083.798        -390.060          39.000                                                                  
E26  21384936.990   112378525.410       -2299.588          39.000    21384938.662    86108167.768       -1761.989          40.000  
J02  32244532.228   169446136.369          54.511          36.000    32244541.701   132035763.675          41.743          37.000  
J03  31643741.929   166288962.094         839.918          44.000                                                                  
J04  32836565.469   172557302.130        -291.880          43.000    32836556.826   134460200.453        -227.754          46.000  
J07  31520231.252   165639903.597         254.325          37.000    31520223.853   129070051.185         198.021          43.000  
C07  33877862.736   136411988.315       -1167.999          39.000    33877873.328   176410833.525       -1509.941          37.000  
C08  31515301.655   126899120.195         529.364          44.000    31515318.720   164108565.394         684.595          42.000  
C10  33475212.029   134790709.551       -1131.620          35.000    33475218.083   174314139.631       -1463.324          36.000  
C13  32342358.012   130229330.330         547.014          43.000    32342365.706   168415192.847         707.365          42.000  
C14  19555742.536    78742865.973       -1785.680          43.000    19555755.916   101831912.364       -2309.236          38.000  
C24                                                                  20526039.972   106884524.328        1414.318          37.000  
C27                                                                  16641842.453    86658478.734        1028.660          48.000  
C28                                                                  16739045.261    87164587.462       -1848.549          47.000  
> 2023 07 11 06 06 30.9810000  0 38                     
G05  15812065.732    83093072.932        1782.529          45.000    15812057.947    64747833.799        1388.813          41.000  
G06  16292709.863    85618807.448       -2224.808          43.000    16292706.462    66715965.317       -1733.607          42.000  
G07  17837320.222    93735947.469         237.034          42.000    17837313.335    73040974.521         185.083          37.000  
G09  18931723.466    99486946.966       -3208.016          37.000    18931718.027    77522336.943       -2500.018          35.000  
G11  14616403.721    76809796.109         240.263          46.000    14616394.961    59851791.880         187.252          49.000  
G13  15952115.768    83829078.161        3281.868          45.000                                                                  
G15  18822497.365    98912936.011        3881.909          38.000    18822493.838    77075008.953        3025.128          32.000  
G19  19602468.973   103011640.484       -3605.686          35.000                                                                  
G20  14925836.005    78435872.538         764.094          45.000                                                                  
G29  17940694.132    94279011.715        2208.455          39.000    17940687.191    73464136.093        1721.030          35.000  
G30  17271960.413    90764924.960        1750.150          43.000    17271957.154    70725993.009        1363.650          40.000  
R02  16130713.244    86076701.885       -2910.034          47.000    16130706.068    66948478.978       -2263.374          42.000  
R03  13892446.274    74367486.680        -327.524          48.000    13892432.687    57841395.349        -254.812          47.000  
R04  15744511.373    84311256.159        2622.897          45.000    15744501.033    65575336.851        2039.985          43.000  
R12  18580808.119    99255367.330        2389.140          43.000                                                                  
R17  14779670.210    79089006.964       -2851.715          47.000    14779660.816    61513606.297       -2217.894          46.000  
R18  13570400.909    72439801.663         952.843          48.000    13570392.860    56342040.703         741.202          48.000  
R19  16026593.961    85731487.760        3906.011          32.000    16026584.082    66680022.993        3038.629          39.000  
E04  21126778.713   111022033.483        2883.647          38.000    21126779.761    85068844.681        2209.363          41.000  
E07  23227335.283   122060462.299       -2523.835          30.000    23227336.737    93526875.577       -1933.960          36.000  
E10  20430008.144   107360438.295        2700.779          40.000    20430006.352    82263191.048        2069.656          44.000  
E12  18649254.674    98002536.854        1895.370          42.000    18649247.809    75092874.719        1452.307          46.000  
E14  14717327.652    77340081.734        3482.049          41.000                                                                  
E19  18252240.851    95916225.251         756.926          39.000    18252235.280    73494258.688         580.113          46.000  
E20  20639328.990   108460474.195        -390.586          38.000                                                                  
E26  21385374.701   112380825.229       -2299.805          38.000    21385376.355    86109929.950       -1762.206          40.000  
J02  32244521.845   169446081.972          54.792          36.000    32244531.342   132035721.250          42.948          37.000  
J03  31643582.150   166288122.557         839.373          44.000                                                                  
J04  32836621.040   172557594.383        -292.402          43.000    32836612.415   134460428.165        -227.729          46.000  
J07  31520182.962   165639649.734         254.230          38.000    31520175.621   129069853.375         197.861          43.000  
C07  33878152.661   136413155.969       -1167.352          39.000    33878163.288   176412343.608       -1509.847          37.000  
C08  31515170.244   126898590.936         529.368          44.000    31515187.242   164107880.950         684.432          42.000  
C10  33475492.887   134791841.192       -1131.887          35.000    33475498.937   174315603.105       -1463.788          36.000  
C13  32342222.122   130228783.386         547.066          43.000    32342229.839   168414485.509         707.891          42.000  
C14  19556185.962    78744651.738       -1785.762          43.000    19556199.497   101834221.759       -2309.301          37.000  
C24                                                                  20525768.373   106883110.040        1414.259          37.000  
C27                                                                  16641645.108    86657450.635        1027.885          48.000  
C28                                                                  16739400.389    87166436.348       -1848.978          47.000  
> 2023 07 11 06 06 31.9810000  0 38                     
G05  15811726.691    83091290.554        1782.191          44.000    15811718.730    64746444.927        1388.695          41.000  
G06  16293133.199    85621032.194       -2224.935          43.000    16293129.921    66717698.891       -1733.870          42.000  
G07  17837275.245    93735710.730         236.069          42.000    17837268.366    73040790.068         183.993          37.000  
G09  18932333.922    99490155.151       -3208.373          37.000    18932328.498    77524836.798       -2500.214          34.000  
G11  14616358.102    76809556.158         239.575          46.000    14616349.309    59851604.896         186.888          49.000  
G13  15951491.417    83825796.514        3281.553          45.000                                                                  
G15  18821758.561    98909053.930        3882.021          38.000    18821755.236    77071983.958        3024.749          33.000  
G19  19603155.228   103015246.581       -3606.275          36.000                                                                  
G20  14925690.669    78435108.579         763.841          45.000                                                                  
G29  17940273.918    94276803.120        2208.317          39.000    17940266.918    73462415.113        1721.095          35.000  
G30  17271627.327    90763175.033        1749.661          43.000    17271624.104    70724629.431        1363.285          40.000  
R02  16131258.637    86079611.824       -2910.038          47.000    16131251.405    66950742.253       -2263.312          42.000  
R03  13892507.547    74367814.448        -328.038          48.000    13892493.889    57841650.278        -255.180          47.000  
R04  15744021.686    84308633.226        2622.599          45.000    15744011.167    65573296.799        2039.794          43.000  
R12  18580360.883    99252978.344        2388.648          44.000                                                                  
R17  14780203.192    79091858.935       -2852.347          47.000    14780193.749    61515824.502       -2218.478          46.000  
R18  13570222.468    72438849.171         952.077          48.000    13570214.289    56341299.875         740.555          48.000  
R19  16025863.549    85727581.211        3906.079          33.000    16025853.789    66676984.575        3038.372          39.000  
E04  21126230.115   111019150.200        2883.309          38.000    21126231.032    85066635.396        2209.274          41.000  
E07  23227815.392   122062986.334       -2523.592          30.000    23227817.138    93528809.586       -1933.589          35.000  
E10  20429494.108   107357737.252        2700.916          40.000    20429492.363    82261121.429        2069.535          44.000  
E12  18648894.022    98000641.566        1895.130          42.000    18648887.129    75091422.483        1452.157          45.000  
E14  14716665.215    77336600.304        3480.721          41.000                                                                  
E19  18252096.824    95915468.348         756.784          39.000    18252091.247    73493678.742         579.864          46.000  
E20  20639403.203   108460864.823        -390.718          38.000                                                                  
E26  21385812.494   112383125.118       -2299.827          38.000    21385813.990    86111692.212       -1762.422          40.000  
J02  32244511.623   169446027.439          54.262          36.000    32244520.960   132035678.777          42.360          37.000  
J03  31643422.427   166287282.962         839.558          44.000                                                                  
J04  32836676.689   172557886.466        -292.116          43.000    32836668.009   134460655.773        -227.731          46.000  
J07  31520134.715   165639395.764         254.182          37.000    31520127.270   129069655.494         197.674          43.000  
C07  33878442.629   136414323.595       -1167.880          39.000    33878453.382   176413853.576       -1509.902          37.000  
C08  31515038.765   126898061.573         529.259          44.000    31515055.570   164107196.354         684.508          42.000  
C10  33475773.752   134792972.773       -1131.587          35.000    33475779.953   174317066.486       -1463.160          36.000  
C13  32342086.193   130228236.314         547.054          43.000    32342093.941   168413778.034         707.446          42.000  
C14  19556629.417    78746437.401       -1785.633          43.000    19556642.982   101836531.033       -2309.755          37.000  
C24                                                                  20525496.801   106881696.039        1413.734          37.000  
C27                                                                  16641447.678    86656422.974        1027.312          48.000  
C28                                                                  16739755.533    87168285.585       -1849.469          47.000  
> 2023 07 11 06 06 32.9810000  0 38                     
G05  15811387.591    83089508.309        1781.971          44.000    15811379.654    64745056.186        1388.240          41.000  
G06  16293556.701    85623257.258       -2225.316          43.000    16293553.350    66719432.693       -1733.859          42.000  
G07  17837230.340    93735474.438         235.793          42.000    17837223.420    73040605.930         183.838          37.000  
G09  18932944.424    99493363.338       -3208.808          37.000    18932938.945    77527336.664       -2500.224          35.000  
G11  14616312.424    76809316.628         239.160          46.000    14616303.703    59851418.260         186.402          49.000  
G13  15950867.059    83822515.207        3280.906          45.000                                                                  
G15  18821019.897    98905171.924        3881.948          38.000    18821016.529    77068959.010        3024.878          33.000  
G19  19603841.322   103018852.473       -3606.345          35.000                                                                  
G20  14925545.356    78434344.769         763.549          45.000                                                                  
G29  17939853.891    94274595.049        2207.580          39.000    17939846.806    73460694.551        1719.738          35.000  
G30  17271294.391    90761425.471        1749.376          43.000    17271291.176    70723266.139        1362.939          40.000  
R02  16131804.022    86082521.738       -2910.103          47.000    16131796.752    66953005.522       -2263.293          42.000  
R03  13892568.903    74368142.640        -328.509          48.000    13892555.303    57841905.541        -255.504          47.000  
R04  15743532.049    84306010.634        2622.268          45.000    15743521.407    65571257.017        2039.564          43.000  
R12  18579913.772    99250589.753        2388.179          44.000                                                                  
R17  14780736.308    79094711.474       -2852.954          47.000    14780726.797    61518043.139       -2218.945          46.000  
R18  13570044.188    72437897.431         951.227          48.000    13570035.980    56340559.636         739.790          48.000  
R19  16025133.418    85723674.939        3906.234          33.000    16025123.720    66673946.404        3038.070          39.000  
E04  21125681.265   111016267.030        2882.579          38.000    21125682.248    85064426.216        2208.957          41.000  
E07  23228295.584   122065510.284       -2523.720          30.000    23228297.321    93530743.538       -1934.016          36.000  
E10  20428980.183   107355036.241        2700.742          40.000    20428978.443    82259051.825        2069.446          45.000  
E12  18648533.497    97998746.441        1894.919          42.000    18648526.481    75089970.381        1451.882          46.000  
E14  14716003.078    77333120.104        3479.516          41.000                                                                  
E19  18251952.914    95914711.730         756.621          40.000    18251947.166    73493099.004         579.490          46.000  
E20  20639477.536   108461255.762        -391.380          38.000                                                                  
E26  21386250.193   112385425.123       -2299.949          38.000    21386251.628    86113454.556       -1762.603          40.000  
J02  32244501.251   169445972.747          54.513          36.000    32244510.535   132035636.157          42.505          37.000  
J03  31643262.647   166286443.348         839.523          44.000                                                                  
J04  32836732.262   172558178.450        -292.212          43.000    32836723.523   134460883.280        -227.508          46.000  
J07  31520086.379   165639141.752         254.159          38.000    31520078.927   129069457.563         197.545          43.000  
C07  33878732.618   136415491.145       -1167.629          39.000    33878743.360   176415363.514       -1510.300          37.000  
C08  31514907.335   126897532.081         529.304          44.000    31514924.046   164106511.600         684.605          42.000  
C10  33476054.691   134794104.326       -1131.558          35.000    33476060.926   174318529.851       -1463.627          36.000  
C13  32341950.336   130227689.116         547.157          43.000    32341958.128   168413070.390         707.409          42.000  
C14  19557072.925    78748223.001       -1785.759          43.000    19557086.480   101838840.179       -2309.306          37.000  
C24                                                                  20525225.278   106880282.290        1413.706          37.000  
C27                                                                  16641250.345    86655395.775        1026.746          48.000  
C28                                                                  16740110.624    87170135.180       -1849.902          47.000  
> 2023 07 11 06 06 33.9810000  0 38                     
G05  15811048.441    83087726.350        1781.870          44.000    15811040.612    64743667.645        1388.185          41.000  
G06  16293980.174    85625482.792       -2225.574          43.000    16293976.701    66721166.881       -1734.395          42.000  
G07  17837185.409    93735238.741         235.665          42.000    17837178.619    73040422.265         183.781          37.000  
G09  18933554.983    99496571.643       -3208.235          37.000    18933549.489    77529836.647       -2499.987          34.000  
G11  14616266.997    76809077.708         238.715          46.000    14616258.300    59851232.087         185.979          49.000  
G13  15950242.815    83819234.398        3280.628          45.000                                                                  
G15  18820281.147    98901290.157        3881.847          38.000    18820277.914    77065934.268        3024.902          32.000  
G19  19604527.429   103022458.275       -3605.446          35.000                                                                  
G20  14925400.020    78433581.261         763.408          45.000                                                                  
G29  17939433.899    94272387.595        2207.238          39.000    17939426.695    73458974.460        1719.990          35.000  
G30  17270961.619    90759676.453        1748.944          43.000    17270958.274    70721903.259        1362.927          40.000  
R02  16132349.433    86085431.827       -2910.049          47.000    16132342.133    66955268.932       -2263.466          42.000  
R03  13892630.339    74368471.437        -328.972          48.000    13892616.579    57842161.267        -255.830          47.000  
R04  15743042.430    84303388.580        2621.725          45.000    15743031.723    65569217.647        2039.102          43.000  
R12  18579466.643    99248201.770        2387.439          44.000                                                                  
R17  14781269.489    79097564.741       -2853.565          47.000    14781259.804    61520262.339       -2219.484          46.000  
R18  13569866.195    72436946.619         950.288          48.000    13569857.892    56339820.113         739.191          48.000  
R19  16024403.253    85719769.190        3905.821          33.000    16024393.614    66670908.601        3037.555          39.000  
E04  21125132.623   111013384.102        2882.903          38.000    21125133.690    85062217.230        2208.872          41.000  
E07  23228775.539   122068034.353       -2524.025          30.000    23228777.598    93532677.509       -1933.897          36.000  
E10  20428466.122   107352335.416        2700.630          40.000    20428464.453    82256982.360        2069.449          44.000  
E12  18648172.782    97996851.642        1894.646          42.000    18648165.961    75088518.521        1451.685          46.000  
E14  14715341.148    77329641.313        3478.056          41.000                                                                  
E19  18251809.012    95913955.625         755.812          40.000    18251803.336    73492519.630         579.264          46.000  
E20  20639551.772   108461647.148        -391.732          38.000                                                                  
E26  21386687.946   112387725.403       -2300.114          38.000    21386689.371    86115217.078       -1762.383          40.000  
J02  32244490.743   169445918.104          54.303          36.000    32244500.048   132035593.576          42.352          37.000  
J03  31643102.866   166285603.904         839.305          44.000                                                                  
J04  32836787.845   172558470.466        -292.005          43.000    32836779.064   134461110.836        -227.514          46.000  
J07  31520038.104   165638887.828         253.931          37.000    31520030.643   129069259.691         197.851          43.000  
C07  33879022.666   136416658.757       -1167.541          39.000    33879033.384   176416873.499       -1509.985          37.000  
C08  31514775.801   126897002.610         529.525          44.000    31514792.513   164105826.885         684.779          42.000  
C10  33476335.685   134795235.979       -1131.484          35.000    33476341.947   174319993.320       -1463.514          36.000  
C13  32341814.514   130227141.937         547.223          43.000    32341822.172   168412362.762         707.772          42.000  
C14  19557516.369    78750008.633       -1785.632          43.000    19557529.845   101841149.393       -2309.067          37.000  
C24                                                                  20524953.791   106878869.020        1413.158          37.000  
C27                                                                  16641053.220    86654369.201        1026.282          48.000  
C28                                                                  16740465.908    87171985.294       -1850.240          47.000  
> 2023 07 11 06 06 34.9810000  0 38                     
G05  15810709.389    83085944.473        1781.737          44.000    15810701.647    64742279.151        1388.534          41.000  
G06  16294403.664    85627708.578       -2225.778          43.000    16294400.265    66722901.256       -1734.575          42.000  
G07  17837140.649    93735003.463         234.940          43.000    17837133.729    73040238.940         183.277          37.000  
G09  18934165.498    99499779.924       -3208.069          37.000    18934160.022    77532336.627       -2500.027          34.000  
G11  14616221.607    76808839.188         238.118          46.000    14616212.946    59851046.228         185.574          49.000  
G13  15949618.550    83815953.884        3280.338          45.000                                                                  
G15  18819542.457    98897408.426        3881.465          38.000    18819539.073    77062909.571        3024.467          33.000  
G19  19605213.411   103026063.879       -3605.544          35.000                                                                  
G20  14925254.667    78432817.856         763.410          45.000                                                                  
G29  17939013.935    94270180.619        2206.715          39.000    17939006.702    73457254.727        1719.252          35.000  
G30  17270628.920    90757927.764        1748.409          43.000    17270625.446    70720540.650        1362.485          40.000  
R02  16132894.794    86088341.923       -2910.121          47.000    16132887.551    66957532.330       -2263.372          42.000  
R03  13892691.913    74368800.627        -329.437          48.000    13892678.040    57842417.309        -256.182          47.000  
R04  15742552.933    84300766.834        2621.591          45.000    15742542.159    65567178.518        2038.903          43.000  
R12  18579019.594    99245814.113        2387.399          44.000                                                                  
R17  14781802.903    79100418.520       -2854.005          47.000    14781793.098    61522481.940       -2219.671          46.000  
R18  13569688.214    72435996.551         949.717          48.000    13569679.924    56339081.174         738.703          48.000  
R19  16023673.261    85715863.724        3905.297          33.000    16023663.421    66667871.010        3037.447          39.000  
E04  21124584.095   111010501.243        2882.562          38.000    21124585.281    85060008.290        2208.960          41.000  
E07  23229256.138   122070558.218       -2523.851          31.000    23229257.902    93534611.375       -1933.843          36.000  
E10  20427951.993   107349634.583        2700.433          41.000    20427950.552    82254912.885        2069.484          44.000  
E12  18647812.309    97994956.969        1894.570          42.000    18647805.375    75087066.758        1451.579          46.000  
E14  14714679.253    77326163.719        3476.886          41.000                                                                  
E19  18251665.220    95913199.773         755.629          40.000    18251659.470    73491940.490         578.946          46.000  
E20  20639626.268   108462038.763        -391.520          38.000                                                                  
E26  21387125.654   112390025.756       -2300.402          38.000    21387127.147    86116979.688       -1762.689          40.000  
J02  32244480.351   169445863.249          54.775          36.000    32244489.713   132035550.844          42.771          37.000  
J03  31642943.086   166284764.380         839.507          44.000                                                                  
J04  32836843.331   172558762.328        -291.729          43.000    32836834.649   134461338.263        -227.368          46.000  
J07  31519989.727   165638633.768         254.944          37.000    31519982.393   129069061.739         198.019          43.000  
C07  33879312.586   136417826.278       -1167.471          39.000    33879323.361   176418383.363       -1509.632          37.000  
C08  31514644.241   126896472.999         529.684          44.000    31514660.975   164105142.001         684.767          42.000  
C10  33476616.696   134796367.602       -1132.016          35.000    33476623.102   174321456.756       -1463.822          36.000  
C13  32341678.612   130226594.616         547.288          43.000    32341686.171   168411654.942         707.926          42.000  
C14  19557959.742    78751794.162       -1785.574          43.000    19557973.354   101843458.499       -2308.881          37.000  
C24                                                                  20524682.408   106877456.016        1412.773          37.000  
C27                                                                  16640856.176    86653343.062        1025.808          48.000  
C28                                                                  16740821.278    87173835.744       -1850.569          47.000  
> 2023 07 11 06 06 35.9810000  0 38                     
G05  15810370.399    83084162.825        1781.417          44.000    15810362.724    64740890.862        1388.097          41.000  
G06  16294827.431    85629934.795       -2226.708          43.000    16294824.001    66724635.944       -1734.734          42.000  
G07  17837095.991    93734768.726         234.369          42.000    17837089.171    73040056.038         182.377          37.000  
G09  18934776.098    99502988.338       -3208.985          37.000    18934770.546    77534836.639       -2499.794          35.000  
G11  14616176.413    76808601.194         237.629          46.000    14616167.659    59850860.781         185.082          49.000  
G13  15948994.323    83812673.812        3279.722          45.000                                                                  
G15  18818803.829    98893526.856        3881.370          38.000    18818800.406    77059884.953        3024.626          33.000  
G19  19605899.681   103029669.366       -3605.496          35.000                                                                  
G20  14925109.443    78432054.701         762.970          45.000                                                                  
G29  17938594.063    94267974.219        2206.112          39.000    17938586.903    73455535.441        1719.153          35.000  
G30  17270296.300    90756179.527        1748.034          43.000    17270292.717    70719178.405        1361.763          40.000  
R02  16133440.141    86091252.153       -2910.458          47.000    16133432.905    66959795.835       -2263.668          42.000  
R03  13892753.546    74369130.324        -330.049          48.000    13892739.657    57842673.748        -256.782          47.000  
R04  15742063.531    84298145.568        2620.930          45.000    15742052.451    65565139.749        2038.528          43.000  
R12  18578572.819    99243426.948        2386.725          44.000                                                                  
R17  14782336.365    79103272.976       -2854.994          47.000    14782326.397    61524702.064       -2220.398          46.000  
R18  13569510.451    72435047.380         948.590          48.000    13569502.138    56338342.924         737.839          48.000  
R19  16022943.437    85711958.645        3904.911          33.000    16022933.372    66664833.719        3037.173          39.000  
E04  21124035.488   111007618.612        2882.030          39.000    21124036.712    85057799.525        2208.486          42.000  
E07  23229736.724   122073082.113       -2524.100          32.000    23229738.151    93536545.281       -1934.351          36.000  
E10  20427437.943   107346933.840        2700.469          41.000    20427436.666    82252843.500        2069.228          45.000  
E12  18647451.706    97993062.559        1894.077          43.000    18647445.051    75085615.194        1451.387          46.000  
E14  14714017.880    77322687.445        3475.471          42.000                                                                  
E19  18251521.350    95912444.328         754.942          40.000    18251515.676    73491361.639         578.538          47.000  
E20  20639701.083   108462430.812        -392.445          39.000                                                                  
E26  21387563.483   112392326.319       -2300.699          39.000    21387564.931    86118742.443       -1762.978          40.000  
J02  32244469.938   169445808.378          54.664          36.000    32244479.323   132035508.067          42.611          37.000  
J03  31642783.368   166283924.949         839.265          44.000                                                                  
J04  32836898.791   172559054.182        -291.905          43.000    32836890.121   134461565.677        -227.552          46.000  
J07  31519941.338   165638379.794         254.234          37.000    31519934.063   129068863.816         197.830          43.000  
C07  33879602.603   136418993.820       -1167.503          39.000    33879613.312   176419893.257       -1509.993          37.000  
C08  31514512.664   126895943.357         529.433          44.000    31514529.395   164104457.045         684.583          42.000  
C10  33476897.708   134797499.245       -1132.369          35.000    33476904.287   174322920.190       -1463.440          36.000  
C13  32341542.662   130226047.255         547.424          43.000    32341550.231   168410947.097         707.719          42.000  
C14  19558403.203    78753579.692       -1785.701          43.000    19558416.731   101845767.602       -2309.444          37.000  
C24                                                                  20524411.238   106876043.360        1412.658          37.000  
C27                                                                  16640659.207    86652317.469        1025.369          48.000  
C28                                                                  16741176.692    87175686.650       -1851.288          47.000  
> 2023 07 11 06 06 36.9810000  0 38                     
G05  15810031.387    83082381.343        1781.271          44.000    15810023.717    64739502.688        1388.025          41.000  
G06  16295251.181    85632161.323       -2226.722          43.000    16295247.696    66726370.925       -1735.494          42.000  
G07  17837051.561    93734534.463         233.870          43.000    17837044.495    73039873.489         182.404          37.000  
G09  18935386.660    99506196.726       -3208.734          37.000    18935381.033    77537336.677       -2499.443          34.000  
G11  14616131.224    76808363.682         237.170          46.000    14616122.616    59850675.701         184.841          49.000  
G13  15948370.186    83809394.103        3279.367          45.000                                                                  
G15  18818065.290    98889645.399        3881.313          38.000    18818061.459    77056860.445        3024.409          33.000  
G19  19606585.736   103033274.653       -3604.904          35.000                                                                  
G20  14924964.185    78431291.729         762.945          45.000                                                                  
G29  17938174.208    94265768.345        2205.532          39.000    17938167.157    73453816.598        1718.868          35.000  
G30  17269963.672    90754431.720        1747.337          43.000    17269960.172    70717816.469        1361.583          40.000  
R02  16133985.552    86094162.421       -2910.398          47.000    16133978.214    66962059.370       -2263.444          42.000  
R03  13892815.255    74369460.466        -330.411          48.000    13892801.301    57842930.521        -257.009          47.000  
R04  15741574.203    84295524.714        2620.388          45.000    15741562.922    65563101.308        2038.002          43.000  
R12  18578126.006    99241040.191        2386.380          44.000                                                                  
R17  14782869.900    79106128.012       -2855.398          47.000    14782860.001    61526922.659       -2220.987          46.000  
R18  13569332.841    72434099.005         947.829          48.000    13569324.405    56337605.304         737.283          48.000  
R19  16022213.530    85708053.915        3904.572          33.000    16022203.331    66661796.712        3036.734          39.000  
E04  21123486.950   111004736.082        2882.175          39.000    21123488.059    85055590.846        2208.514          41.000  
E07  23230217.012   122075605.935       -2524.016          33.000    23230218.460    93538479.083       -1933.940          35.000  
E10  20426924.073   107344233.170        2700.624          41.000    20426922.686    82250774.149        2069.275          44.000  
E12  18647091.333    97991168.358        1893.908          43.000    18647084.519    75084163.803        1451.240          45.000  
E14  14713356.644    77319212.433        3474.367          42.000                                                                  
E19  18251377.732    95911689.223         755.096          40.000    18251372.013    73490783.055         578.371          46.000  
E20  20639775.821   108462823.149        -392.751          39.000                                                                  
E26  21388001.272   112394627.018       -2300.982          39.000    21388002.770    86120505.310       -1763.086          40.000  
J02  32244459.431   169445753.386          55.069          36.000    32244468.913   132035465.237          42.751          37.000  
J03  31642623.689   166283085.543         839.239          44.000                                                                  
J04  32836954.348   172559345.951        -291.898          43.000    32836945.750   134461793.032        -227.488          46.000  
J07  31519892.942   165638125.757         254.233          37.000    31519885.748   129068665.868         197.918          43.000  
C07  33879892.500   136420161.352       -1167.553          39.000    33879903.306   176421403.147       -1510.363          37.000  
C08  31514381.228   126895413.625         529.861          44.000    31514397.841   164103771.983         685.007          42.000  
C10  33477178.614   134798630.853       -1131.899          35.000    33477185.360   174324383.669       -1463.879          36.000  
C13  32341406.717   130225499.836         547.312          43.000    32341414.258   168410239.151         708.061          42.000  
C14  19558846.618    78755365.182       -1785.591          43.000    19558860.220   101848076.598       -2308.829          37.000  
C24                                                                  20524140.013   106874631.068        1412.080          37.000  
C27                                                                  16640462.309    86651292.393        1024.714          48.000  
C28                                                                  16741532.267    87177537.949       -1851.630          47.000  
> 2023 07 11 06 06 37.9810000  0 38                     
G05  15809692.358    83080600.143        1781.204          45.000    15809684.755    64738114.772        1387.383          41.000  
G06  16295674.897    85634388.343       -2227.519          43.000    16295671.485    66728106.242       -1735.541          42.000  
G07  17837007.090    93734300.818         232.937          42.000    17836999.977    73039691.416         181.625          37.000  
G09  18935997.291    99509405.263       -3208.500          37.000    18935991.533    77539836.897       -2500.386          34.000  
G11  14616086.106    76808126.764         236.764          46.000    14616077.564    59850491.093         184.330          49.000  
G13  15947746.202    83806114.895        3279.003          45.000                                                                  
G15  18817326.652    98885764.163        3881.240          38.000    18817322.776    77053836.104        3024.421          33.000  
G19  19607271.778   103036879.942       -3605.150          35.000                                                                  
G20  14924819.102    78430529.067         762.518          45.000                                                                  
G29  17937754.624    94263563.134        2204.749          39.000    17937747.466    73452098.241        1718.202          35.000  
G30  17269631.206    90752684.438        1746.659          43.000    17269627.719    70716454.952        1361.142          40.000  
R02  16134530.991    86097072.875       -2910.585          47.000    16134523.564    66964323.067       -2263.966          42.000  
R03  13892876.930    74369791.179        -331.047          48.000    13892863.005    57843187.734        -257.322          47.000  
R04  15741084.822    84292904.392        2620.030          45.000    15741073.432    65561063.284        2037.803          43.000  
R12  18577679.197    99238653.979        2385.966          44.000                                                                  
R17  14783403.561    79108983.762       -2856.210          47.000    14783393.655    61529143.787       -2221.363          46.000  
R18  13569155.215    72433151.543         946.919          48.000    13569146.914    56336868.391         736.574          48.000  
R19  16021483.748    85704149.661        3904.184          32.000    16021473.565    66658760.075        3036.477          39.000  
E04  21122938.578   111001853.847        2881.860          39.000    21122939.695    85053382.374        2208.525          42.000  
E07  23230697.520   122078129.798       -2524.084          33.000    23230698.704    93540412.959       -1934.178          36.000  
E10  20426410.232   107341532.680        2700.400          41.000    20426408.780    82248704.955        2069.056          45.000  
E12  18646730.833    97989274.484        1893.555          43.000    18646724.038    75082712.646        1451.015          46.000  
E14  14712695.762    77315738.838        3472.815          42.000                                                                  
E19  18251233.907    95910934.641         754.255          40.000    18251228.377    73490204.870         578.016          47.000  
E20  20639850.520   108463215.944        -393.172          39.000                                                                  
E26  21388439.298   112396927.983       -2301.140          39.000    21388440.583    86122268.387       -1763.242          40.000  
J02  32244448.868   169445698.447          54.913          36.000    32244458.430   132035422.408          43.036          37.000  
J03  31642463.975   166282246.273         839.026          44.000                                                                  
J04  32837009.798   172559637.763        -291.933          43.000    32837001.343   134462020.418        -227.405          46.000  
J07  31519844.634   165637871.829         253.071          37.000    31519837.458   129068468.001         197.647          43.000  
C07  33880182.460   136421328.934       -1167.710          39.000    33880193.260   176422913.079       -1510.163          37.000  
C08  31514249.695   126894883.917         529.562          44.000    31514266.330   164103086.957         684.890          42.000  
C10  33477459.724   134799762.602       -1132.052          35.000    33477466.398   174325847.253       -1464.032          36.000  
C13  32341270.716   130224952.418         547.271          43.000    32341278.315   168409531.216         708.001          42.000  
C14  19559290.022    78757150.703       -1785.667          43.000    19559303.717   101850385.694       -2308.939          37.000  
C24                                                                  20523868.901   106873219.230        1411.532          37.000  
C27                                                                  16640265.650    86650267.936        1024.157          48.000  
C28                                                                  16741887.853    87179389.765       -1852.096          47.000  
> 2023 07 11 06 06 38.9810000  0 38                     
G05  15809353.406    83078819.189        1781.094          44.000    15809345.869    64736727.004        1387.855          41.000  
G06  16296098.864    85636615.756       -2227.395          43.000    16296095.404    66729841.886       -1735.489          42.000  
G07  17836962.735    93734067.726         232.769          43.000    17836955.580    73039509.795         181.400          37.000  
G09  18936607.902    99512613.985       -3208.723          37.000    18936602.128    77542337.155       -2499.958          34.000  
G11  14616041.237    76807890.406         236.240          46.000    14616032.582    59850306.925         184.013          49.000  
G13  15947122.282    83802836.150        3278.807          45.000                                                                  
G15  18816588.121    98881883.145        3881.090          38.000    18816584.545    77050811.949        3024.556          33.000  
G19  19607957.901   103040485.132       -3605.132          35.000                                                                  
G20  14924674.045    78429766.675         762.421          45.000                                                                  
G29  17937335.145    94261358.510        2204.469          39.000    17937328.072    73450380.338        1718.068          35.000  
G30  17269298.772    90750937.621        1746.819          43.000    17269295.229    70715093.803        1361.258          40.000  
R02  16135076.402    86099983.447       -2910.478          47.000    16135069.010    66966586.842       -2263.685          42.000  
R03  13892938.734    74370122.427        -331.265          48.000    13892924.806    57843445.378        -257.588          47.000  
R04  15740595.630    84290284.583        2619.855          45.000    15740584.127    65559025.662        2037.479          43.000  
R12  18577232.615    99236268.295        2385.493          43.000                                                                  
R17  14783937.348    79111840.177       -2856.555          47.000    14783927.525    61531365.439       -2221.754          46.000  
R18  13568977.813    72432204.970         946.306          48.000    13568969.458    56336132.165         736.098          48.000  
R19  16020754.098    85700245.805        3904.246          33.000    16020743.696    66655723.768        3036.195          39.000  
E04  21122390.200   110998971.818        2881.979          39.000    21122391.250    85051174.088        2208.214          41.000  
E07  23231177.879   122080653.712       -2524.233          33.000    23231179.004    93542346.854       -1933.775          35.000  
E10  20425896.379   107338832.354        2700.490          41.000    20425894.974    82246635.871        2069.163          44.000  
E12  18646370.360    97987380.885        1893.505          43.000    18646363.660    75081261.716        1450.923          46.000  
E14  14712035.119    77312266.592        3471.784          42.000                                                                  
E19  18251090.452    95910180.501         754.177          40.000    18251084.922    73489627.021         577.873          46.000  
E20  20639925.464   108463609.162        -393.602          39.000                                                                  
E26  21388876.983   112399229.200       -2301.363          39.000    21388878.575    86124031.656       -1763.435          40.000  
J02  32244438.455   169445643.463          55.355          36.000    32244447.889   132035379.581          43.298          37.000  
J03  31642304.353   166281407.098         839.472          44.000                                                                  
J04  32837065.329   172559929.582        -291.570          43.000    32837056.812   134462247.814        -227.214          46.000  
J07  31519796.352   165637617.933         254.446          37.000    31519789.025   129068270.165         198.006          43.000  
C07  33880472.413   136422496.558       -1167.503          39.000    33880483.270   176424423.076       -1509.974          37.000  
C08  31514118.172   126894354.180         529.996          44.000    31514134.825   164102401.889         685.184          42.000  
C10  33477740.679   134800894.385       -1131.873          35.000    33477747.383   174327310.902       -1463.113          36.000  
C13  32341134.690   130224404.990         547.652          43.000    32341142.297   168408823.273         708.318          42.000  
C14  19559733.451    78758936.252       -1785.486          43.000    19559747.032   101852694.803       -2308.918          37.000  
C24                                                                  20523597.911   106871807.794        1411.354          37.000  
C27                                                                  16640069.045    86649244.070        1023.723          48.000  
C28                                                                  16742243.597    87181242.081       -1852.458          47.000  
> 2023 07 11 06 06 39.9810000  0 38                     
G05  15809014.503    83077038.372        1780.735          45.000    15809007.022    64735339.358        1387.366          41.000  
G06  16296522.793    85638843.499       -2228.133          43.000    16296519.314    66731577.783       -1735.976          42.000  
G07  17836918.404    93733835.070         232.563          43.000    17836911.310    73039328.517         180.911          37.000  
G09  18937218.533    99515822.667       -3208.721          37.000    18937212.646    77544837.451       -2500.713          34.000  
G11  14615996.322    76807654.491         235.461          46.000    14615987.577    59850123.090         183.555          49.000  
G13  15946498.495    83799557.738        3278.400          45.000                                                                  
G15  18815849.568    98878002.172        3880.746          38.000    18815845.911    77047787.805        3024.656          33.000  
G19  19608643.952   103044090.091       -3605.263          35.000                                                                  
G20  14924528.995    78429004.411         762.003          45.000                                                                  
G29  17936915.709    94259154.378        2203.646          39.000    17936908.617    73448662.848        1717.418          35.000  
G30  17268966.294    90749191.218        1746.127          43.000    17268962.988    70713732.965        1360.681          40.000  
R02  16135621.731    86102893.998       -2910.673          47.000    16135614.541    66968850.603       -2263.849          42.000  
R03  13893000.764    74370454.082        -332.047          48.000    13892986.820    57843703.332        -258.235          47.000  
R04  15740106.500    84287665.114        2619.280          45.000    15740094.907    65556988.305        2037.033          43.000  
R12  18576786.082    99233883.001        2384.785          43.000                                                                  
R17  14784471.315    79114697.124       -2857.320          47.000    14784461.347    61533587.511       -2222.396          46.000  
R18  13568800.520    72431259.157         945.418          47.000    13568792.191    56335396.542         735.207          48.000  
R19  16020024.471    85696342.313        3902.856          33.000    16020013.979    66652687.689        3035.762          39.000  
E04  21121841.925   110996089.914        2881.582          38.000    21121842.789    85048965.892        2207.826          42.000  
E07  23231658.383   122083177.517       -2524.170          32.000    23231659.403    93544280.649       -1933.896          36.000  
E10  20425382.472   107336132.026        2700.309          41.000    20425381.033    82244566.791        2069.064          45.000  
E12  18646010.187    97985487.443        1893.355          42.000    18646003.459    75079810.900        1450.584          46.000  
E14  14711374.600    77308795.583        3470.213          42.000                                                                  
E19  18250947.095    95909426.643         753.780          40.000    18250941.445    73489049.399         577.408          47.000  
E20  20640000.401   108464002.618        -393.478          39.000                                                                  
E26  21389314.884   112401530.499       -2301.750          39.000    21389316.437    86125794.967       -1763.359          40.000  
J02  32244428.035   169445588.362          55.078          36.000    32244437.419   132035336.666          42.728          37.000  
J03  31642144.645   166280567.920         839.048          44.000                                                                  
J04  32837120.781   172560221.275        -291.694          43.000    32837112.386   134462475.114        -227.357          46.000  
J07  31519748.083   165637363.977         254.113          37.000    31519740.696   129068072.277         197.751          43.000  
C07  33880762.355   136423664.085       -1167.273          39.000    33880773.196   176425932.976       -1509.941          37.000  
C08  31513986.516   126893824.340         529.747          44.000    31514003.311   164101716.678         685.237          42.000  
C10  33478021.792   134802026.135       -1131.795          35.000    33478028.431   174328774.510       -1463.377          36.000  
C13  32340998.708   130223857.445         547.454          43.000    32341006.286   168408115.177         708.253          42.000  
C14  19560176.949    78760721.707       -1785.389          42.000    19560190.476   101855003.785       -2308.682          37.000  
C24                                                                  20523326.939   106870396.634        1410.834          37.000  
C27                                                                  16639872.488    86648220.665        1023.017          48.000  
C28                                                                  16742599.421    87183094.740       -1852.972          47.000  
> 2023 07 11 06 06 40.9810000  0 38                     
G05  15808675.663    83075257.700        1780.339          45.000    15808668.335    64733951.820        1387.217          41.000  
G06  16296946.757    85641071.531       -2228.161          43.000    16296943.224    66733313.918       -1736.281          42.000  
G07  17836874.344    93733602.910         231.582          42.000    17836867.172    73039147.604         180.403          37.000  
G09  18937829.058    99519031.358       -3209.342          37.000    18937823.197    77547337.701       -2500.485          34.000  
G11  14615951.565    76807419.023         235.028          46.000    14615942.775    59849939.606         183.181          49.000  
G13  15945874.652    83796279.703        3277.581          45.000                                                                  
G15  18815111.176    98874121.302        3880.941          38.000    18815107.199    77044763.807        3023.499          33.000  
G19  19609329.861   103047694.878       -3605.107          35.000                                                                  
G20  14924383.915    78428242.318         761.820          45.000                                                                  
G29  17936496.385    94256950.761        2203.177          39.000    17936489.261    73446945.743        1717.228          35.000  
G30  17268634.004    90747445.173        1745.835          43.000    17268630.710    70712372.433        1359.861          40.000  
R02  16136167.201    86105804.600       -2910.868          47.000    16136159.916    66971114.388       -2263.809          42.000  
R03  13893062.873    74370786.176        -332.622          48.000    13893048.914    57843961.628        -258.601          47.000  
R04  15739617.508    84285046.036        2618.666          45.000    15739605.722    65554951.249        2036.630          43.000  
R12  18576339.659    99231498.102        2384.500          43.000                                                                  
R17  14785005.293    79117554.647       -2857.974          47.000    14784995.371    61535810.025       -2222.828          46.000  
R18  13568623.543    72430314.159         944.314          47.000    13568615.098    56334661.536         734.540          48.000  
R19  16019294.729    85692439.072        3902.864          33.000    16019284.215    66649651.849        3035.532          39.000  
E04  21121293.505   110993208.117        2881.746          39.000    21121294.398    85046757.772        2207.889          41.000  
E07  23232138.914   122085701.214       -2523.953          32.000    23232139.569    93546214.399       -1933.779          35.000  
E10  20424868.700   107333431.744        2700.059          41.000    20424867.161    82242497.743        2068.948          44.000  
E12  18645649.845    97983594.191        1893.038          42.000    18645643.184    75078360.221        1450.520          46.000  
E14  14710714.383    77305325.821        3468.898          42.000                                                                  
E19  18250803.665    95908673.124         753.150          40.000    18250798.099    73488472.016         577.164          46.000  
E20  20640075.154   108464396.410        -394.052          39.000                                                                  
E26  21389752.900   112403831.937       -2301.731          39.000    21389754.276    86127558.412       -1763.733          40.000  
J02  32244417.533   169445533.133          55.182          36.000    32244426.931   132035293.616          43.001          37.000  
J03  31641985.022   166279728.738         838.910          44.000                                                                  
J04  32837176.329   172560512.887        -291.793          43.000    32837167.913   134462702.336        -227.445          46.000  
J07  31519699.795   165637109.973         253.884          38.000    31519692.318   129067874.341         197.929          43.000  
C07  33881052.300   136424831.621       -1167.656          39.000    33881063.158   176427442.849       -1510.357          37.000  
C08  31513854.886   126893294.411         529.669          44.000    31513871.679   164101031.373         684.933          42.000  
C10  33478302.884   134803157.872       -1131.461          35.000    33478309.493   174330238.106       -1463.273          36.000  
C13  32340862.727   130223309.811         547.620          43.000    32340870.264   168407406.982         707.932          42.000  
C14  19560620.337    78762507.122       -1785.714          43.000    19560633.830   101857312.730       -2309.366          37.000  
C24                                                                  20523056.124   106868985.805        1410.433          37.000  
C27                                                                  16639676.119    86647197.746        1022.455          48.000  
C28                                                                  16742955.339    87184947.789       -1853.374          47.000  
> 2023 07 11 06 06 41.9810000  0 38                     
G05  15808336.820    83073477.277        1780.077          45.000    15808329.582    64732564.477        1387.025          41.000  
G06  16297370.750    85643300.014       -2228.851          43.000    16297367.377    66735050.392       -1736.717          42.000  
G07  17836830.261    93733371.273         230.891          43.000    17836823.019    73038967.112         180.356          37.000  
G09  18938439.728    99522240.164       -3209.034          37.000    18938433.827    77549838.071       -2500.167          34.000  
G11  14615906.793    76807184.123         234.497          46.000    14615897.941    59849756.557         182.732          49.000  
G13  15945250.878    83793002.112        3277.139          45.000                                                                  
G15  18814372.561    98870240.649        3880.295          38.000    18814368.773    77041739.949        3023.060          33.000  
G19  19610015.748   103051299.561       -3604.715          35.000                                                                  
G20  14924238.877    78427480.491         761.492          45.000                                                                  
G29  17936077.243    94254747.753        2202.611          39.000    17936070.049    73445229.136        1716.205          35.000  
G30  17268301.877    90745699.622        1745.330          43.000    17268298.575    70711012.254        1359.919          40.000  
R02  16136712.611    86108715.310       -2910.921          47.000    16136705.340    66973378.276       -2263.919          42.000  
R03  13893125.097    74371118.832        -333.096          48.000    13893111.087    57844220.359        -259.033          47.000  
R04  15739128.519    84282427.480        2618.136          45.000    15739116.701    65552914.591        2036.336          43.000  
R12  18575893.404    99229113.756        2383.952          43.000                                                                  
R17  14785539.396    79120412.871       -2858.568          47.000    14785529.554    61538033.086       -2223.376          46.000  
R18  13568446.550    72429370.038         943.462          47.000    13568438.207    56333927.220         733.910          48.000  
R19  16018565.268    85688536.252        3902.989          33.000    16018554.530    66646616.339        3035.450          39.000  
E04  21120745.173   110990326.574        2881.359          39.000    21120745.978    85044549.840        2207.507          41.000  
E07  23232619.198   122088224.939       -2524.265          32.000    23232619.866    93548148.200       -1934.016          35.000  
E10  20424354.877   107330731.607        2699.937          41.000    20424353.363    82240428.815        2068.776          44.000  
E12  18645289.669    97981701.223        1892.684          42.000    18645282.948    75076909.768        1450.228          46.000  
E14  14710054.338    77301857.426        3467.379          41.000                                                                  
E19  18250660.292    95907920.044         752.482          39.000    18250654.790    73487894.980         576.802          46.000  
E20  20640150.154   108464790.621        -394.334          38.000                                                                  
E26  21390190.875   112406133.616       -2302.176          38.000    21390192.369    86129322.016       -1763.814          40.000  
J02  32244407.016   169445477.888          54.934          36.000    32244416.530   132035250.562          43.272          37.000  
J03  31641825.343   166278889.655         838.938          44.000                                                                  
J04  32837231.882   172560804.485        -291.699          43.000    32837223.376   134462929.559        -227.368          46.000  
J07  31519651.459   165636855.993         254.572          38.000    31519643.925   129067676.455         197.833          43.000  
C07  33881342.244   136425999.166       -1167.540          39.000    33881353.148   176428952.761       -1510.319          37.000  
C08  31513723.225   126892764.473         529.830          44.000    31513740.181   164100346.042         685.222          42.000  
C10  33478583.970   134804289.660       -1131.366          35.000    33478590.665   174331701.776       -1463.777          36.000  
C13  32340726.622   130222762.165         547.640          43.000    32340734.310   168406698.738         708.193          42.000  
C14  19561063.733    78764292.535       -1785.586          43.000    19561077.171   101859621.660       -2309.205          37.000  
C24                                                                  20522785.257   106867575.367        1409.888          38.000  
C27                                                                  16639479.875    86646175.419        1021.879          48.000  
C28                                                                  16743311.261    87186801.318       -1853.870          47.000  
> 2023 07 11 06 06 42.9810000  0 38                     
G05  15807998.042    83071697.196        1780.051          45.000    15807990.838    64731177.395        1387.115          41.000  
G06  16297794.978    85645529.029       -2229.096          43.000    16297791.531    66736787.298       -1737.069          42.000  
G07  17836786.337    93733140.342         231.002          43.000    17836779.098    73038787.174         179.796          37.000  
G09  18939050.367    99525449.228       -3209.234          37.000    18939044.503    77552338.659       -2500.588          34.000  
G11  14615862.249    76806949.889         234.209          46.000    14615853.352    59849574.046         182.428          49.000  
G13  15944627.330    83789725.095        3276.882          45.000                                                                  
G15  18813634.070    98866360.272        3880.718          38.000    18813630.553    77038716.263        3023.274          33.000  
G19  19610701.610   103054904.291       -3604.460          35.000                                                                  
G20  14924093.925    78426719.049         761.574          45.000                                                                  
G29  17935658.341    94252545.481        2202.088          39.000    17935650.978    73443513.043        1715.922          35.000  
G30  17267969.842    90743954.684        1744.937          43.000    17267966.621    70709652.576        1359.303          40.000  
R02  16137258.097    86111626.271       -2910.841          47.000    16137250.856    66975642.361       -2264.037          42.000  
R03  13893187.351    74371452.176        -333.509          48.000    13893173.347    57844479.633        -259.492          47.000  
R04  15738639.691    84279809.532        2617.751          45.000    15738627.718    65550878.419        2036.026          43.000  
R12  18575447.257    99226730.062        2383.571          43.000                                                                  
R17  14786073.698    79123271.922       -2859.253          47.000    14786063.909    61540256.799       -2223.988          46.000  
R18  13568269.848    72428426.920         942.808          47.000    13568261.494    56333193.694         733.305          48.000  
R19  16017835.755    85684633.992        3902.315          33.000    16017825.051    66643581.264        3034.791          39.000  
E04  21120196.961   110987445.354        2881.399          38.000    21120197.596    85042342.148        2207.849          42.000  
E07  23233099.889   122090748.823       -2523.681          31.000    23233100.001    93550082.049       -1933.896          36.000  
E10  20423841.244   107328031.742        2699.730          40.000    20423839.657    82238360.082        2068.808          45.000  
E12  18644929.389    97979808.663        1892.659          42.000    18644922.830    75075459.627        1450.142          46.000  
E14  14709394.610    77298390.481        3466.439          41.000                                                                  
E19  18250517.110    95907167.511         752.642          40.000    18250511.599    73487318.377         576.585          47.000  
E20  20640225.244   108465185.355        -394.813          38.000                                                                  
E26  21390628.821   112408435.599       -2302.014          38.000    21390630.473    86131085.873       -1763.666          41.000  
J02  32244396.588   169445422.743          55.363          36.000    32244406.057   132035207.614          42.841          37.000  
J03  31641665.764   166278050.799         838.932          44.000                                                                  
J04  32837287.336   172561096.216        -291.533          43.000    32837278.926   134463156.882        -227.240          46.000  
J07  31519603.188   165636602.232         254.289          37.000    31519595.620   129067478.706         198.054          43.000  
C07  33881632.242   136427166.855       -1167.737          39.000    33881643.091   176430462.830       -1509.772          37.000  
C08  31513591.579   126892234.618         529.846          44.000    31513608.646   164099660.827         685.442          42.000  
C10  33478865.152   134805421.612       -1131.474          35.000    33478871.963   174333165.680       -1464.011          36.000  
C13  32340590.679   130222214.602         547.457          43.000    32340598.378   168405990.603         708.214          42.000  
C14  19561507.132    78766078.055       -1785.312          43.000    19561520.697   101861930.747       -2308.903          37.000  
C24                                                                  20522514.487   106866165.440        1410.330          38.000  
C27                                                                  16639283.682    86645153.782        1021.355          48.000  
C28                                                                  16743667.331    87188655.454       -1854.252          47.000  
> 2023 07 11 06 06 43.9810000  0 38                     
G05  15807659.374    83069917.383        1779.560          45.000    15807652.127    64729790.539        1386.704          41.000  
G06  16298219.185    85647758.484       -2230.065          43.000    16298215.855    66738524.516       -1737.516          42.000  
G07  17836742.471    93732909.988         229.770          43.000    17836735.206    73038607.673         179.172          37.000  
G09  18939661.063    99528658.379       -3208.990          37.000    18939655.203    77554839.313       -2500.754          34.000  
G11  14615817.799    76806716.218         233.354          46.000    14615808.951    59849391.965         181.815          49.000  
G13  15944003.871    83786448.536        3276.239          45.000                                                                  
G15  18812895.705    98862480.121        3879.913          38.000    18812892.134    77035692.763        3023.300          33.000  
G19  19611387.484   103058508.947       -3604.569          35.000                                                                  
G20  14923949.028    78425957.879         760.979          45.000                                                                  
G29  17935239.391    94250343.805        2201.356          39.000    17935232.059    73441797.462        1715.412          35.000  
G30  17267637.852    90742210.249        1744.052          43.000    17267634.710    70708293.284        1358.972          40.000  
R02  16137803.657    86114537.395       -2911.340          47.000    16137796.505    66977906.554       -2264.141          42.000  
R03  13893249.688    74371786.060        -334.282          48.000    13893235.647    57844739.311        -259.848          47.000  
R04  15738151.051    84277192.034        2617.299          45.000    15738138.918    65548842.584        2035.924          43.000  
R12  18575001.149    99224346.856        2382.847          43.000                                                                  
R17  14786608.046    79126131.647       -2860.158          47.000    14786598.226    61542481.008       -2224.446          46.000  
R18  13568093.339    72427484.707         941.658          47.000    13568084.923    56332460.847         732.670          48.000  
R19  16017106.214    85680732.188        3901.607          33.000    16017095.608    66640546.477        3034.713          39.000  
E04  21119648.705   110984564.389        2880.749          38.000    21119649.470    85040134.667        2207.296          41.000  
E07  23233580.171   122093272.659       -2523.388          30.000    23233580.357    93552015.957       -1933.797          35.000  
E10  20423327.510   107325331.993        2699.607          40.000    20423325.962    82236291.451        2068.715          44.000  
E12  18644569.351    97977916.392        1892.121          42.000    18644562.691    75074009.704        1449.817          46.000  
E14  14708735.182    77294924.926        3464.742          41.000                                                                  
E19  18250373.927    95906415.429         751.832          40.000    18250368.552    73486742.108         576.017          46.000  
E20  20640300.357   108465580.509        -395.580          38.000                                                                  
E26  21391066.988   112410737.836       -2302.142          38.000    21391068.471    86132849.924       -1764.081          40.000  
J02  32244386.080   169445367.572          55.484          36.000    32244395.589   132035164.609          43.155          37.000  
J03  31641506.128   166277212.049         838.656          44.000                                                                  
J04  32837342.779   172561387.950        -291.779          43.000    32837334.395   134463384.202        -227.381          46.000  
J07  31519554.975   165636348.517         253.539          38.000    31519547.207   129067280.995         197.770          43.000  
C07  33881922.316   136428334.580       -1167.880          39.000    33881933.087   176431972.943       -1510.130          37.000  
C08  31513459.999   126891704.712         529.699          44.000    31513477.031   164098975.538         685.200          42.000  
C10  33479146.250   134806553.637       -1131.791          35.000    33479153.139   174334629.614       -1464.073          36.000  
C13  32340454.724   130221667.018         547.390          43.000    32340462.321   168405282.456         708.271          42.000  
C14  19561950.547    78767863.608       -1785.560          43.000    19561964.171   101864239.841       -2309.001          37.000  
C24                                                                  20522243.699   106864755.960        1409.250          38.000  
C27                                                                  16639087.584    86644132.746        1020.673          48.000  
C28                                                                  16744023.499    87190510.059       -1854.952          47.000  
> 2023 07 11 06 06 44.9810000  0 38                     
G05  15807320.722    83068137.705        1779.595          45.000    15807313.485    64728403.780        1386.555          41.000  
G06  16298643.408    85649988.227       -2230.128          43.000    16298640.140    66740261.988       -1737.889          42.000  
G07  17836698.779    93732680.068         229.811          43.000    17836691.480    73038428.542         178.623          37.000  
G09  18940271.669    99531867.537       -3209.090          37.000    18940265.960    77557339.968       -2501.523          34.000  
G11  14615773.485    76806483.001         232.786          46.000    14615764.573    59849210.228         181.431          49.000  
G13  15943380.460    83783172.322        3276.000          45.000                                                                  
G15  18812157.181    98858600.025        3879.930          38.000    18812153.770    77032669.326        3023.290          33.000  
G19  19612073.413   103062113.399       -3604.212          36.000                                                                  
G20  14923804.252    78425196.867         760.636          45.000                                                                  
G29  17934820.501    94248142.615        2200.767          39.000    17934813.289    73440082.261        1715.261          35.000  
G30  17267306.005    90740466.181        1743.787          43.000    17267302.805    70706934.262        1358.878          40.000  
R02  16138349.340    86117448.552       -2911.223          47.000    16138342.115    66980170.806       -2264.532          42.000  
R03  13893312.006    74372120.344        -334.656          48.000    13893298.133    57844999.319        -260.427          47.000  
R04  15737662.249    84274574.895        2616.796          45.000    15737650.126    65546807.038        2035.386          43.000  
R12  18574555.057    99221964.011        2382.348          43.000                                                                  
R17  14787142.568    79128991.889       -2860.639          47.000    14787132.842    61544705.648       -2225.026          46.000  
R18  13567916.965    72426543.267         940.892          47.000    13567908.640    56331728.624         731.819          48.000  
R19  16016376.960    85676830.604        3901.313          33.000    16016366.210    66637511.961        3034.178          39.000  
E04  21119100.523   110981683.516        2880.883          39.000    21119101.279    85037927.248        2207.320          42.000  
E07  23234060.327   122095796.458       -2523.896          30.000    23234060.524    93553949.773       -1933.993          35.000  
E10  20422813.682   107322632.303        2699.519          41.000    20422812.145    82234222.858        2068.455          45.000  
E12  18644209.376    97976024.282        1891.859          42.000    18644202.660    75072559.905        1449.559          46.000  
E14  14708075.827    77291460.597        3463.667          42.000                                                                  
E19  18250230.705    95905663.677         751.360          40.000    18250225.431    73486166.083         575.747          47.000  
E20  20640375.489   108465975.914        -395.475          39.000                                                                  
E26  21391505.125   112413040.189       -2302.508          39.000    21391506.664    86134614.062       -1764.286          41.000  
J02  32244375.660   169445312.273          55.560          36.000    32244384.941   132035121.541          42.974          37.000  
J03  31641346.507   166276373.293         838.647          44.000                                                                  
J04  32837398.218   172561679.581        -291.995          43.000    32837389.811   134463611.442        -227.431          46.000  
J07  31519506.607   165636094.726         253.625          37.000    31519499.034   129067083.243         197.662          43.000  
C07  33882212.255   136429502.231       -1167.792          39.000    33882223.185   176433482.999       -1510.225          37.000  
C08  31513328.301   126891174.695         529.836          44.000    31513345.439   164098290.116         685.403          42.000  
C10  33479427.412   134807685.654       -1132.075          35.000    33479434.268   174336093.554       -1464.313          36.000  
C13  32340318.659   130221119.317         547.739          43.000    32340326.351   168404574.167         708.302          42.000  
C14  19562394.035    78769649.070       -1785.497          43.000    19562407.572   101866548.858       -2308.870          37.000  
C24                                                                  20521973.009   106863346.784        1408.571          38.000  
C27                                                                  16638891.602    86643112.176        1020.238          48.000  
C28                                                                  16744379.751    87192365.041       -1855.294          47.000  
> 2023 07 11 06 06 45.9810000  0 38                     
G05  15806982.109    83066358.264        1779.418          45.000    15806974.958    64727017.207        1386.488          41.000  
G06  16299067.832    85652218.397       -2230.253          43.000    16299064.609    66741999.777       -1737.861          42.000  
G07  17836655.090    93732450.738         229.237          43.000    17836647.800    73038249.812         178.730          37.000  
G09  18940882.351    99535076.823       -3209.231          37.000    18940876.687    77559840.692       -2500.508          34.000  
G11  14615729.264    76806250.326         232.541          46.000    14615720.278    59849028.925         181.165          49.000  
G13  15942757.064    83779896.582        3275.443          45.000                                                                  
G15  18811418.818    98854720.134        3879.666          38.000    18811415.649    77029646.024        3023.228          33.000  
G19  19612759.289   103065717.783       -3604.324          36.000                                                                  
G20  14923659.478    78424436.097         760.811          45.000                                                                  
G29  17934401.740    94245942.042        2200.533          40.000    17934394.491    73438367.543        1714.273          35.000  
G30  17266974.247    90738722.591        1743.450          43.000    17266971.035    70705575.644        1358.190          40.000  
R02  16138894.934    86120359.845       -2911.361          47.000    16138887.641    66982435.128       -2264.343          42.000  
R03  13893374.591    74372455.135        -334.908          48.000    13893360.644    57845259.704        -260.473          47.000  
R04  15737173.664    84271958.244        2616.439          45.000    15737161.433    65544771.866        2035.226          43.000  
R12  18574108.991    99219581.682        2382.127          43.000                                                                  
R17  14787677.153    79131852.804       -2861.151          47.000    14787667.495    61546930.800       -2225.466          46.000  
R18  13567740.853    72425602.735         940.091          47.000    13567732.411    56330997.102         731.166          48.000  
R19  16015647.786    85672929.507        3901.150          33.000    16015637.025    66634477.760        3034.071          39.000  
E04  21118552.368   110978802.865        2880.520          39.000    21118553.198    85035720.003        2207.111          41.000  
E07  23234540.770   122098320.235       -2523.388          30.000    23234540.901    93555883.615       -1933.728          34.000  
E10  20422299.914   107319932.745        2699.608          41.000    20422298.519    82232154.370        2068.383          44.000  
E12  18643849.375    97974132.450        1892.008          43.000    18643842.611    75071110.320        1449.513          46.000  
E14  14707416.854    77287997.632        3462.157          42.000                                                                  
E19  18250087.688    95904912.333         751.274          40.000    18250082.472    73485590.386         575.573          46.000  
E20  20640450.731   108466371.760        -396.058          39.000                                                                  
E26  21391943.308   112415342.774       -2302.915          39.000    21391944.912    86136378.376       -1764.334          40.000  
J02  32244365.205   169445256.980          55.288          36.000    32244374.495   132035078.435          42.978          37.000  
J03  31641186.911   166275534.641         838.528          44.000                                                                  
J04  32837453.831   172561971.190        -291.577          43.000    32837445.281   134463838.678        -227.198          46.000  
J07  31519458.261   165635840.993         254.112          37.000    31519450.723   129066885.522         197.908          43.000  
C07  33882502.255   136430669.927       -1167.745          39.000    33882513.159   176434993.117       -1510.478          37.000  
C08  31513196.604   126890644.676         530.135          44.000    31513213.919   164097604.678         685.732          42.000  
C10  33479708.569   134808817.716       -1131.872          35.000    33479715.299   174337557.534       -1463.613          36.000  
C13  32340182.629   130220571.602         547.874          43.000    32340190.350   168403865.860         708.402          42.000  
C14  19562837.485    78771434.574       -1785.648          43.000    19562850.975   101868857.893       -2308.875          37.000  
C24                                                                  20521702.592   106861937.987        1408.739          38.000  
C27                                                                  16638695.763    86642092.187        1019.903          48.000  
C28                                                                  16744736.032    87194220.492       -1855.537          47.000  
> 2023 07 11 06 06 46.9810000  0 38                     
G05  15806643.696    83064579.063        1779.109          45.000    15806636.297    64725630.826        1385.805          41.000  
G06  16299492.294    85654448.996       -2231.064          43.000    16299488.972    66743737.887       -1738.447          42.000  
G07  17836611.682    93732221.937         228.903          43.000    17836604.293    73038071.556         178.156          37.000  
G09  18941493.012    99538286.200       -3209.440          37.000    18941487.468    77562341.497       -2500.931          35.000  
G11  14615685.140    76806018.216         231.434          46.000    14615676.139    59848848.055         180.562          49.000  
G13  15942133.856    83776621.264        3275.088          45.000                                                                  
G15  18810680.531    98850840.419        3879.491          38.000    18810677.423    77026622.904        3022.532          33.000  
G19  19613445.146   103069322.060       -3604.324          36.000                                                                  
G20  14923514.752    78423675.594         760.170          45.000                                                                  
G29  17933983.055    94243742.078        2199.701          39.000    17933975.768    73436653.281        1713.463          35.000  
G30  17266642.406    90736979.499        1742.813          43.000    17266639.254    70704217.372        1358.069          40.000  
R02  16139440.541    86123271.230       -2911.586          47.000    16139433.238    66984699.532       -2264.485          42.000  
R03  13893437.187    74372790.444        -335.560          48.000    13893423.278    57845520.503        -260.959          47.000  
R04  15736685.165    84269342.087        2615.879          45.000    15736672.833    65542737.087        2034.434          43.000  
R12  18573663.075    99217199.872        2381.488          43.000                                                                  
R17  14788211.842    79134714.399       -2862.033          47.000    14788202.329    61549156.481       -2226.022          46.000  
R18  13567564.759    72424663.092         938.975          47.000    13567556.446    56330266.259         730.555          48.000  
R19  16014918.679    85669028.760        3900.818          33.000    16014907.966    66631443.857        3033.962          39.000  
E04  21118004.360   110975922.449        2879.958          39.000    21118004.962    85033512.918        2207.020          42.000  
E07  23235021.395   122100844.056       -2523.193          31.000    23235021.301    93557817.475       -1933.855          33.000  
E10  20421786.250   107317233.315        2699.201          41.000    20421784.872    82230085.969        2068.375          45.000  
E12  18643489.440    97972240.919        1891.089          43.000    18643482.657    75069660.958        1449.211          46.000  
E14  14706758.128    77284536.007        3460.709          42.000                                                                  
E19  18249944.920    95904161.448         750.469          40.000    18249939.521    73485015.019         575.121          47.000  
E20  20640526.318   108466767.994        -396.639          39.000                                                                  
E26  21392381.617   112417645.581       -2303.219          39.000    21392383.195    86138142.839       -1764.584          40.000  
J02  32244354.486   169445201.639          55.357          36.000    32244363.902   132035035.322          43.232          37.000  
J03  31641027.227   166274696.071         838.393          44.000                                                                  
J04  32837509.363   172562262.803        -291.597          43.000    32837500.800   134464065.908        -227.290          46.000  
J07  31519410.017   165635587.279         253.889          38.000    31519402.543   129066687.842         197.632          43.000  
C07  33882792.260   136431837.653       -1167.973          39.000    33882803.213   176436503.209       -1510.076          37.000  
C08  31513064.996   126890114.630         530.093          44.000    31513082.312   164096919.228         685.122          42.000  
C10  33479989.758   134809949.838       -1132.513          35.000    33479996.490   174339021.644       -1464.266          36.000  
C13  32340046.618   130220023.869         547.639          43.000    32340054.339   168403157.511         708.453          42.000  
C14  19563280.905    78773220.075       -1785.836          43.000    19563294.369   101871166.934       -2308.960          38.000  
C24                                                                  20521432.066   106860529.592        1408.276          38.000  
C27                                                                  16638500.057    86641072.786        1019.028          48.000  
C28                                                                  16745092.376    87196076.417       -1856.141          47.000  
> 2023 07 11 06 06 47.9810000  0 38                     
G05  15806305.225    83062800.186        1778.617          45.000    15806297.818    64724244.669        1385.862          41.000  
G06  16299916.804    85656680.065       -2231.454          43.000    16299913.476    66745476.388       -1738.611          42.000  
G07  17836568.306    93731993.791         227.902          43.000    17836560.853    73037893.771         177.395          37.000  
G09  18942103.632    99541495.788       -3209.861          37.000    18942098.183    77564842.470       -2501.358          35.000  
G11  14615641.072    76805786.705         231.234          46.000    14615632.140    59848667.670         180.042          49.000  
G13  15941510.636    83773346.497        3274.351          45.000                                                                  
G15  18809942.290    98846960.962        3879.540          38.000    18809939.272    77023599.953        3022.616          33.000  
G19  19614131.051   103072926.319       -3604.419          35.000                                                                  
G20  14923370.062    78422915.424         760.002          45.000                                                                  
G29  17933564.503    94241542.780        2198.788          39.000    17933557.283    73434939.538        1713.183          35.000  
G30  17266310.804    90735236.971        1742.197          43.000    17266307.555    70702859.543        1357.748          40.000  
R02  16139986.175    86126182.808       -2911.709          47.000    16139978.748    66986964.100       -2264.841          42.000  
R03  13893499.981    74373126.373        -336.148          48.000    13893486.070    57845781.782        -261.461          47.000  
R04  15736196.706    84266726.515        2615.388          46.000    15736184.358    65540702.761        2034.059          43.000  
R12  18573217.344    99214818.686        2380.680          44.000                                                                  
R17  14788746.615    79137576.747       -2862.783          47.000    14788737.295    61551382.742       -2226.478          46.000  
R18  13567389.018    72423724.399         938.267          47.000    13567380.633    56329536.171         729.687          48.000  
R19  16014189.742    85665128.557        3900.341          33.000    16014178.954    66628410.353        3033.481          39.000  
E04  21117456.270   110973042.328        2879.990          39.000    21117456.671    85031306.082        2206.758          42.000  
E07  23235502.320   122103368.024       -2524.292          30.000    23235501.564    93559751.369       -1933.471          33.000  
E10  20421272.576   107314534.091        2699.287          41.000    20421271.101    82228017.738        2068.280          45.000  
E12  18643129.635    97970349.736        1891.017          43.000    18643122.715    75068211.879        1448.993          46.000  
E14  14706099.752    77281075.793        3459.505          42.000                                                                  
E19  18249802.267    95903411.045         750.151          40.000    18249796.722    73484440.040         574.749          47.000  
E20  20640601.795   108467164.694        -396.961          39.000                                                                  
E26  21392819.900   112419948.656       -2303.185          39.000    21392821.524    86139907.548       -1764.653          41.000  
J02  32244343.962   169445146.348          55.434          36.000    32244353.370   132034992.267          42.638          37.000  
J03  31640867.679   166273857.672         838.300          44.000                                                                  
J04  32837564.791   172562554.494        -291.800          43.000    32837556.352   134464293.195        -227.322          46.000  
J07  31519361.882   165635333.744         252.970          37.000    31519354.337   129066490.247         197.639          43.000  
C07  33883082.293   136433005.472       -1168.298          39.000    33883093.235   176438013.468       -1510.399          37.000  
C08  31512933.439   126889584.628         530.164          44.000    31512950.695   164096233.812         685.261          42.000  
C10  33480270.892   134811082.043       -1131.923          35.000    33480277.700   174340485.893       -1464.911          36.000  
C13  32339910.643   130219476.164         547.606          43.000    32339918.257   168402449.209         708.115          42.000  
C14  19563724.412    78775005.632       -1785.567          43.000    19563737.844   101873476.062       -2308.688          38.000  
C24                                                                  20521161.760   106859121.706        1407.263          38.000  
C27                                                                  16638304.461    86640054.018        1018.528          48.000  
C28                                                                  16745449.032    87197932.903       -1856.822          47.000  
> 2023 07 11 06 06 48.9810000  0 38                     
G05  15805966.750    83061021.565        1778.274          45.000    15805959.281    64722858.730        1386.029          41.000  
G06  16300341.466    85658911.606       -2231.756          43.000    16300338.180    66747215.250       -1738.971          42.000  
G07  17836524.998    93731766.230         227.231          43.000    17836517.546    73037716.450         177.153          37.000  
G09  18942714.340    99544705.465       -3209.104          37.000    18942708.944    77567343.535       -2501.087          35.000  
G11  14615597.173    76805555.795         230.705          46.000    14615588.241    59848487.742         179.635          49.000  
G13  15940887.447    83770072.188        3274.069          45.000                                                                  
G15  18809204.158    98843081.735        3879.537          38.000    18809201.023    77020577.169        3022.502          33.000  
G19  19614816.987   103076530.527       -3604.279          35.000                                                                  
G20  14923225.531    78422155.544         759.653          45.000                                                                  
G29  17933146.061    94239344.133        2198.191          39.000    17933138.909    73433226.311        1712.807          35.000  
G30  17265979.371    90733494.946        1741.773          43.000    17265976.031    70701502.154        1356.858          40.000  
R02  16140531.858    86129094.562       -2911.963          46.000    16140524.475    66989228.782       -2264.696          42.000  
R03  13893562.792    74373462.880        -336.883          48.000    13893548.930    57846043.513        -262.065          47.000  
R04  15735708.368    84264111.453        2614.877          46.000    15735695.856    65538668.828        2033.633          43.000  
R12  18572771.625    99212438.011        2380.269          44.000                                                                  
R17  14789281.686    79140439.782       -2863.499          47.000    14789272.283    61553609.547       -2227.139          46.000  
R18  13567213.308    72422786.628         937.202          47.000    13567205.021    56328806.788         729.071          48.000  
R19  16013460.804    85661228.801        3899.765          33.000    16013449.903    66625377.172        3033.391          39.000  
E04  21116908.332   110970162.436        2879.820          39.000    21116908.674    85029099.438        2206.459          41.000  
E07  23235982.532   122105891.977       -2524.040          30.000    23235981.723    93561685.293       -1933.572          32.000  
E10  20420758.887   107311835.060        2698.962          41.000    20420757.592    82225949.645        2068.024          44.000  
E12  18642769.871    97968458.865        1890.776          42.000    18642762.913    75066763.034        1448.595          46.000  
E14  14705441.551    77277616.986        3458.132          42.000                                                                  
E19  18249659.602    95902661.075         749.758          40.000    18249653.960    73483865.404         574.399          46.000  
E20  20640677.289   108467561.842        -397.475          39.000                                                                  
E26  21393258.157   112422252.012       -2303.458          39.000    21393259.852    86141672.444       -1764.862          40.000  
J02  32244333.480   169445091.104          55.241          36.000    32244342.892   132034949.189          42.730          37.000  
J03  31640708.093   166273019.419         838.157          44.000                                                                  
J04  32837620.349   172562846.212        -291.632          43.000    32837611.810   134464520.519        -227.425          46.000  
J07  31519313.626   165635080.246         253.132          38.000    31519305.958   129066292.727         197.552          43.000  
C07  33883372.339   136434173.340       -1168.231          39.000    33883383.326   176439523.792       -1510.491          37.000  
C08  31512801.791   126889054.648         529.776          44.000    31512819.011   164095548.412         685.364          42.000  
C10  33480552.169   134812214.360       -1132.113          35.000    33480558.897   174341950.204       -1464.882          36.000  
C13  32339774.560   130218928.467         547.759          43.000    32339782.338   168401740.921         708.082          42.000  
C14  19564167.948    78776791.230       -1785.724          43.000    19564181.313   101875785.242       -2309.291          38.000  
C24                                                                  20520891.420   106857714.221        1407.259          38.000  
C27                                                                  16638108.834    86639035.884        1017.700          48.000  
C28                                                                  16745805.566    87199789.886       -1857.298          47.000  
> 2023 07 11 06 06 49.9810000  0 38                     
G05  15805628.243    83059243.138        1778.314          45.000    15805620.918    64721472.956        1385.631          41.000  
G06  16300766.060    85661143.516       -2232.050          43.000    16300762.824    66748954.392       -1739.131          42.000  
G07  17836481.815    93731539.223         226.238          43.000    17836474.425    73037539.551         176.677          37.000  
G09  18943325.120    99547915.288       -3209.807          37.000    18943319.665    77569844.659       -2500.645          34.000  
G11  14615553.352    76805325.395         230.328          46.000    14615544.385    59848308.211         179.393          49.000  
G13  15940264.491    83766798.300        3273.858          45.000                                                                  
G15  18808466.128    98839202.657        3878.869          38.000    18808462.856    77017554.500        3022.961          33.000  
G19  19615502.769   103080134.598       -3603.974          34.000                                                                  
G20  14923081.019    78421395.877         759.654          45.000                                                                  
G29  17932727.799    94237146.019        2198.122          39.000    17932720.552    73431513.476        1712.971          35.000  
G30  17265647.996    90731753.384        1741.353          43.000    17265644.527    70700145.091        1356.652          40.000  
R02  16141077.465    86132006.407       -2911.990          47.000    16141070.198    66991493.553       -2264.853          42.000  
R03  13893625.670    74373799.868        -337.255          48.000    13893611.808    57846305.614        -262.295          47.000  
R04  15735220.073    84261496.812        2614.591          45.000    15735207.509    65536635.226        2033.336          43.000  
R12  18572326.005    99210057.801        2379.880          45.000                                                                  
R17  14789816.755    79143303.449       -2863.980          47.000    14789807.394    61555836.844       -2227.504          46.000  
R18  13567037.753    72421849.696         936.542          47.000    13567029.383    56328078.071         728.421          48.000  
R19  16012732.113    85657329.385        3899.428          32.000    16012720.873    66622344.334        3032.786          39.000  
E04  21116360.298   110967282.727        2879.715          39.000    21116360.765    85026892.906        2206.500          42.000  
E07  23236462.741   122108415.967       -2524.895          30.000    23236462.052    93563619.251       -1934.056          32.000  
E10  20420245.329   107309136.116        2698.756          41.000    20420244.005    82223881.622        2068.013          45.000  
E12  18642410.040    97966568.240        1890.556          42.000    18642403.190    75065314.372        1448.571          46.000  
E14  14704783.920    77274159.486        3456.833          42.000                                                                  
E19  18249517.041    95901911.500         749.433          40.000    18249511.394    73483291.052         574.212          47.000  
E20  20640753.110   108467959.338        -397.643          38.000                                                                  
E26  21393696.540   112424555.541       -2303.722          38.000    21393698.193    86143437.482       -1764.993          41.000  
J02  32244322.918   169445035.761          55.083          36.000    32244332.276   132034906.060          43.097          37.000  
J03  31640548.638   166272181.221         838.177          44.000                                                                  
J04  32837675.869   172563137.897        -291.645          43.000    32837667.429   134464747.796        -227.235          46.000  
J07  31519265.387   165634826.744         253.443          37.000    31519257.758   129066095.212         197.470          43.000  
C07  33883662.375   136435341.212       -1168.054          39.000    33883673.345   176441034.096       -1510.074          37.000  
C08  31512670.117   126888524.600         529.974          44.000    31512687.297   164094862.937         685.626          42.000  
C10  33480833.384   134813346.681       -1132.529          36.000    33480839.990   174343414.523       -1463.995          36.000  
C13  32339638.557   130218380.745         547.730          43.000    32339646.320   168401032.585         708.387          42.000  
C14  19564611.429    78778576.802       -1785.418          43.000    19564624.760   101878094.389       -2308.901          38.000  
C24                                                                  20520621.188   106856307.121        1406.740          38.000  
C27                                                                  16637913.372    86638018.284        1017.233          48.000  
C28                                                                  16746162.376    87201647.300       -1857.591          47.000  
> 2023 07 11 06 06 50.9810000  0 38                     
G05  15805289.829    83057464.918        1777.731          45.000    15805282.472    64720087.323        1385.295          41.000  
G06  16301190.880    85663375.789       -2232.769          43.000    16301187.595    66750693.820       -1739.868          42.000  
G07  17836438.834    93731312.655         225.855          43.000    17836431.262    73037363.010         176.268          37.000  
G09  18943935.962    99551125.090       -3209.995          37.000    18943930.494    77572345.831       -2501.235          35.000  
G11  14615509.686    76805095.499         229.364          46.000    14615500.628    59848129.067         178.699          49.000  
G13  15939641.408    83763524.832        3272.800          45.000                                                                  
G15  18807727.842    98835323.691        3878.725          38.000    18807724.828    77014531.980        3022.048          33.000  
G19  19616188.646   103083738.541       -3604.786          34.000                                                                  
G20  14922936.357    78420636.418         759.209          45.000                                                                  
G29  17932309.622    94234948.476        2197.068          39.000    17932302.467    73429801.117        1711.825          35.000  
G30  17265316.790    90730012.247        1740.719          43.000    17265313.145    70698788.357        1356.270          40.000  
R02  16141623.141    86134918.302       -2912.154          47.000    16141615.917    66993758.362       -2264.999          42.000  
R03  13893688.751    74374137.312        -337.856          48.000    13893674.871    57846568.075        -262.805          47.000  
R04  15734731.868    84258882.606        2613.734          45.000    15734719.331    65534601.954        2032.848          43.000  
R12  18571880.524    99207678.000        2379.318          45.000                                                                  
R17  14790352.010    79146167.712       -2864.791          47.000    14790342.648    61558064.597       -2228.139          46.000  
R18  13566862.406    72420913.596         935.505          47.000    13566854.087    56327349.994         727.583          48.000  
R19  16012003.188    85653430.361        3898.465          32.000    16011991.978    66619311.755        3032.426          39.000  
E04  21115812.395   110964403.216        2879.095          39.000    21115812.897    85024686.519        2206.096          41.000  
E07  23236943.411   122110939.784       -2523.867          29.000    23236942.440    93565553.134       -1934.069          31.000  
E10  20419731.864   107306437.245        2698.375          41.000    20419730.338    82221813.653        2067.777          44.000  
E12  18642050.282    97964677.821        1890.193          42.000    18642043.492    75063865.869        1448.292          46.000  
E14  14704126.223    77270703.277        3455.288          42.000                                                                  
E19  18249374.477    95901162.348         748.810          40.000    18249368.804    73482717.022         573.748          46.000  
E20  20640828.920   108468357.219        -398.325          38.000                                                                  
E26  21394134.748   112426859.249       -2303.939          38.000    21394136.452    86145202.664       -1765.583          40.000  
J02  32244312.248   169444980.347          55.023          36.000    32244321.678   132034862.867          43.269          37.000  
J03  31640389.134   166271343.061         837.769          44.000                                                                  
J04  32837731.239   172563429.501        -291.762          43.000    32837722.920   134464975.029        -227.443          46.000  
J07  31519217.117   165634573.260         253.335          37.000    31519209.601   129065897.685         197.272          43.000  
C07  33883952.408   136436509.059       -1168.097          39.000    33883963.450   176442544.410       -1510.691          37.000  
C08  31512538.523   126887994.483         530.051          44.000    31512555.587   164094177.407         685.253          42.000  
C10  33481114.598   134814479.035       -1132.828          36.000    33481121.127   174344878.907       -1464.473          36.000  
C13  32339502.481   130217832.945         547.803          43.000    32339510.253   168400324.155         708.402          42.000  
C14  19565054.897    78780362.360       -1785.973          43.000    19565068.058   101880403.508       -2309.407          38.000  
C24                                                                  20520351.068   106854900.361        1406.099          38.000  
C27                                                                  16637718.138    86637001.195        1016.627          48.000  
C28                                                                  16746519.106    87203505.137       -1858.227          47.000  
> 2023 07 11 06 06 51.9810000  0 38                     
G05  15804951.574    83055686.800        1778.110          45.000    15804944.242    64718701.781        1385.658          41.000  
G06  16301615.823    85665608.345       -2232.737          43.000    16301612.311    66752433.470       -1739.713          42.000  
G07  17836395.751    93731086.542         225.600          43.000    17836388.267    73037186.851         175.544          37.000  
G09  18944546.756    99554334.934       -3210.197          37.000    18944541.304    77574846.981       -2501.123          35.000  
G11  14615466.040    76804866.031         229.417          46.000    14615457.006    59847950.257         178.731          49.000  
G13  15939018.548    83760251.661        3273.024          45.000                                                                  
G15  18806989.667    98831444.821        3878.888          38.000    18806986.786    77011509.485        3022.108          33.000  
G19  19616874.435   103087342.230       -3603.527          34.000                                                                  
G20  14922791.787    78419877.098         759.302          45.000                                                                  
G29  17931891.592    94232751.401        2196.956          39.000    17931884.404    73428089.124        1711.643          35.000  
G30  17264985.577    90728271.476        1740.411          43.000    17264981.937    70697431.912        1356.185          40.000  
R02  16142168.827    86137830.187       -2911.801          47.000    16142161.624    66996023.166       -2264.937          42.000  
R03  13893751.924    74374475.164        -338.038          48.000    13893738.008    57846830.847        -262.885          47.000  
R04  15734243.686    84256268.773        2613.684          45.000    15734231.244    65532568.977        2032.968          42.000  
R12  18571435.092    99205298.592        2379.196          45.000                                                                  
R17  14790887.382    79149032.506       -2865.077          47.000    14790878.023    61560292.772       -2228.376          46.000  
R18  13566687.123    72419978.267         935.023          47.000    13566678.824    56326622.514         727.273          48.000  
R19  16011274.567    85649531.640        3898.686          33.000    16011263.205    66616279.420        3031.968          39.000  
E04  21115264.432   110961523.769        2879.464          39.000    21115264.940    85022480.212        2206.227          41.000  
E07  23237423.806   122113463.625       -2524.025          29.000    23237422.715    93567486.990       -1934.204          31.000  
E10  20419218.307   107303738.377        2698.932          41.000    20419216.814    82219745.702        2068.216          45.000  
E12  18641690.465    97962787.578        1890.366          42.000    18641683.790    75062417.505        1448.314          46.000  
E14  14703468.848    77267248.298        3454.472          42.000                                                                  
E19  18249231.880    95900413.498         748.687          40.000    18249226.359    73482143.225         573.801          46.000  
E20  20640904.669   108468755.354        -398.175          38.000                                                                  
E26  21394573.114   112429163.046       -2303.651          38.000    21394574.983    86146967.898       -1765.100          40.000  
J02  32244301.769   169444924.761          55.732          36.000    32244311.032   132034819.566          43.607          37.000  
J03  31640229.618   166270504.861         838.206          44.000                                                                  
J04  32837786.717   172563720.984        -291.116          43.000    32837778.319   134465202.159        -227.026          46.000  
J07  31519168.906   165634319.653         254.090          37.000    31519161.367   129065700.088         197.675          43.000  
C07  33884242.367   136437676.850       -1168.015          39.000    33884253.486   176444054.585       -1509.616          37.000  
C08  31512406.866   126887464.261         530.313          44.000    31512423.885   164093491.712         685.618          42.000  
C10  33481395.881   134815611.352       -1132.227          35.000    33481402.277   174346343.246       -1463.734          36.000  
C13  32339366.416   130217285.037         547.929          43.000    32339374.096   168399615.588         708.761          42.000  
C14  19565498.354    78782147.815       -1785.354          43.000    19565511.419   101882712.509       -2308.868          38.000  
C24                                                                  20520081.003   106853493.895        1406.112          37.000  
C27                                                                  16637522.901    86635984.572        1016.438          48.000  
C28                                                                  16746875.913    87205363.329       -1858.216          47.000  
> 2023 07 11 06 06 52.9810000  0 38                     
G05  15804613.179    83053908.777        1778.054          45.000    15804605.844    64717316.303        1385.697          41.000  
G06  16302040.587    85667841.201       -2233.086          43.000    16302037.282    66754173.351       -1740.033          42.000  
G07  17836352.855    93730860.868         225.680          43.000    17836345.334    73037010.993         175.461          37.000  
G09  18945157.624    99557544.735       -3209.956          37.000    18945152.132    77577348.150       -2501.344          35.000  
G11  14615422.402    76804636.970         229.078          46.000    14615413.350    59847771.776         178.299          49.000  
G13  15938395.855    83756978.843        3272.619          45.000                                                                  
G15  18806251.517    98827565.998        3878.690          38.000    18806248.763    77008487.022        3022.094          33.000  
G19  19617560.193   103090945.723       -3603.346          34.000                                                                  
G20  14922647.266    78419117.914         759.167          45.000                                                                  
G29  17931473.574    94230554.821        2196.194          39.000    17931466.535    73426377.482        1711.763          35.000  
G30  17264654.366    90726531.052        1740.288          43.000    17264650.777    70696075.737        1356.216          40.000  
R02  16142714.512    86140742.075       -2911.766          47.000    16142707.365    66998287.965       -2264.736          42.000  
R03  13893815.068    74374813.423        -338.337          48.000    13893801.229    57847093.936        -263.136          47.000  
R04  15733755.569    84253655.276        2613.442          45.000    15733743.162    65530536.270        2032.532          43.000  
R12  18570989.706    99202919.579        2378.908          45.000                                                                  
R17  14791422.818    79151897.843       -2865.590          47.000    14791413.582    61562521.367       -2228.921          46.000  
R18  13566512.064    72419043.691         934.244          47.000    13566503.677    56325895.619         726.625          48.000  
R19  16010545.841    85645633.194        3898.468          32.000    16010534.463    66613247.284        3032.198          39.000  
E04  21114716.543   110958644.430        2879.336          39.000    21114717.169    85020273.946        2206.480          41.000  
E07  23237903.972   122115987.275       -2523.571          29.000    23237902.857    93569420.685       -1933.580          31.000  
E10  20418704.844   107301039.535        2699.017          41.000    20418703.238    82217677.762        2067.976          45.000  
E12  18641330.841    97960897.480        1890.201          42.000    18641323.996    75060969.244        1448.224          46.000  
E14  14702811.608    77263794.544        3453.368          42.000                                                                  
E19  18249089.433    95899664.922         748.587          40.000    18249083.923    73481569.654         573.516          46.000  
E20  20640980.418   108469153.756        -398.359          38.000                                                                  
E26  21395011.671   112431466.934       -2303.779          38.000    21395013.387    86148733.223       -1765.470          40.000  
J02  32244291.099   169444869.061          55.888          36.000    32244300.412   132034776.151          43.427          37.000  
J03  31640070.109   166269666.654         838.177          44.000                                                                  
J04  32837841.996   172564012.346        -291.013          43.000    32837833.685   134465429.194        -226.941          46.000  
J07  31519120.589   165634066.046         253.780          37.000    31519113.129   129065502.441         197.733          43.000  
C07  33884532.288   136438844.554       -1167.643          39.000    33884543.507   176445564.700       -1509.628          37.000  
C08  31512275.113   126886933.945         530.341          44.000    31512292.111   164092805.894         685.701          42.000  
C10  33481677.001   134816743.628       -1132.242          35.000    33481683.460   174347807.549       -1464.206          36.000  
C13  32339230.271   130216737.002         548.236          43.000    32339238.036   168398906.863         708.937          42.000  
C14  19565941.782    78783933.180       -1785.146          43.000    19565954.824   101885021.381       -2308.731          38.000  
C24                                                                  20519810.969   106852087.672        1406.195          37.000  
C27                                                                  16637327.757    86634968.406        1015.938          48.000  
C28                                                                  16747232.764    87207221.876       -1858.695          47.000  
> 2023 07 11 06 06 53.9810000  0 38                     
G05  15804274.815    83052130.872        1777.617          45.000    15804267.456    64715930.936        1385.153          41.000  
G06  16302465.550    85670074.312       -2233.270          43.000    16302462.170    66755913.448       -1740.420          42.000  
G07  17836309.866    93730635.593         224.990          43.000    17836302.510    73036835.457         175.198          37.000  
G09  18945768.387    99560754.474       -3209.795          37.000    18945762.914    77579849.218       -2501.007          35.000  
G11  14615378.815    76804408.333         228.221          47.000    14615369.872    59847593.615         177.839          49.000  
G13  15937773.122    83753706.304        3272.262          45.000                                                                  
G15  18805513.402    98823687.213        3878.268          37.000    18805510.707    77005464.614        3021.940          33.000  
G19  19618245.757   103094548.973       -3603.442          34.000                                                                  
G20  14922502.899    78418358.823         758.970          45.000                                                                  
G29  17931055.628    94228358.661        2195.884          40.000    17931048.713    73424666.215        1711.120          35.000  
G30  17264323.324    90724790.969        1739.824          43.000    17264319.604    70694719.843        1355.706          40.000  
R02  16143260.240    86143653.969       -2911.989          47.000    16143253.060    67000552.759       -2264.729          42.000  
R03  13893878.322    74375152.061        -338.946          48.000    13893864.611    57847357.320        -263.563          47.000  
R04  15733267.450    84251042.104        2612.859          45.000    15733255.141    65528503.810        2032.029          42.000  
R12  18570544.410    99200540.952        2378.485          44.000                                                                  
R17  14791958.276    79154763.706       -2866.336          47.000    14791949.168    61564750.368       -2229.379          46.000  
R18  13566337.058    72418109.820         933.351          47.000    13566328.671    56325169.279         725.875          48.000  
R19  16009817.001    85641735.011        3897.773          32.000    16009805.755    66610215.390        3031.309          39.000  
E04  21114168.621   110955765.153        2879.202          39.000    21114169.285    85018067.772        2205.938          41.000  
E07  23238384.502   122118510.806       -2523.652          29.000    23238383.028    93571354.326       -1933.757          30.000  
E10  20418191.268   107298340.675        2698.862          41.000    20418189.671    82215609.804        2067.969          45.000  
E12  18640971.187    97959007.511        1889.713          42.000    18640964.342    75059521.085        1448.024          46.000  
E14  14702154.714    77260341.997        3451.868          42.000                                                                  
E19  18248947.053    95898916.664         748.044          40.000    18248941.407    73480996.304         573.192          46.000  
E20  20641056.328   108469552.407        -398.916          39.000                                                                  
E26  21395450.302   112433770.918       -2304.203          39.000    21395451.777    86150498.595       -1765.614          40.000  
J02  32244280.458   169444813.164          55.881          36.000    32244289.891   132034732.602          43.438          37.000  
J03  31639910.552   166268828.378         838.182          44.000                                                                  
J04  32837897.440   172564303.558        -291.219          43.000    32837889.025   134465656.112        -226.980          46.000  
J07  31519072.242   165633812.272         253.455          37.000    31519064.892   129065304.723         197.597          43.000  
C07  33884822.326   136440012.172       -1167.709          39.000    33884833.492   176447074.731       -1510.222          37.000  
C08  31512143.324   126886403.472         530.477          44.000    31512160.389   164092119.868         685.858          42.000  
C10  33481958.249   134817875.865       -1132.572          35.000    33481964.659   174349271.759       -1464.338          36.000  
C13  32339094.137   130216188.833         548.012          43.000    32339101.990   168398197.963         708.751          42.000  
C14  19566385.129    78785718.460       -1785.469          43.000    19566398.116   101887330.135       -2308.596          38.000  
C24                                                                  20519541.020   106850681.739        1405.589          37.000  
C27                                                                  16637132.609    86633952.666        1015.325          48.000  
C28                                                                  16747589.745    87209080.743       -1859.239          47.000  
> 2023 07 11 06 06 54.9810000  0 38                     
G05  15803936.584    83050353.072        1777.389          45.000    15803929.204    64714545.636        1385.029          41.000  
G06  16302890.541    85672307.725       -2233.735          43.000    16302887.121    66757653.771       -1740.761          42.000  
G07  17836267.003    93730410.772         224.332          43.000    17836259.685    73036660.264         174.808          37.000  
G09  18946379.235    99563964.223       -3209.568          37.000    18946373.727    77582350.335       -2501.394          35.000  
G11  14615335.378    76804180.116         227.918          46.000    14615326.424    59847415.777         177.588          49.000  
G13  15937150.470    83750434.103        3271.906          45.000                                                                  
G15  18804775.204    98819808.479        3878.494          37.000    18804772.537    77002442.217        3022.278          34.000  
G19  19618931.343   103098151.997       -3603.160          34.000                                                                  
G20  14922358.611    78417599.880         758.753          45.000                                                                  
G29  17930637.845    94226163.017        2195.176          39.000    17930630.946    73422955.338        1710.115          35.000  
G30  17263992.191    90723051.250        1739.452          43.000    17263988.545    70693364.226        1355.412          40.000  
R02  16143805.910    86146565.856       -2912.115          47.000    16143798.834    67002817.572       -2265.194          42.000  
R03  13893941.785    74375491.087        -339.510          48.000    13893927.950    57847621.009        -263.972          47.000  
R04  15732779.489    84248429.299        2612.475          45.000    15732767.094    65526471.631        2031.820          43.000  
R12  18570099.165    99198162.699        2377.901          44.000                                                                  
R17  14792493.886    79157630.107       -2866.822          47.000    14792484.851    61566979.783       -2229.798          46.000  
R18  13566162.264    72417176.713         932.509          47.000    13566153.862    56324443.525         725.210          48.000  
R19  16009088.428    85637837.130        3897.744          32.000    16009077.121    66607183.689        3031.584          39.000  
E04  21113620.747   110952885.978        2878.968          39.000    21113621.217    85015861.664        2205.882          41.000  
E07  23238865.070   122121034.235       -2523.593          29.000    23238863.102    93573287.840       -1933.300          30.000  
E10  20417677.593   107295641.827        2698.754          41.000    20417676.183    82213541.860        2067.885          45.000  
E12  18640611.554    97957117.693        1889.264          42.000    18640604.638    75058073.033        1447.913          46.000  
E14  14701497.873    77256890.682        3450.436          42.000                                                                  
E19  18248804.813    95898168.694         747.534          40.000    18248799.038    73480423.180         572.943          46.000  
E20  20641132.265   108469951.340        -399.277          38.000                                                                  
E26  21395888.612   112436074.972       -2304.309          38.000    21395890.216    86152264.033       -1765.562          40.000  
J02  32244269.713   169444757.121          55.640          36.000    32244279.308   132034688.930          43.782          37.000  
J03  31639751.010   166267990.084         837.994          44.000                                                                  
J04  32837952.908   172564594.633        -291.039          43.000    32837944.461   134465882.928        -226.997          46.000  
J07  31519023.909   165633558.429         253.776          37.000    31519016.636   129065106.910         197.717          43.000  
C07  33885112.267   136441179.743       -1167.682          40.000    33885123.479   176448584.643       -1510.180          37.000  
C08  31512011.533   126885872.872         530.662          44.000    31512028.727   164091433.693         686.175          42.000  
C10  33482239.404   134819008.012       -1131.840          35.000    33482245.854   174350735.951       -1464.815          36.000  
C13  32338957.947   130215640.544         548.192          43.000    32338965.859   168397488.897         708.884          42.000  
C14  19566828.565    78787503.645       -1785.287          43.000    19566841.483   101889638.775       -2308.501          38.000  
C24                                                                  20519271.152   106849276.078        1405.483          37.000  
C27                                                                  16636937.595    86632937.379        1015.009          48.000  
C28                                                                  16747946.848    87210939.955       -1859.631          47.000  
> 2023 07 11 06 06 55.9810000  0 38                     
G05  15803598.227    83048575.519        1777.389          45.000    15803590.951    64713160.542        1384.974          41.000  
G06  16303315.595    85674541.572       -2234.197          43.000    16303312.169    66759394.410       -1740.910          42.000  
G07  17836224.303    93730186.499         223.722          43.000    17836216.915    73036485.506         174.488          37.000  
G09  18946990.102    99567174.110       -3210.864          37.000    18946984.563    77584851.527       -2501.844          35.000  
G11  14615292.051    76803952.451         227.343          46.000    14615283.105    59847238.382         177.099          49.000  
G13  15936527.901    83747162.372        3271.354          45.000                                                                  
G15  18804037.127    98815929.952        3878.086          38.000    18804034.410    76999419.960        3022.453          33.000  
G19  19619616.960   103101754.937       -3602.639          34.000                                                                  
G20  14922214.275    78416841.208         758.441          45.000                                                                  
G29  17930220.169    94223967.971        2194.524          39.000    17930213.175    73421244.890        1710.379          35.000  
G30  17263661.249    90721312.030        1738.809          43.000    17263657.592    70692008.980        1355.147          40.000  
R02  16144351.630    86149477.837       -2912.007          47.000    16144344.456    67005082.451       -2265.022          42.000  
R03  13894005.174    74375830.650        -339.974          48.000    13893991.434    57847885.112        -264.368          47.000  
R04  15732291.656    84245816.993        2611.976          45.000    15732279.315    65524439.829        2031.627          43.000  
R12  18569654.058    99195784.930        2377.366          44.000                                                                  
R17  14793029.670    79160497.175       -2867.407          47.000    14793020.536    61569209.724       -2230.268          46.000  
R18  13565987.559    72416244.520         931.718          47.000    13565979.247    56323718.494         724.543          48.000  
R19  16008359.836    85633939.685        3897.505          32.000    16008348.536    66604152.370        3030.868          39.000  
E04  21113072.823   110950007.016        2878.942          39.000    21113073.318    85013655.715        2205.810          41.000  
E07  23239345.047   122123557.706       -2523.901          29.000    23239343.278    93575221.410       -1933.885          30.000  
E10  20417163.982   107292943.138        2698.480          41.000    20417162.616    82211474.027        2067.792          45.000  
E12  18640251.951    97955228.149        1889.276          42.000    18640245.157    75056625.219        1447.492          46.000  
E14  14700841.475    77253440.724        3449.089          42.000                                                                  
E19  18248662.601    95897421.147         747.100          40.000    18248656.921    73479850.385         572.541          46.000  
E20  20641208.140   108470350.685        -399.735          38.000                                                                  
E26  21396327.060   112438379.272       -2304.582          38.000    21396328.699    86154029.665       -1765.807          40.000  
J02  32244259.092   169444701.078          55.332          35.000    32244268.526   132034645.246          43.734          37.000  
J03  31639591.456   166267151.890         838.097          44.000                                                                  
J04  32838008.393   172564885.718        -290.969          43.000    32837999.811   134466109.738        -226.793          46.000  
J07  31518975.701   165633304.658         253.584          37.000    31518968.280   129064909.156         197.772          43.000  
C07  33885402.251   136442347.356       -1167.923          39.000    33885413.485   176450094.625       -1510.206          37.000  
C08  31511879.740   126885342.298         530.463          44.000    31511896.998   164090747.513         686.208          42.000  
C10  33482520.784   134820140.276       -1132.454          35.000    33482527.028   174352200.169       -1464.510          36.000  
C13  32338821.839   130215092.263         548.085          43.000    32338829.714   168396779.828         709.055          42.000  
C14  19567271.893    78789288.838       -1785.141          43.000    19567284.862   101891947.437       -2308.690          38.000  
C24                                                                  20519001.255   106847870.834        1404.659          37.000  
C27                                                                  16636742.857    86631922.680        1014.408          48.000  
C28                                                                  16748303.912    87212799.646       -1859.972          47.000  
> 2023 07 11 06 06 56.9810000  0 38                     
G05  15803260.026    83046798.264        1777.008          45.000    15803252.812    64711775.644        1385.005          41.000  
G06  16303740.708    85676775.839       -2234.152          43.000    16303737.386    66761135.412       -1741.203          42.000  
G07  17836181.699    93729962.816         223.987          43.000    17836174.336    73036311.217         174.082          37.000  
G09  18947600.924    99570384.093       -3210.139          38.000    18947595.363    77587352.799       -2501.001          35.000  
G11  14615248.760    76803725.382         226.850          46.000    14615239.837    59847061.437         176.917          49.000  
G13  15935905.369    83743891.116        3270.996          45.000                                                                  
G15  18803298.990    98812051.623        3878.447          38.000    18803296.632    76996397.909        3022.086          33.000  
G19  19620302.530   103105357.857       -3603.026          34.000                                                                  
G20  14922069.927    78416082.814         758.428          45.000                                                                  
G29  17929802.541    94221773.555        2194.009          40.000    17929795.510    73419534.951        1710.017          35.000  
G30  17263330.361    90719573.311        1738.734          43.000    17263326.734    70690654.153        1354.633          40.000  
R02  16144897.422    86152389.995       -2912.090          47.000    16144890.158    67007347.439       -2264.909          42.000  
R03  13894068.780    74376170.792        -340.306          48.000    13894054.855    57848149.669        -264.710          48.000  
R04  15731803.802    84243205.181        2611.682          45.000    15731791.478    65522408.411        2031.527          43.000  
R12  18569209.058    99193407.674        2377.054          44.000                                                                  
R17  14793565.586    79163364.945       -2867.871          48.000    14793556.416    61571440.209       -2230.659          46.000  
R18  13565813.105    72415313.268         930.976          47.000    13565804.794    56322994.183         723.976          48.000  
R19  16007631.455    85630042.759        3896.091          32.000    16007620.185    66601121.382        3030.987          39.000  
E04  21112524.932   110947128.338        2878.844          40.000    21112525.613    85011449.962        2205.907          42.000  
E07  23239824.821   122126081.202       -2523.786          30.000    23239823.600    93577154.975       -1933.255          30.000  
E10  20416650.520   107290244.581        2698.927          41.000    20416649.150    82209406.329        2067.582          45.000  
E12  18639892.429    97953338.927        1889.405          43.000    18639885.783    75055177.627        1447.639          46.000  
E14  14700185.236    77249992.121        3448.226          42.000                                                                  
E19  18248520.445    95896674.064         746.846          40.000    18248514.742    73479277.944         572.496          47.000  
E20  20641284.309   108470750.458        -399.706          39.000                                                                  
E26  21396765.412   112440683.799       -2304.289          39.000    21396767.310    86155795.464       -1765.619          41.000  
J02  32244248.419   169444645.018          56.143          35.000    32244257.909   132034601.585          43.698          37.000  
J03  31639432.019   166266313.828         838.067          44.000                                                                  
J04  32838063.792   172565176.827        -291.042          43.000    32838055.234   134466336.579        -226.715          46.000  
J07  31518927.421   165633050.962         253.424          37.000    31518919.976   129064711.470         197.747          43.000  
C07  33885692.260   136443515.009       -1167.372          39.000    33885703.420   176451604.681       -1510.191          37.000  
C08  31511747.924   126884811.686         530.716          44.000    31511765.172   164090061.340         686.028          42.000  
C10  33482802.066   134821272.580       -1132.178          35.000    33482808.201   174353664.522       -1464.786          36.000  
C13  32338685.642   130214543.951         548.620          43.000    32338693.550   168396070.753         709.180          42.000  
C14  19567715.330    78791074.081       -1785.159          43.000    19567728.186   101894256.135       -2308.444          38.000  
C24                                                                  20518731.450   106846466.031        1404.481          37.000  
C27                                                                  16636548.193    86630908.597        1013.916          48.000  
C28                                                                  16748661.173    87214659.854       -1860.411          47.000  
> 2023 07 11 06 06 57.9810000  0 38                     
G05  15802921.800    83045021.159        1777.229          45.000    15802914.710    64710390.903        1384.801          41.000  
G06  16304165.955    85679010.504       -2234.799          43.000    16304162.619    66762876.695       -1741.209          42.000  
G07  17836139.233    93729739.644         223.231          43.000    17836131.834    73036137.330         173.637          37.000  
G09  18948211.678    99573594.129       -3209.893          37.000    18948206.211    77589854.131       -2500.716          34.000  
G11  14615205.631    76803498.805         226.537          46.000    14615196.738    59846884.886         176.483          49.000  
G13  15935282.878    83740620.252        3270.900          45.000                                                                  
G15  18802560.956    98808173.448        3878.233          37.000    18802558.917    76993375.967        3022.229          33.000  
G19  19620988.068   103108960.615       -3602.817          34.000                                                                  
G20  14921925.637    78415324.635         758.209          45.000                                                                  
G29  17929385.128    94219579.700        2193.732          39.000    17929378.023    73417825.454        1709.486          35.000  
G30  17262999.657    90717835.030        1738.150          43.000    17262996.000    70689299.642        1354.182          40.000  
R02  16145443.178    86155302.228       -2912.185          47.000    16145435.985    67009612.514       -2265.133          42.000  
R03  13894132.441    74376511.432        -340.755          48.000    13894118.442    57848414.609        -264.952          48.000  
R04  15731316.162    84240593.797        2611.307          45.000    15731303.744    65520377.349        2031.044          42.000  
R12  18568764.109    99191030.897        2376.623          44.000                                                                  
R17  14794101.686    79166233.323       -2868.551          47.000    14794092.441    61573671.162       -2230.975          46.000  
R18  13565638.825    72414382.832         930.025          47.000    13565630.530    56322270.492         723.591          48.000  
R19  16006903.063    85626146.095        3897.098          32.000    16006891.654    66598090.690        3030.687          39.000  
E04  21111977.164   110944249.813        2878.543          39.000    21111977.616    85009244.342        2205.776          40.000  
E07  23240304.565   122128604.592       -2522.950          29.000    23240303.685    93579088.571       -1933.637          29.000  
E10  20416136.907   107287546.138        2698.606          41.000    20416135.585    82207338.685        2067.631          44.000  
E12  18639532.828    97951449.927        1889.047          42.000    18639526.169    75053730.222        1447.375          45.000  
E14  14699529.347    77246544.847        3446.785          42.000                                                                  
E19  18248378.135    95895927.356         746.566          40.000    18248372.703    73478705.802         572.079          46.000  
E20  20641360.490   108471150.580        -400.166          38.000                                                                  
E26  21397204.214   112442988.528       -2304.723          38.000    21397205.974    86157561.415       -1765.854          40.000  
J02  32244237.740   169444588.880          56.184          35.000    32244247.203   132034557.847          43.977          37.000  
J03  31639272.532   166265475.811         838.150          44.000                                                                  
J04  32838119.190   172565467.879        -290.925          43.000    32838110.598   134466563.376        -226.684          46.000  
J07  31518879.056   165632797.237         253.920          38.000    31518871.656   129064513.767         197.871          43.000  
C07  33885982.204   136444682.671       -1167.627          40.000    33885993.335   176453114.701       -1509.810          38.000  
C08  31511616.148   126884281.017         530.817          44.000    31511633.321   164089375.071         686.464          42.000  
C10  33483083.276   134822404.904       -1132.233          35.000    33483089.433   174355128.855       -1463.841          36.000  
C13  32338549.501   130213995.587         548.527          43.000    32338557.330   168395361.601         709.353          42.000  
C14  19568158.688    78792859.273       -1785.010          43.000    19568171.577   101896564.784       -2308.132          38.000  
C24                                                                  20518461.745   106845061.554        1404.677          37.000  
C27                                                                  16636353.557    86629895.039        1013.495          48.000  
C28                                                                  16749018.506    87216520.472       -1860.609          47.000  
> 2023 07 11 06 06 58.9810000  0 38                     
G05  15802583.790    83043244.254        1776.927          45.000    15802576.469    64709006.297        1384.662          41.000  
G06  16304591.277    85681245.503       -2234.838          43.000    16304587.833    66764618.256       -1741.475          42.000  
G07  17836096.741    93729517.002         222.591          43.000    17836089.378    73035963.822         173.431          37.000  
G09  18948822.541    99576804.234       -3209.927          37.000    18948817.024    77592355.522       -2501.110          35.000  
G11  14615162.671    76803272.734         225.889          46.000    14615153.701    59846708.721         176.031          49.000  
G13  15934660.442    83737349.811        3270.237          45.000                                                                  
G15  18801822.991    98804295.396        3878.236          37.000    18801821.270    76990354.144        3021.533          34.000  
G19  19621673.519   103112563.207       -3602.196          34.000                                                                  
G20  14921781.458    78414566.665         757.879          45.000                                                                  
G29  17928967.723    94217386.385        2193.052          39.000    17928960.600    73416116.365        1709.174          35.000  
G30  17262668.974    90716097.185        1737.787          43.000    17262665.231    70687945.480        1354.157          40.000  
R02  16145988.969    86158214.551       -2912.169          47.000    16145981.570    67011877.655       -2265.267          42.000  
R03  13894196.116    74376852.551        -341.224          48.000    13894182.225    57848679.930        -265.413          48.000  
R04  15730828.579    84237982.859        2610.884          45.000    15730816.236    65518346.625        2030.796          42.000  
R12  18568319.153    99188654.573        2376.215          44.000                                                                  
R17  14794637.802    79169102.301       -2869.042          47.000    14794628.640    61575902.598       -2231.598          46.000  
R18  13565464.685    72413453.191         929.291          47.000    13565456.447    56321547.447         722.883          48.000  
R19  16006174.705    85622249.862        3896.263          32.000    16006163.249    66595060.288        3030.109          39.000  
E04  21111429.344   110941371.445        2878.403          39.000    21111429.954    85007038.854        2205.646          41.000  
E07  23240784.438   122131128.007       -2522.831          29.000    23240783.865    93581022.111       -1933.639          29.000  
E10  20415623.356   107284847.786        2698.192          41.000    20415622.076    82205271.094        2067.729          45.000  
E12  18639173.507    97949561.163        1888.905          42.000    18639166.970    75052282.987        1447.207          46.000  
E14  14698873.419    77243098.865        3445.371          42.000                                                                  
E19  18248236.215    95895181.012         746.199          40.000    18248230.620    73478133.931         571.752          46.000  
E20  20641436.697   108471551.035        -400.344          38.000                                                                  
E26  21397642.802   112445293.387       -2304.442          38.000    21397644.512    86159327.496       -1766.060          40.000  
J02  32244227.143   169444532.674          56.369          35.000    32244236.518   132034514.056          43.917          37.000  
J03  31639113.132   166264637.835         838.132          44.000                                                                  
J04  32838174.435   172565758.869        -290.746          43.000    32838165.992   134466790.125        -226.647          46.000  
J07  31518830.748   165632543.516         253.924          37.000    31518823.253   129064316.061         197.886          43.000  
C07  33886272.192   136445850.309       -1167.608          39.000    33886283.398   176454624.715       -1509.531          37.000  
C08  31511484.301   126883750.291         530.707          44.000    31511501.493   164088688.722         686.384          42.000  
C10  33483364.520   134823537.264       -1132.194          35.000    33483370.745   174356593.286       -1464.736          36.000  
C13  32338413.265   130213447.161         548.570          43.000    32338421.189   168394652.361         709.386          42.000  
C14  19568602.015    78794644.447       -1785.201          43.000    19568614.883   101898873.414       -2308.396          38.000  
C24                                                                  20518192.177   106843657.446        1404.104          37.000  
C27                                                                  16636158.891    86628882.011        1012.964          48.000  
C28                                                                  16749375.919    87218381.513       -1861.159          47.000  
> 2023 07 11 06 06 59.9810000  0 38                     
G05  15802245.775    83041467.563        1776.702          45.000    15802238.411    64707621.864        1384.587          41.000  
G06  16305016.721    85683480.923       -2235.557          43.000    16305013.187    66766360.136       -1742.152          42.000  
G07  17836054.507    93729294.891         221.849          43.000    17836047.049    73035790.757         172.808          37.000  
G09  18949433.387    99580014.430       -3210.022          37.000    18949427.871    77594856.974       -2501.071          34.000  
G11  14615119.780    76803047.182         225.340          46.000    14615110.891    59846532.971         175.527          49.000  
G13  15934038.104    83734079.800        3269.775          45.000                                                                  
G15  18801085.111    98800417.514        3877.979          37.000    18801083.408    76987332.389        3022.205          33.000  
G19  19622359.028   103116165.727       -3602.657          34.000                                                                  
G20  14921637.173    78413808.918         757.752          45.000                                                                  
G29  17928550.363    94215193.663        2192.120          39.000    17928543.301    73414407.768        1708.490          35.000  
G30  17262338.418    90714359.814        1737.149          43.000    17262334.598    70686591.691        1353.725          40.000  
R02  16146534.673    86161126.966       -2912.291          46.000    16146527.240    67014142.856       -2265.195          42.000  
R03  13894259.951    74377194.171        -341.762          48.000    13894246.115    57848945.631        -265.804          48.000  
R04  15730341.088    84235372.414        2610.310          45.000    15730328.666    65516316.292        2030.191          42.000  
R12  18567874.394    99186278.746        2375.790          44.000                                                                  
R17  14795174.067    79171971.932       -2869.899          47.000    14795164.862    61578134.520       -2232.192          46.000  
R18  13565290.683    72412524.419         928.416          47.000    13565282.510    56320825.076         722.063          48.000  
R19  16005446.501    85618354.059        3895.419          32.000    16005434.904    66592030.190        3029.907          39.000  
E04  21110881.697   110938493.278        2878.154          39.000    21110882.300    85004833.520        2205.198          41.000  
E07  23241265.030   122133651.440       -2523.355          29.000    23241264.095    93582955.632       -1933.477          28.000  
E10  20415109.926   107282149.528        2698.326          41.000    20415108.629    82203203.610        2067.506          45.000  
E12  18638814.082    97947672.666        1888.355          42.000    18638807.451    75050835.946        1446.949          46.000  
E14  14698217.932    77239654.221        3443.964          42.000                                                                  
E19  18248094.191    95894435.105         745.729          40.000    18248088.724    73477562.384         571.416          46.000  
E20  20641513.060   108471951.869        -400.780          38.000                                                                  
E26  21398081.356   112447598.498       -2305.059          39.000    21398083.171    86161093.725       -1766.362          40.000  
J02  32244216.386   169444476.439          56.239          35.000    32244225.904   132034470.240          43.659          37.000  
J03  31638953.741   166263799.942         837.897          44.000                                                                  
J04  32838229.731   172566049.846        -290.851          43.000    32838221.475   134467016.855        -226.698          46.000  
J07  31518782.443   165632289.820         253.735          38.000    31518774.920   129064118.384         197.748          43.000  
C07  33886562.187   136447017.957       -1167.777          39.000    33886573.306   176456134.762       -1510.054          37.000  
C08  31511352.474   126883219.532         530.865          44.000    31511369.802   164088002.324         686.641          42.000  
C10  33483645.727   134824669.708       -1132.491          35.000    33483651.922   174358057.778       -1464.767          36.000  
C13  32338277.052   130212898.707         548.673          43.000    32338285.035   168393943.087         709.499          42.000  
C14  19569045.354    78796429.621       -1785.256          43.000    19569058.248   101901182.025       -2308.219          38.000  
C24                                                                  20517922.632   106842253.724        1403.708          37.000  
C27                                                                  16635964.481    86627869.543        1012.270          48.000  
C28                                                                  16749733.442    87220243.014       -1861.734          47.000  
> 2023 07 11 06 07 00.9810000  0 38                     
G05  15801907.749    83039691.240        1776.084          45.000    15801900.457    64706237.717        1384.037          41.000  
G06  16305442.129    85685716.876       -2236.358          43.000    16305438.728    66768102.429       -1742.611          42.000  
G07  17836012.333    93729073.421         221.549          43.000    17836004.823    73035618.195         172.165          37.000  
G09  18950044.316    99583224.853       -3210.688          37.000    18950038.732    77597358.587       -2501.313          34.000  
G11  14615076.963    76802822.307         224.372          46.000    14615068.141    59846357.743         174.787          49.000  
G13  15933415.910    83730810.320        3269.121          45.000                                                                  
G15  18800347.205    98796539.956        3877.307          37.000    18800345.367    76984310.940        3020.946          34.000  
G19  19623044.519   103119768.240       -3603.024          34.000                                                                  
G20  14921493.048    78413051.553         756.899          45.000                                                                  
G29  17928133.240    94213001.637        2191.654          39.000    17928126.144    73412699.698        1707.974          35.000  
G30  17262007.789    90712623.037        1736.080          43.000    17262004.095    70685238.358        1352.984          40.000  
R02  16147080.468    86164039.587       -2912.909          46.000    16147073.113    67016408.208       -2265.341          42.000  
R03  13894323.869    74377536.402        -342.718          48.000    13894310.101    57849211.810        -266.434          48.000  
R04  15729853.579    84232762.563        2609.286          45.000    15729841.345    65514286.399        2029.562          42.000  
R12  18567429.849    99183903.536        2374.801          44.000                                                                  
R17  14795710.515    79174842.375       -2871.073          47.000    14795701.187    61580367.077       -2232.906          46.000  
R18  13565116.836    72411596.691         927.170          47.000    13565108.737    56320103.512         720.963          48.000  
R19  16004718.057    85614458.705        3895.515          32.000    16004706.729    66589000.511        3029.493          39.000  
E04  21110333.998   110935615.468        2877.504          39.000    21110334.595    85002628.444        2204.758          41.000  
E07  23241745.212   122136174.968       -2523.521          28.000    23241744.403    93584889.262       -1933.828          28.000  
E10  20414596.518   107279451.524        2697.670          40.000    20414595.172    82201136.309        2067.142          45.000  
E12  18638454.888    97945784.542        1887.886          42.000    18638448.260    75049389.210        1446.538          46.000  
E14  14697562.711    77236211.029        3442.556          41.000                                                                  
E19  18247952.306    95893689.712         745.074          39.000    18247946.818    73476991.240         570.987          46.000  
E20  20641589.354   108472353.253        -401.818          38.000                                                                  
E26  21398520.118   112449903.922       -2305.637          38.000    21398521.833    86162860.211       -1766.830          40.000  
J02  32244205.712   169444420.278          55.867          36.000    32244215.218   132034426.460          43.601          37.000  
J03  31638794.392   166262962.258         837.530          44.000                                                                  
J04  32838285.137   172566340.942        -291.354          43.000    32838276.868   134467243.677        -226.985          46.000  
J07  31518734.277   165632036.279         253.674          37.000    31518726.657   129063920.828         197.325          43.000  
C07  33886852.202   136448185.728       -1167.754          39.000    33886863.250   176457644.947       -1510.261          37.000  
C08  31511220.637   126882688.843         530.809          44.000    31511238.115   164087316.036         686.217          42.000  
C10  33483926.908   134825802.214       -1132.330          35.000    33483933.311   174359522.372       -1464.817          36.000  
C13  32338140.872   130212350.315         548.336          43.000    32338148.720   168393233.912         709.075          42.000  
C14  19569488.707    78798214.889       -1785.577          43.000    19569501.622   101903490.788       -2309.074          37.000  
C24                                                                  20517653.144   106840850.516        1402.933          37.000  
C27                                                                  16635770.169    86626857.766        1011.336          48.000  
C28                                                                  16750091.057    87222105.091       -1862.436          47.000  
> 2023 07 11 06 07 01.9810000  0 38                     
G05  15801569.816    83037915.130        1776.011          45.000    15801562.500    64704853.738        1383.917          41.000  
G06  16305867.645    85687953.207       -2236.428          43.000    16305864.299    66769845.035       -1742.918          42.000  
G07  17835970.305    93728852.512         220.474          43.000    17835962.653    73035446.057         171.699          37.000  
G09  18950655.284    99586435.369       -3210.625          37.000    18950649.742    77599860.299       -2501.180          34.000  
G11  14615034.164    76802597.964         224.134          46.000    14615025.431    59846182.922         174.552          49.000  
G13  15932793.831    83727541.306        3268.788          45.000                                                                  
G15  18799609.157    98792662.527        3877.395          37.000    18799607.742    76981289.591        3021.077          34.000  
G19  19623730.026   103123370.627       -3602.402          35.000                                                                  
G20  14921348.923    78412294.413         757.000          45.000                                                                  
G29  17927716.253    94210810.231        2190.693          39.000    17927709.213    73410992.099        1707.268          35.000  
G30  17261677.244    90710886.709        1736.133          43.000    17261673.699    70683885.383        1352.744          40.000  
R02  16147626.288    86166952.265       -2912.834          47.000    16147618.897    67018673.633       -2265.327          42.000  
R03  13894387.826    74377879.107        -342.897          48.000    13894374.146    57849478.360        -266.631          48.000  
R04  15729366.111    84230153.131        2609.304          45.000    15729354.070    65512256.864        2029.417          42.000  
R12  18566985.320    99181528.804        2374.651          44.000                                                                  
R17  14796247.102    79177713.487       -2871.300          47.000    14796237.662    61582600.170       -2233.406          46.000  
R18  13564943.199    72410669.824         926.498          47.000    13564935.089    56319382.613         720.552          48.000  
R19  16003989.890    85610563.819        3894.498          33.000    16003978.677    66585971.143        3029.194          39.000  
E04  21109786.420   110932737.831        2877.614          39.000    21109787.034    85000423.517        2204.794          41.000  
E07  23242225.357   122138698.526       -2523.694          28.000    23242224.742    93586822.847       -1933.408          27.000  
E10  20414083.228   107276753.647        2697.720          40.000    20414081.832    82199069.109        2067.108          45.000  
E12  18638095.669    97943896.682        1887.819          42.000    18638088.955    75047942.668        1446.340          46.000  
E14  14696907.750    77232769.191        3441.224          41.000                                                                  
E19  18247810.358    95892944.725         744.751          39.000    18247805.084    73476420.410         570.729          46.000  
E20  20641665.650   108472754.987        -402.029          38.000                                                                  
E26  21398958.841   112452209.535       -2305.364          38.000    21398960.647    86164626.850       -1766.737          40.000  
J02  32244194.898   169444364.074          56.314          36.000    32244204.489   132034382.674          43.905          37.000  
J03  31638634.909   166262124.649         837.685          44.000                                                                  
J04  32838340.479   172566631.990        -291.152          43.000    32838332.307   134467470.471        -226.690          46.000  
J07  31518686.106   165631782.804         252.914          38.000    31518678.420   129063723.284         197.706          43.000  
C07  33887142.243   136449353.519       -1167.993          39.000    33887153.239   176459155.151       -1510.070          37.000  
C08  31511088.846   126882158.120         530.809          44.000    31511106.259   164086629.684         686.447          42.000  
C10  33484208.196   134826934.809       -1132.673          35.000    33484214.662   174360987.054       -1464.721          35.000  
C13  32338004.674   130211801.891         548.329          43.000    32338012.500   168392524.654         709.252          42.000  
C14  19569931.993    78800000.132       -1785.319          43.000    19569944.979   101905799.491       -2308.672          37.000  
C24                                                                  20517383.780   106839447.702        1402.700          37.000  
C27                                                                  16635576.033    86625846.541        1011.050          48.000  
C28                                                                  16750448.649    87223967.626       -1862.689          47.000  
> 2023 07 11 06 07 02.9810000  0 38                     
G05  15801231.836    83036139.042        1776.191          45.000    15801224.533    64703469.791        1383.942          41.000  
G06  16306293.182    85690189.759       -2236.727          43.000    16306289.960    66771587.783       -1742.788          42.000  
G07  17835928.385    93728631.959         220.254          43.000    17835920.640    73035274.193         171.850          37.000  
G09  18951266.189    99589645.780       -3210.294          37.000    18951260.750    77602361.911       -2501.486          35.000  
G11  14614991.515    76802373.953         223.957          46.000    14614982.816    59846008.375         174.431          49.000  
G13  15932171.863    83724272.535        3268.644          45.000                                                                  
G15  18798871.305    98788785.084        3877.874          37.000    18798869.850    76978268.215        3021.693          34.000  
G19  19624415.427   103126972.729       -3601.810          35.000                                                                  
G20  14921204.810    78411537.332         757.086          45.000                                                                  
G29  17927299.342    94208619.174        2191.085          39.000    17927292.232    73409284.811        1707.172          35.000  
G30  17261346.959    90709150.680        1735.880          43.000    17261343.379    70682532.630        1352.552          40.000  
R02  16148172.146    86169864.925       -2912.589          46.000    16148164.799    67020939.047       -2265.455          42.000  
R03  13894451.910    74378222.144        -343.118          48.000    13894438.206    57849745.174        -266.859          48.000  
R04  15728878.806    84227544.005        2608.953          45.000    15728866.884    65510227.544        2029.240          43.000  
R12  18566540.890    99179154.413        2374.329          44.000                                                                  
R17  14796783.599    79180585.038       -2871.656          47.000    14796774.251    61584833.596       -2233.594          46.000  
R18  13564769.709    72409743.617         925.966          47.000    13564761.539    56318662.231         720.129          48.000  
R19  16003262.050    85606669.108        3894.486          33.000    16003250.551    66582941.918        3029.317          39.000  
E04  21109238.825   110929860.234        2877.757          39.000    21109239.435    84998218.615        2204.836          41.000  
E07  23242705.383   122141221.934       -2523.616          27.000    23242704.875    93588756.361       -1933.205          26.000  
E10  20413569.845   107274055.678        2698.176          40.000    20413568.386    82197001.849        2067.316          44.000  
E12  18637736.411    97942008.902        1887.972          42.000    18637729.654    75046496.194        1446.460          45.000  
E14  14696252.958    77229328.488        3440.326          41.000                                                                  
E19  18247668.709    95892199.970         744.550          40.000    18247663.322    73475849.746         570.701          46.000  
E20  20641742.079   108473156.908        -401.830          38.000                                                                  
E26  21399397.466   112454515.178       -2305.540          38.000    21399399.375    86166393.503       -1766.598          40.000  
J02  32244184.110   169444307.655          56.719          35.000    32244193.783   132034338.744          43.575          37.000  
J03  31638475.478   166261286.935         837.975          44.000                                                                  
J04  32838395.864   172566922.840        -290.680          43.000    32838387.695   134467697.112        -226.557          46.000  
J07  31518637.733   165631529.097         253.548          38.000    31518630.146   129063525.624         197.810          43.000  
C07  33887432.255   136450521.175       -1167.819          39.000    33887443.180   176460665.172       -1509.693          37.000  
C08  31510956.933   126881627.186         531.156          44.000    31510974.480   164085943.077         686.719          42.000  
C10  33484489.385   134828067.283       -1132.553          35.000    33484495.906   174362451.587       -1464.411          36.000  
C13  32337868.386   130211253.274         548.446          43.000    32337876.227   168391815.153         709.805          42.000  
C14  19570375.383    78801785.240       -1784.990          43.000    19570388.232   101908108.049       -2308.199          37.000  
C24                                                                  20517114.420   106838045.073        1402.518          37.000  
C27                                                                  16635381.869    86624835.700        1010.610          48.000  
C28                                                                  16750806.419    87225830.432       -1862.781          47.000  
> 2023 07 11 06 07 03.9810000  0 38                     
G05  15800893.879    83034363.119        1775.741          45.000    15800886.647    64702085.953        1383.657          41.000  
G06  16306718.926    85692426.639       -2237.197          43.000    16306715.666    66773330.797       -1742.988          42.000  
G07  17835886.497    93728411.862         219.928          43.000    17835878.808    73035102.699         171.357          37.000  
G09  18951877.134    99592856.218       -3210.837          37.000    18951871.645    77604863.576       -2502.053          35.000  
G11  14614948.891    76802150.421         223.241          46.000    14614940.261    59845834.191         173.993          49.000  
G13  15931549.878    83721004.116        3268.428          45.000                                                                  
G15  18798133.468    98784907.793        3877.036          37.000    18798131.988    76975246.912        3021.688          33.000  
G19  19625100.798   103130574.662       -3602.090          35.000                                                                  
G20  14921060.756    78410780.424         756.719          45.000                                                                  
G29  17926882.389    94206428.664        2190.376          39.000    17926875.422    73407577.917        1706.338          35.000  
G30  17261016.657    90707415.031        1735.474          43.000    17261013.084    70681180.201        1352.011          40.000  
R02  16148718.023    86172777.664       -2912.756          46.000    16148710.705    67023204.492       -2265.423          42.000  
R03  13894515.955    74378565.643        -343.823          48.000    13894502.441    57850012.333        -267.354          48.000  
R04  15728391.520    84224935.293        2608.354          45.000    15728379.671    65508198.539        2029.057          43.000  
R12  18566096.567    99176780.439        2373.503          43.000                                                                  
R17  14797320.285    79183457.126       -2872.345          47.000    14797310.956    61587067.439       -2234.094          46.000  
R18  13564596.288    72408818.195         924.904          47.000    13564588.154    56317942.448         719.501          48.000  
R19  16002533.966    85602774.740        3894.212          33.000    16002522.505    66579912.960        3028.782          39.000  
E04  21108691.331   110926982.767        2877.244          40.000    21108691.780    84996013.788        2204.696          41.000  
E07  23243185.821   122143745.128       -2523.074          27.000    23243185.028    93590689.749       -1933.343          26.000  
E10  20413056.384   107271357.769        2697.974          41.000    20413055.004    82194934.630        2067.010          45.000  
E12  18637377.306    97940121.334        1887.419          43.000    18637370.549    75045049.864        1446.212          46.000  
E14  14695598.443    77225889.066        3438.690          42.000                                                                  
E19  18247527.059    95891455.534         744.249          40.000    18247521.711    73475279.346         570.324          46.000  
E20  20641818.689   108473559.179        -402.563          39.000                                                                  
E26  21399836.168   112456820.936       -2305.517          39.000    21399838.227    86168160.252       -1766.789          41.000  
J02  32244173.347   169444251.118          56.315          36.000    32244183.007   132034294.642          44.302          37.000  
J03  31638316.066   166260449.234         837.632          44.000                                                                  
J04  32838451.202   172567213.608        -290.784          43.000    32838443.075   134467923.675        -226.378          46.000  
J07  31518589.378   165631275.414         253.435          37.000    31518581.891   129063327.930         197.591          43.000  
C07  33887722.296   136451688.771       -1167.776          39.000    33887733.135   176462175.156       -1509.576          37.000  
C08  31510825.054   126881096.174         531.055          44.000    31510842.559   164085256.354         686.775          42.000  
C10  33484770.600   134829199.735       -1131.946          35.000    33484777.179   174363916.143       -1464.721          36.000  
C13  32337732.104   130210704.573         548.567          43.000    32337739.960   168391105.569         709.721          42.000  
C14  19570818.655    78803570.280       -1784.939          43.000    19570831.604   101910416.516       -2308.383          37.000  
C24                                                                  20516845.091   106836642.779        1402.112          37.000  
C27                                                                  16635187.806    86623825.350        1010.109          48.000  
C28                                                                  16751164.204    87227693.624       -1863.360          47.000  
> 2023 07 11 06 07 04.9810000  0 38                     
G05  15800555.860    83032587.411        1775.607          45.000    15800548.737    64700702.287        1383.276          41.000  
G06  16307144.632    85694663.911       -2237.596          43.000    16307141.384    66775074.135       -1743.611          42.000  
G07  17835844.698    93728192.331         219.091          43.000    17835837.025    73034931.625         170.640          37.000  
G09  18952487.940    99596066.714       -3210.632          37.000    18952482.578    77607365.243       -2501.235          35.000  
G11  14614906.491    76801927.400         222.821          46.000    14614897.871    59845660.415         173.597          49.000  
G13  15930928.010    83717736.155        3267.651          45.000                                                                  
G15  18797395.650    98781030.610        3877.236          37.000    18797394.354    76972225.762        3021.061          33.000  
G19  19625786.107   103134176.461       -3601.956          35.000                                                                  
G20  14920916.724    78410023.747         756.555          45.000                                                                  
G29  17926465.662    94204238.726        2189.907          39.000    17926458.762    73405871.479        1705.844          35.000  
G30  17260686.411    90705679.866        1734.644          43.000    17260682.979    70679828.098        1352.010          40.000  
R02  16149263.962    86175690.492       -2912.837          47.000    16149256.548    67025470.030       -2265.685          42.000  
R03  13894580.178    74378909.649        -344.235          48.000    13894566.789    57850279.897        -267.736          48.000  
R04  15727904.548    84222327.041        2607.867          45.000    15727892.692    65506169.905        2028.517          43.000  
R12  18565652.164    99174406.919        2373.257          43.000                                                                  
R17  14797857.128    79186329.832       -2872.979          47.000    14797847.761    61589301.751       -2234.447          46.000  
R18  13564423.082    72407893.629         924.127          47.000    13564414.894    56317223.347         718.729          48.000  
R19  16001806.045    85598880.699        3894.059          32.000    16001794.556    66576884.296        3028.572          39.000  
E04  21108143.957   110924105.498        2876.912          40.000    21108144.154    84993809.126        2204.519          41.000  
E07  23243665.819   122146268.354       -2523.385          26.000    23243665.227    93592623.166       -1933.451          26.000  
E10  20412543.019   107268659.994        2697.849          41.000    20412541.706    82192867.490        2067.000          45.000  
E12  18637018.133    97938234.010        1886.998          43.000    18637011.361    75043603.736        1445.879          46.000  
E14  14694944.292    77222450.968        3437.230          42.000                                                                  
E19  18247385.473    95890711.537         743.673          40.000    18247380.154    73474709.266         569.869          47.000  
E20  20641895.288   108473961.795        -402.735          39.000                                                                  
E26  21400274.992   112459126.938       -2306.461          39.000    21400276.997    86169927.156       -1766.902          40.000  
J02  32244162.523   169444194.515          56.357          36.000    32244172.205   132034250.563          43.975          37.000  
J03  31638156.643   166259611.601         837.546          44.000                                                                  
J04  32838506.589   172567504.348        -290.795          43.000    32838498.332   134468150.225        -226.526          46.000  
J07  31518541.137   165631021.719         253.706          38.000    31518533.679   129063130.242         197.791          43.000  
C07  33888012.321   136452856.412       -1167.887          39.000    33888023.065   176463685.177       -1510.340          37.000  
C08  31510693.182   126880565.132         531.080          44.000    31510710.649   164084569.601         686.946          42.000  
C10  33485051.923   134830332.287       -1133.063          35.000    33485058.395   174365380.741       -1464.649          36.000  
C13  32337595.712   130210155.836         548.700          43.000    32337603.681   168390395.941         709.830          42.000  
C14  19571261.881    78805355.334       -1785.075          43.000    19571274.942   101912724.952       -2307.988          37.000  
C24                                                                  20516576.007   106835240.861        1401.834          38.000  
C27                                                                  16634993.951    86622815.551        1009.470          48.000  
C28                                                                  16751522.169    87229557.269       -1863.735          47.000  
> 2023 07 11 06 07 05.9810000  0 38                     
G05  15800217.938    83030811.810        1775.667          45.000    15800210.754    64699318.704        1383.552          41.000  
G06  16307570.318    85696901.468       -2237.498          43.000    16307567.202    66776817.686       -1743.831          42.000  
G07  17835802.907    93727973.184         219.170          43.000    17835795.413    73034760.884         170.498          37.000  
G09  18953098.889    99599277.229       -3210.772          37.000    18953093.512    77609866.929       -2501.238          35.000  
G11  14614864.216    76801704.843         222.188          46.000    14614855.515    59845486.985         173.256          49.000  
G13  15930306.159    83714468.498        3267.794          45.000                                                                  
G15  18796657.805    98777153.531        3876.913          37.000    18796656.717    76969204.664        3021.387          34.000  
G19  19626471.471   103137778.058       -3601.554          35.000                                                                  
G20  14920772.785    78409267.214         756.392          45.000                                                                  
G29  17926048.935    94202049.292        2189.299          39.000    17926042.131    73404165.429        1705.493          35.000  
G30  17260356.253    90703945.056        1734.458          43.000    17260352.874    70678476.322        1351.624          40.000  
R02  16149809.868    86178603.279       -2912.716          47.000    16149802.464    67027735.538       -2265.663          42.000  
R03  13894644.532    74379254.094        -344.583          48.000    13894631.182    57850547.805        -268.069          48.000  
R04  15727417.381    84219719.120        2607.705          45.000    15727405.700    65504141.540        2028.297          43.000  
R12  18565207.813    99172033.786        2372.915          43.000                                                                  
R17  14798394.139    79189203.105       -2873.625          47.000    14798384.675    61591536.529       -2235.080          46.000  
R18  13564250.039    72406969.847         923.579          47.000    13564241.869    56316504.846         718.217          48.000  
R19  16001078.056    85594987.028        3893.927          32.000    16001066.758    66573855.895        3028.236          39.000  
E04  21107596.347   110921228.299        2877.331          40.000    21107596.789    84991604.540        2204.771          41.000  
E07  23244146.036   122148791.467       -2522.942          25.000    23244145.509    93594556.623       -1934.080          25.000  
E10  20412029.513   107265962.218        2698.152          41.000    20412028.308    82190800.361        2067.403          44.000  
E12  18636659.028    97936346.828        1887.252          42.000    18636652.198    75042157.709        1446.164          46.000  
E14  14694290.168    77219014.094        3436.352          42.000                                                                  
E19  18247243.909    95889967.827         743.539          40.000    18247238.637    73474139.411         569.961          46.000  
E20  20641972.043   108474364.712        -402.988          39.000                                                                  
E26  21400713.834   112461432.997       -2306.065          39.000    21400715.873    86171694.146       -1766.913          40.000  
J02  32244151.796   169444137.781          56.555          36.000    32244161.453   132034206.347          44.440          37.000  
J03  31637997.273   166258773.948         837.640          44.000                                                                  
J04  32838561.946   172567794.957        -290.671          43.000    32838553.671   134468376.679        -226.362          46.000  
J07  31518492.796   165630767.939         254.011          38.000    31518485.402   129062932.509         197.954          43.000  
C07  33888302.223   136454023.959       -1167.499          39.000    33888313.129   176465195.104       -1509.973          37.000  
C08  31510561.366   126880033.986         531.376          45.000    31510578.676   164083882.723         687.000          42.000  
C10  33485333.142   134831464.751       -1132.381          35.000    33485339.782   174366845.300       -1464.406          36.000  
C13  32337459.408   130209606.989         548.959          43.000    32337467.321   168389686.162         709.667          42.000  
C14  19571705.156    78807140.301       -1784.837          43.000    19571718.273   101915033.355       -2308.500          37.000  
C24                                                                  20516306.870   106833839.231        1401.546          38.000  
C27                                                                  16634800.103    86621806.215        1009.195          48.000  
C28                                                                  16751880.114    87231421.284       -1864.243          47.000  
> 2023 07 11 06 07 06.9810000  0 38                     
G05  15799880.157    83029036.366        1775.465          45.000    15799872.747    64697935.234        1383.533          41.000  
G06  16307996.188    85699139.355       -2238.036          43.000    16307993.084    66778561.481       -1743.794          42.000  
G07  17835761.275    93727754.565         217.939          43.000    17835753.757    73034590.516         169.987          37.000  
G09  18953709.837    99602487.698       -3209.971          37.000    18953704.440    77612368.630       -2501.719          35.000  
G11  14614821.871    76801482.702         222.163          46.000    14614813.257    59845313.899         172.910          49.000  
G13  15929684.364    83711201.208        3267.097          45.000                                                                  
G15  18795920.138    98773276.517        3877.046          37.000    18795918.966    76966183.652        3020.062          34.000  
G19  19627156.824   103141379.459       -3601.587          35.000                                                                  
G20  14920628.750    78408510.841         756.287          45.000                                                                  
G29  17925632.307    94199860.368        2188.850          39.000    17925625.738    73402459.753        1705.727          35.000  
G30  17260026.208    90702210.639        1733.981          43.000    17260022.779    70677124.822        1351.258          40.000  
R02  16150355.708    86181516.079       -2913.023          47.000    16150348.257    67030001.032       -2265.435          42.000  
R03  13894708.941    74379598.975        -344.995          48.000    13894695.614    57850816.044        -268.329          48.000  
R04  15726930.449    84217111.585        2607.278          45.000    15726918.919    65502113.456        2027.953          42.000  
R12  18564763.666    99169661.088        2372.356          43.000                                                                  
R17  14798931.023    79192076.958       -2874.166          47.000    14798921.800    61593771.741       -2235.457          46.000  
R18  13564077.184    72406046.856         922.638          47.000    13564068.926    56315786.964         717.545          48.000  
R19  16000350.140    85591093.688        3893.591          32.000    16000338.910    66570827.719        3028.043          39.000  
E04  21107048.908   110918351.264        2876.892          40.000    21107049.307    84989400.056        2204.503          41.000  
E07  23244626.273   122151335.5153      -2522.680          23.000    23244625.587    93596489.764       -1933.079          25.000  
E10  20411516.206   107263264.503        2697.538          41.000    20411514.844    82188733.285        2067.031          45.000  
E12  18636299.945    97934459.846        1886.892          42.000    18636293.034    75040711.837        1445.949          46.000  
E14  14693636.295    77215578.473        3435.310          42.000                                                                  
E19  18247102.577    95889224.480         743.371          40.000    18247097.194    73473569.840         569.512          47.000  
E20  20642048.803   108474767.923        -403.303          39.000                                                                  
E26  21401152.569   112463739.189       -2305.979          39.000    21401154.785    86173461.219       -1766.988          41.000  
J02  32244140.970   169444080.907          57.079          35.000    32244150.616   132034162.042          44.567          37.000  
J03  31637837.886   166257936.293         837.608          44.000                                                                  
J04  32838617.392   172568085.459        -290.362          43.000    32838608.955   134468603.051        -226.411          46.000  
J07  31518444.525   165630514.157         253.579          38.000    31518437.047   129062734.750         197.585          43.000  
C07  33888592.141   136455191.476       -1167.400          39.000    33888603.119   176466704.956       -1509.972          37.000  
C08  31510429.405   126879502.749         531.332          44.000    31510446.730   164083195.707         687.104          42.000  
C10  33485614.382   134832597.202       -1132.458          35.000    33485621.113   174368309.797       -1464.404          36.000  
C13  32337323.105   130209058.033         549.161          43.000    32337330.960   168388976.241         710.212          42.000  
C14  19572148.393    78808925.210       -1784.950          43.000    19572161.595   101917341.617       -2308.433          38.000  
C24                                                                  20516037.810   106832437.910        1401.302          38.000  
C27                                                                  16634606.393    86620797.372        1008.614          48.000  
C28                                                                  16752238.127    87233285.654       -1864.479          47.000  
