     3.03           OBSERVATION DATA    M: Mixed            RINEX VERSION / TYPE
                                        20240121 141645 UTC PGM / RUN BY / DATE 
                                                            MARKER NAME         
                                                            MARKER NUMBER       
                                                            MARKER TYPE         
                                                            OBSERVER / AGENCY   
                                                            REC # / TYPE / VERS 
                                                            ANT # / TYPE        
 -3817690.2015  3562847.3632  3650172.6616                  APPROX POSITION XYZ 
        0.0000        0.0000        0.0000                  ANTENNA: DELTA H/E/N
G    8 C1C L1C D1C S1C C2L L2L D2L S2L                      SYS / # / OBS TYPES 
R    8 C1C L1C D1C S1C C2C L2C D2C S2C                      SYS / # / OBS TYPES 
E    8 C1C L1C D1C S1C C7Q L7Q D7Q S7Q                      SYS / # / OBS TYPES 
J    8 C1C L1C D1C S1C C2L L2L D2L S2L                      SYS / # / OBS TYPES 
C    8 C7I L7I D7I S7I C2I L2I D2I S2I                      SYS / # / OBS TYPES 
  2023    07    11    06    09   09.9810000     GPS         TIME OF FIRST OBS   
  2023    07    11    06    10   48.9810000     GPS         TIME OF LAST OBS    
G L1C                                                       SYS / PHASE SHIFT   
G L2L  0.00000                                              SYS / PHASE SHIFT   
R L1C                                                       SYS / PHASE SHIFT   
R L2C                                                       SYS / PHASE SHIFT   
E L1C  0.00000                                              SYS / PHASE SHIFT   
E L7Q  0.00000                                              SYS / PHASE SHIFT   
J L1C                                                       SYS / PHASE SHIFT   
J L2L  0.00000                                              SYS / PHASE SHIFT   
C L7I                                                       SYS / PHASE SHIFT   
C L2I                                                       SYS / PHASE SHIFT   
  8 R02 -4 R03  5 R04  6 R12 -1 R17  4 R18 -3 R19  3 R24  2 GLONASS SLOT / FRQ #
 C1C    0.000 C1P    0.000 C2C    0.000 C2P    0.000        GLONASS COD/PHS/BIS 
                                                            END OF HEADER       
> 2023 07 11 06 09 09.9810000  0 37                     
G05  15758595.795    82812088.454        1751.829          45.000    15758587.668    64528885.085        1364.950          40.000  
G06  16360903.556    85977163.806       -2283.106          43.000    16360899.537    66995203.434       -1779.113          42.000  
G07  17831379.194    93704728.939         155.632          43.000    17831371.969    73016648.801         120.988          38.000  
G09  19028929.199    99997774.805       -3217.028          36.000    19028925.581    77920384.457       -2506.637          35.000  
G11  14610350.731    76777985.383         159.858          47.000    14610341.904    59827004.230         124.486          49.000  
G13  15853795.232    83312408.324        3216.866          44.000                                                                  
G15  18705373.806    98297455.613        3859.320          35.000    18705374.670    76595414.835        3006.958          35.000  
G19  19711232.885   103583214.036       -3583.644          35.000                                                                  
G20  14903224.147    78317049.307         730.615          45.000                                                                  
G29  17875201.307    93934848.041        2119.921          41.000    17875195.623    73195956.705        1652.101          35.000  
G30  17220064.870    90492213.899        1679.876          43.000    17220060.985    70513491.467        1308.920          40.000  
R02  16217591.050    86540295.781       -2921.249          47.000    16217583.484    67309051.623       -2271.815          42.000  
R03  13903303.469    74425608.126        -403.228          48.000    13903291.249    57886600.970        -313.684          48.000  
R04  15667649.492    83899667.605        2553.976          46.000    15667638.558    65255213.078        1986.280          44.000  
R12  18510787.685    98881334.213        2315.169          43.000                                                                  
R17  14865855.213    79550196.504       -2948.827          48.000    14865844.702    61872308.763       -2293.672          45.000  
R18  13544004.598    72298895.739         819.083          48.000    13543995.750    56232447.172         637.199          48.000  
R19  15911360.880    85115063.215        3846.867          34.000    15911350.029    66200582.101        2991.621          39.000  
E04  21039953.855   110565768.800        2855.608          40.000    21039953.520    84719240.109        2187.718          40.000  
E10  20348500.089   106932106.562        2686.510          42.000    20348497.292    81934989.104        2058.493          45.000  
E12  18592466.030    97704113.692        1858.048          42.000    18592459.825    74864212.944        1423.679          47.000  
E14  14615123.210    76802993.949        3272.987          39.000                                                                  
E19  18230247.767    95800654.076         696.615          40.000    18230242.641    73405704.315         533.842          47.000  
E20  20651988.062   108527000.695        -446.165          39.000                                                                  
E26  21455375.862   112748680.110       -2326.986          39.000    21455377.734    86391791.701       -1783.144          40.000  
J02  32242697.619   169436502.511          65.906          35.000    32242708.540   132028256.874          51.244          36.000  
J03  31618297.704   166155249.697         831.751          44.000                                                                  
J04  32845335.717   172603389.027        -283.868          43.000    32845327.127   134496112.339        -221.179          46.000  
J07  31512494.618   165599245.762         253.905          37.000    31512486.914   129038369.787         198.155          43.000  
C07  33924235.385   136598708.967       -1166.273          39.000    33924247.092   176652305.326       -1508.372          37.000  
C08  31494085.554   126813693.136         538.419          45.000    31494102.321   163998089.254         696.353          42.000  
C10  33520238.427   134972009.691       -1134.501          37.000    33520245.029   174548601.546       -1467.940          36.000  
C13  32320438.930   130141072.646         556.135          43.000    32320445.218   168301056.059         719.186          40.000  
C14  19626612.816    79028229.302       -1781.436          43.000    19626625.488   102200950.467       -2303.588          38.000  
C24                                                                  20483458.782   106662790.334        1356.858          39.000  
C27                                                                  16611550.890    86500744.273         943.006          47.000  
C28                                                                  16796890.863    87465797.991       -1916.343          47.000  
> 2023 07 11 06 09 10.9810000  0 37                     
G05  15758262.410    82810336.276        1751.624          45.000    15758254.274    64527519.754        1364.863          41.000  
G06  16361337.982    85979446.530       -2283.365          44.000    16361334.042    66996982.182       -1779.310          42.000  
G07  17831349.653    93704573.244         154.693          43.000    17831342.359    73016527.458         120.688          37.000  
G09  19029541.288   100000991.530       -3217.722          36.000    19029537.783    77922890.979       -2506.620          35.000  
G11  14610320.371    76777825.517         159.253          47.000    14610311.489    59826879.660         123.968          49.000  
G13  15853183.080    83309191.350        3216.272          45.000                                                                  
G15  18704639.288    98293595.820        3859.206          35.000    18704640.060    76592407.230        3007.032          35.000  
G19  19711914.649   103586796.657       -3583.214          35.000                                                                  
G20  14903085.128    78316318.522         730.215          45.000                                                                  
G29  17874797.866    93932728.013        2118.981          41.000    17874792.225    73194304.738        1651.370          35.000  
G30  17219745.259    90490533.925        1679.350          43.000    17219741.262    70512182.401        1308.623          40.000  
R02  16218138.352    86543216.521       -2921.319          47.000    16218130.822    67311323.315       -2271.981          42.000  
R03  13903378.789    74426011.176        -403.757          48.000    13903366.598    57886914.453        -313.960          48.000  
R04  15667172.469    83897113.434        2553.615          46.000    15667161.558    65253226.510        1985.800          44.000  
R12  18510354.281    98879019.005        2314.480          43.000                                                                  
R17  14866406.297    79553145.393       -2949.773          48.000    14866395.798    61874602.334       -2294.237          45.000  
R18  13543851.217    72298076.596         818.318          48.000    13543842.380    56231810.072         636.378          48.000  
R19  15910641.733    85111216.665        3845.241          33.000    15910630.946    66197590.316        2991.051          39.000  
E04  21039410.486   110562912.898        2854.984          39.000    21039410.160    84717051.809        2187.671          40.000  
E10  20347988.697   106929419.732        2686.447          41.000    20347985.924    81932930.375        2058.272          45.000  
E12  18592112.397    97702255.354        1857.685          42.000    18592106.069    74862789.024        1423.384          46.000  
E14  14614500.517    76799721.388        3271.332          39.000                                                                  
E19  18230115.108    95799957.208         696.150          39.000    18230110.105    73405170.351         533.368          46.000  
E20  20652072.912   108527446.685        -446.737          38.000                                                                  
E26  21455818.679   112751007.032       -2327.489          38.000    21455820.592    86393574.639       -1783.288          40.000  
J02  32242684.919   169436436.105          65.933          35.000    32242695.866   132028205.127          51.611          36.000  
J03  31618139.433   166154417.659         831.595          45.000                                                                  
J04  32845389.635   172603672.527        -283.907          43.000    32845381.088   134496333.247        -221.335          46.000  
J07  31512446.133   165598991.119         254.187          37.000    31512438.505   129038171.375         198.041          43.000  
C07  33924524.952   136599875.001       -1166.384          39.000    33924536.690   176653813.285       -1508.550          37.000  
C08  31493951.739   126813154.291         538.547          45.000    31493968.434   163997392.412         696.349          41.000  
C10  33520520.150   134973144.059       -1134.794          37.000    33520526.747   174550068.535       -1467.778          36.000  
C13  32320300.766   130140516.124         556.107          43.000    32320307.013   168300336.335         719.344          41.000  
C14  19627055.086    79030010.259       -1781.370          43.000    19627067.847   102203253.645       -2303.570          38.000  
C24                                                                  20483198.147   106661433.314        1356.249          39.000  
C27                                                                  16611369.738    86499801.114         942.543          47.000  
C28                                                                  16797258.827    87467714.130       -1916.760          47.000  
> 2023 07 11 06 09 11.9810000  0 37                     
G05  15757929.031    82808584.383        1751.996          45.000    15757920.870    64526154.631        1365.431          41.000  
G06  16361772.453    85981729.725       -2283.309          43.000    16361768.556    66998761.295       -1779.268          42.000  
G07  17831320.060    93704418.137         154.969          43.000    17831312.750    73016406.582         121.116          38.000  
G09  19030153.421   100004208.386       -3216.691          35.000    19030150.048    77925397.645       -2506.598          35.000  
G11  14610290.109    76777666.256         159.264          47.000    14610281.169    59826755.557         124.157          49.000  
G13  15852571.085    83305974.894        3216.274          44.000                                                                  
G15  18703904.716    98289736.306        3859.541          35.000    18703905.581    76589399.786        3007.502          35.000  
G19  19712596.322   103590379.229       -3582.286          35.000                                                                  
G20  14902946.096    78315588.047         730.637          45.000                                                                  
G29  17874394.605    93930608.632        2119.270          41.000    17874388.965    73192653.290        1651.220          35.000  
G30  17219425.645    90488854.499        1679.413          43.000    17219421.654    70510873.754        1308.944          40.000  
R02  16218685.750    86546137.494       -2920.900          47.000    16218678.370    67313595.197       -2271.830          42.000  
R03  13903454.183    74426414.786        -403.656          48.000    13903441.957    57887228.373        -313.914          48.000  
R04  15666695.518    83894559.817        2553.605          45.000    15666684.759    65251240.362        1986.164          44.000  
R12  18509921.177    98876704.377        2314.361          43.000                                                                  
R17  14866957.519    79556095.008       -2949.692          48.000    14866947.011    61876896.481       -2294.391          45.000  
R18  13543697.807    72297258.373         818.130          48.000    13543689.037    56231173.678         636.214          48.000  
R19  15909922.762    85107370.580        3845.601          33.000    15909911.919    66194598.891        2991.754          39.000  
E04  21038867.118   110560057.229        2855.784          39.000    21038866.798    84714863.717        2188.188          39.000  
E10  20347477.439   106926733.098        2686.901          41.000    20347474.665    81930871.788        2058.632          45.000  
E12  18591758.908    97700397.351        1857.988          42.000    18591752.480    74861365.363        1423.645          46.000  
E14  14613878.102    76796450.242        3270.492          39.000                                                                  
E19  18229982.580    95799260.824         696.294          39.000    18229977.517    73404636.762         533.521          46.000  
E20  20652157.864   108527893.105        -446.627          38.000                                                                  
E26  21456261.512   112753334.198       -2327.154          38.000    21456263.427    86395357.794       -1782.899          40.000  
J02  32242672.256   169436369.704          66.750          34.000    32242683.306   132028153.424          51.683          36.000  
J03  31617981.124   166153585.771         832.172          45.000                                                                  
J04  32845443.560   172603956.070        -283.477          43.000    32845434.980   134496554.185        -220.713          46.000  
J07  31512397.708   165598736.582         255.073          37.000    31512390.127   129037973.034         198.511          43.000  
C07  33924814.506   136601041.104       -1165.670          39.000    33924826.283   176655321.306       -1507.840          37.000  
C08  31493817.908   126812615.470         538.959          45.000    31493834.620   163996695.590         697.149          42.000  
C10  33520801.869   134974278.525       -1134.332          37.000    33520808.530   174551535.635       -1467.188          36.000  
C13  32320162.545   130139959.599         556.916          43.000    32320168.762   168299616.663         719.853          41.000  
C14  19627497.372    79031791.264       -1780.593          43.000    19627510.212   102205556.889       -2302.883          38.000  
C24                                                                  20482937.642   106660076.738        1356.614          39.000  
C27                                                                  16611188.816    86498858.589         942.461          47.000  
C28                                                                  16797626.993    87469630.778       -1916.621          47.000  
> 2023 07 11 06 09 12.9810000  0 37                     
G05  15757595.634    82806832.882        1751.052          45.000    15757587.504    64524789.835        1364.476          41.000  
G06  16362207.026    85984013.459       -2284.170          43.000    16362203.098    67000540.832       -1780.037          42.000  
G07  17831290.611    93704263.726         153.909          43.000    17831283.423    73016286.283         119.845          37.000  
G09  19030765.636   100007425.484       -3217.763          35.000    19030762.239    77927904.453       -2507.334          35.000  
G11  14610259.945    76777507.682         157.960          47.000    14610251.037    59826631.993         123.149          49.000  
G13  15851959.168    83302759.011        3215.454          44.000                                                                  
G15  18703170.206    98285877.040        3858.763          35.000    18703171.273    76586392.592        3007.455          35.000  
G19  19713277.990   103593961.824       -3582.582          34.000                                                                  
G20  14902807.199    78314857.971         729.659          45.000                                                                  
G29  17873991.424    93928490.003        2118.061          41.000    17873985.816    73191002.398        1650.542          35.000  
G30  17219106.194    90487175.704        1678.120          43.000    17219102.261    70509565.602        1307.881          40.000  
R02  16219233.270    86549058.732       -2921.663          47.000    16219225.816    67315867.272       -2272.559          42.000  
R03  13903529.752    74426819.039        -404.727          48.000    13903517.490    57887542.788        -314.796          48.000  
R04  15666218.727    83892006.835        2552.377          46.000    15666208.047    65249254.697        1985.426          44.000  
R12  18509487.962    98874390.426        2313.410          43.000                                                                  
R17  14867508.783    79559045.460       -2951.042          48.000    14867498.413    61879191.270       -2295.272          45.000  
R18  13543544.715    72296441.187         816.452          48.000    13543536.013    56230538.080         635.050          48.000  
R19  15909204.007    85103525.003        3845.597          33.000    15909193.076    66191607.951        2990.626          39.000  
E04  21038323.828   110557201.925        2854.787          39.000    21038323.346    84712675.880        2187.656          40.000  
E10  20346966.216   106924046.737        2686.177          41.000    20346963.422    81928813.405        2058.101          45.000  
E12  18591405.364    97698539.749        1857.296          42.000    18591399.032    74859942.008        1423.116          47.000  
E14  14613255.932    76793180.599        3268.803          39.000                                                                  
E19  18229850.220    95798564.998         695.556          39.000    18229845.069    73404103.600         532.875          47.000  
E20  20652242.913   108528340.032        -447.352          38.000                                                                  
E26  21456704.464   112755661.705       -2327.698          38.000    21456706.443    86397141.214       -1783.720          40.000  
J02  32242659.704   169436303.447          66.093          34.000    32242670.665   132028101.789          51.264          36.000  
J03  31617822.838   166152754.111         831.514          45.000                                                                  
J04  32845497.704   172604239.731        -283.964          43.000    32845488.939   134496775.227        -221.318          46.000  
J07  31512349.289   165598482.219         253.881          37.000    31512341.665   129037774.829         197.887          43.000  
C07  33925104.200   136602207.338       -1166.045          39.000    33925115.945   176656829.517       -1508.371          37.000  
C08  31493684.178   126812076.723         538.593          45.000    31493700.870   163995998.864         696.586          42.000  
C10  33521083.708   134975413.133       -1134.683          37.000    33521090.252   174553002.923       -1467.421          37.000  
C13  32320024.320   130139403.180         556.083          43.000    32320030.520   168298897.067         719.232          41.000  
C14  19627939.705    79033572.388       -1781.290          43.000    19627952.626   102207860.260       -2303.549          38.000  
C24                                                                  20482677.184   106658720.739        1355.283          39.000  
C27                                                                  16611007.900    86497916.771         941.300          47.000  
C28                                                                  16797995.169    87471548.026       -1917.677          47.000  
> 2023 07 11 06 09 13.9810000  0 37                     
G05  15757262.360    82805081.419        1751.453          45.000    15757254.176    64523425.045        1364.862          40.000  
G06  16362641.704    85986297.416       -2283.873          43.000    16362637.720    67002320.523       -1779.742          42.000  
G07  17831261.244    93704109.679         153.993          43.000    17831254.175    73016166.244         120.028          37.000  
G09  19031377.738   100010642.444       -3216.411          35.000    19031374.292    77930411.191       -2506.608          35.000  
G11  14610229.810    76777349.469         158.150          47.000    14610220.915    59826508.717         123.156          49.000  
G13  15851347.258    83299543.423        3215.526          44.000                                                                  
G15  18702435.825    98282017.832        3859.417          35.000    18702436.882    76583385.430        3007.483          35.000  
G19  19713959.768   103597544.136       -3581.686          34.000                                                                  
G20  14902668.191    78314127.954         730.092          45.000                                                                  
G29  17873588.318    93926371.805        2118.081          41.000    17873582.672    73189351.848        1650.651          35.000  
G30  17218786.713    90485497.192        1678.565          43.000    17218782.795    70508257.697        1307.930          40.000  
R02  16219780.664    86551979.839       -2920.915          47.000    16219773.274    67318139.236       -2272.144          42.000  
R03  13903605.265    74427223.615        -404.576          48.000    13903593.027    57887857.459        -314.622          48.000  
R04  15665742.002    83889454.129        2552.737          46.000    15665731.497    65247269.278        1985.510          44.000  
R12  18509054.791    98872076.814        2313.674          43.000                                                                  
R17  14868060.160    79561996.351       -2950.945          48.000    14868049.870    61881486.408       -2295.251          45.000  
R18  13543391.818    72295624.723         816.311          48.000    13543382.989    56229903.059         634.881          48.000  
R19  15908485.116    85099679.738        3845.729          34.000    15908474.141    66188617.186        2990.862          39.000  
E04  21037780.421   110554346.657        2855.452          39.000    21037779.975    84710488.097        2187.964          39.000  
E10  20346455.137   106921360.342        2686.484          41.000    20346452.253    81926754.985        2058.506          45.000  
E12  18591051.682    97696682.267        1857.594          41.000    18591045.532    74858518.739        1423.382          46.000  
E14  14612633.952    76789912.158        3268.150          39.000                                                                  
E19  18229717.780    95797869.397         695.579          39.000    18229712.678    73403570.594         533.021          46.000  
E20  20652327.844   108528787.182        -447.095          38.000                                                                  
E26  21457147.395   112757989.266       -2327.601          38.000    21457149.322    86398924.638       -1783.174          40.000  
J02  32242647.001   169436236.960          66.859          34.000    32242657.997   132028049.972          52.361          36.000  
J03  31617664.509   166151922.365         831.828          44.000                                                                  
J04  32845551.665   172604523.198        -283.232          43.000    32845542.897   134496996.106        -220.659          46.000  
J07  31512300.950   165598227.717         254.835          37.000    31512293.215   129037576.514         198.379          43.000  
C07  33925393.920   136603373.460       -1165.693          39.000    33925405.461   176658337.589       -1507.914          37.000  
C08  31493550.362   126811537.804         538.878          45.000    31493566.994   163995301.925         697.128          42.000  
C10  33521365.395   134976547.631       -1134.289          37.000    33521372.189   174554470.120       -1467.046          37.000  
C13  32319886.155   130138846.577         556.712          43.000    32319892.284   168298177.236         720.322          40.000  
C14  19628381.955    79035353.366       -1780.808          43.000    19628395.027   102210163.451       -2303.019          38.000  
C24                                                                  20482416.862   106657364.945        1355.690          39.000  
C27                                                                  16610827.117    86496975.358         941.308          47.000  
C28                                                                  16798363.421    87473465.552       -1917.452          47.000  
> 2023 07 11 06 09 14.9810000  0 37                     
G05  15756929.168    82803330.169        1751.223          45.000    15756920.956    64522060.439        1364.803          41.000  
G06  16363076.428    85988581.776       -2284.620          43.000    16363072.391    67004100.531       -1780.174          42.000  
G07  17831232.053    93703956.176         153.327          43.000    17831224.932    73016046.629         119.550          37.000  
G09  19031989.885   100013859.519       -3217.155          36.000    19031986.440    77932917.997       -2506.711          35.000  
G11  14610199.748    76777191.805         157.410          47.000    14610190.967    59826385.856         122.663          49.000  
G13  15850735.350    83296328.274        3214.939          44.000                                                                  
G15  18701701.451    98278158.829        3858.640          35.000    18701702.438    76580378.409        3006.859          35.000  
G19  19714641.462   103601126.345       -3582.023          33.000                                                                  
G20  14902529.462    78313398.177         729.719          45.000                                                                  
G29  17873185.342    93924254.200        2117.156          41.000    17873179.641    73187701.764        1649.815          35.000  
G30  17218467.370    90483819.184        1677.801          43.000    17218463.451    70506950.166        1307.137          40.000  
R02  16220328.130    86554901.000       -2921.299          47.000    16220320.715    67320411.228       -2271.805          42.000  
R03  13903680.970    74427628.691        -405.444          48.000    13903668.705    57888172.517        -315.297          48.000  
R04  15665265.434    83886901.887        2552.150          46.000    15665254.936    65245284.205        1984.899          44.000  
R12  18508621.775    98869763.698        2312.971          43.000                                                                  
R17  14868611.712    79564947.833       -2951.813          48.000    14868601.532    61883781.999       -2295.838          45.000  
R18  13543239.095    72294809.156         815.111          48.000    13543230.272    56229268.730         633.899          48.000  
R19  15907766.182    85095834.880        3845.113          34.000    15907755.455    66185626.751        2990.202          39.000  
E04  21037237.157   110551491.603        2854.695          39.000    21037236.745    84708300.461        2187.242          40.000  
E10  20345943.959   106918674.066        2686.148          40.000    20345941.263    81924696.677        2058.208          45.000  
E12  18590698.416    97694825.043        1856.920          41.000    18590692.124    74857095.668        1422.932          47.000  
E14  14612012.193    76786645.085        3266.387          39.000                                                                  
E19  18229585.619    95797174.214         694.841          39.000    18229580.399    73403037.923         532.373          47.000  
E20  20652413.031   108529234.719        -447.892          38.000                                                                  
E26  21457590.396   112760317.007       -2328.110          38.000    21457592.439    86400708.233       -1783.695          40.000  
J02  32242634.274   169436170.427          66.833          34.000    32242645.300   132027998.131          51.864          36.000  
J03  31617506.171   166151090.695         831.544          44.000                                                                  
J04  32845605.577   172604806.648        -283.553          43.000    32845596.811   134497216.982        -220.831          46.000  
J07  31512252.551   165597973.259         254.033          37.000    31512244.869   129037378.215         198.337          43.000  
C07  33925683.529   136604539.617       -1166.406          39.000    33925695.041   176659845.664       -1508.343          37.000  
C08  31493416.574   126810998.853         538.952          45.000    31493433.224   163994604.950         696.940          41.000  
C10  33521647.167   134977682.209       -1134.585          37.000    33521654.019   174555937.347       -1467.172          37.000  
C13  32319747.884   130138289.925         556.699          43.000    32319754.103   168297457.401         719.386          40.000  
C14  19628824.256    79037134.330       -1780.866          44.000    19628837.360   102212466.662       -2303.627          38.000  
C24                                                                  20482156.531   106656009.548        1354.869          38.000  
C27                                                                  16610646.387    86496034.512         940.608          47.000  
C28                                                                  16798731.719    87475383.545       -1918.378          47.000  
> 2023 07 11 06 09 15.9810000  0 37                     
G05  15756596.061    82801579.285        1750.736          45.000    15756587.708    64520696.135        1363.961          41.000  
G06  16363511.243    85990866.643       -2285.042          43.000    16363507.098    67005880.948       -1780.490          42.000  
G07  17831202.941    93703803.340         152.655          43.000    17831195.851    73015927.546         118.877          37.000  
G09  19032602.128   100017076.776       -3217.029          36.000    19032598.644    77935424.973       -2507.241          35.000  
G11  14610169.739    76777034.806         156.524          47.000    14610161.117    59826263.513         122.129          49.000  
G13  15850123.658    83293113.697        3214.420          44.000                                                                  
G15  18700967.064    98274300.068        3858.782          35.000    18700968.127    76577371.629        3006.791          35.000  
G19  19715323.179   103604708.513       -3581.503          33.000                                                                  
G20  14902390.509    78312668.775         728.969          45.000                                                                  
G29  17872782.467    93922137.307        2116.416          41.000    17872776.880    73186052.228        1649.433          35.000  
G30  17218148.187    90482141.777        1676.865          43.000    17218144.241    70505643.071        1307.032          40.000  
R02  16220875.601    86557822.362       -2921.491          47.000    16220868.171    67322683.411       -2272.248          42.000  
R03  13903756.891    74428034.389        -406.027          48.000    13903744.452    57888488.060        -315.803          48.000  
R04  15664788.979    83884350.226        2551.311          46.000    15664778.494    65243299.585        1984.354          44.000  
R12  18508188.857    98867451.222        2312.215          44.000                                                                  
R17  14869163.405    79567900.057       -2952.583          48.000    14869153.392    61886078.172       -2296.523          45.000  
R18  13543086.472    72293994.570         814.099          48.000    13543077.726    56228635.156         633.143          48.000  
R19  15907047.514    85091990.587        3844.206          34.000    15907036.769    66182636.749        2989.679          39.000  
E04  21036694.051   110548636.879        2854.582          39.000    21036693.489    84706113.073        2187.275          40.000  
E10  20345432.802   106915988.025        2685.945          41.000    20345430.086    81922638.550        2058.009          45.000  
E12  18590345.072    97692968.215        1856.704          41.000    18590338.849    74855672.910        1422.604          46.000  
E14  14611390.805    76783379.499        3264.976          39.000                                                                  
E19  18229453.388    95796479.557         694.444          39.000    18229448.236    73402505.662         532.158          46.000  
E20  20652498.270   108529682.743        -448.222          38.000                                                                  
E26  21458033.454   112762645.057       -2327.907          38.000    21458035.275    86402492.077       -1783.966          40.000  
J02  32242621.607   169436103.993          66.427          34.000    32242632.637   132027946.358          51.731          36.000  
J03  31617348.012   166150259.227         831.418          45.000                                                                  
J04  32845659.450   172605090.199        -283.434          43.000    32845650.775   134497437.934        -221.015          46.000  
J07  31512204.149   165597718.910         254.524          37.000    31512196.558   129037180.043         198.025          43.000  
C07  33925973.198   136605705.864       -1166.669          39.000    33925984.683   176661353.847       -1507.808          37.000  
C08  31493282.729   126810459.998         538.740          45.000    31493299.422   163993908.089         696.611          42.000  
C10  33521929.041   134978816.915       -1134.663          37.000    33521935.901   174557404.795       -1467.511          37.000  
C13  32319609.708   130137733.377         556.449          43.000    32319615.840   168296737.628         719.711          41.000  
C14  19629266.671    79038915.395       -1781.146          44.000    19629279.674   102214769.966       -2303.462          38.000  
C24                                                                  20481896.441   106654654.664        1354.623          39.000  
C27                                                                  16610465.793    86495094.357         939.747          47.000  
C28                                                                  16799100.205    87477302.081       -1918.690          47.000  
> 2023 07 11 06 09 16.9810000  0 37                     
G05  15756262.938    82799828.709        1750.540          45.000    15756254.621    64519332.044        1364.050          41.000  
G06  16363946.176    85993152.015       -2285.629          43.000    16363941.995    67007661.757       -1780.914          42.000  
G07  17831173.885    93703651.149         152.339          43.000    17831166.875    73015808.951         118.839          37.000  
G09  19033214.386   100020294.248       -3217.769          36.000    19033210.835    77937932.082       -2507.228          35.000  
G11  14610140.045    76776878.442         156.004          47.000    14610131.298    59826141.678         121.601          49.000  
G13  15849512.071    83289899.676        3213.818          44.000                                                                  
G15  18700232.815    98270441.616        3858.727          35.000    18700233.822    76574365.037        3006.740          35.000  
G19  19716004.835   103608290.701       -3581.653          32.000                                                                  
G20  14902251.742    78311939.697         728.989          45.000                                                                  
G29  17872379.858    93920021.106        2115.811          41.000    17872374.148    73184403.267        1648.406          35.000  
G30  17217828.970    90480464.946        1676.577          43.000    17217825.136    70504336.461        1306.555          40.000  
R02  16221423.098    86560743.976       -2921.755          47.000    16221415.732    67324955.774       -2272.478          42.000  
R03  13903832.834    74428440.679        -406.440          48.000    13903820.405    57888804.067        -316.217          48.000  
R04  15664312.694    83881799.133        2550.897          46.000    15664302.117    65241315.408        1983.761          44.000  
R12  18507756.036    98865139.339        2311.681          44.000                                                                  
R17  14869715.165    79570853.056       -2953.268          48.000    14869705.205    61888374.945       -2297.024          45.000  
R18  13542934.121    72293180.932         813.273          48.000    13542925.399    56228002.330         632.482          48.000  
R19  15906328.863    85088146.847        3843.653          34.000    15906318.234    66179647.162        2989.326          39.000  
E04  21036150.891   110545782.484        2854.203          40.000    21036150.245    84703925.938        2187.118          40.000  
E10  20344921.693   106913302.231        2685.788          41.000    20344918.937    81920580.598        2057.993          45.000  
E12  18589991.853    97691111.750        1856.325          42.000    18589985.552    74854250.428        1422.322          46.000  
E14  14610769.594    76780115.377        3263.525          40.000                                                                  
E19  18229321.150    95795785.440         694.035          40.000    18229316.187    73401973.799         531.805          46.000  
E20  20652583.697   108530131.255        -448.631          39.000                                                                  
E26  21458476.568   112764973.438       -2328.427          38.000    21458478.232    86404276.142       -1784.279          40.000  
J02  32242609.002   169436037.608          66.308          34.000    32242620.056   132027894.645          51.405          36.000  
J03  31617189.828   166149427.945         831.403          45.000                                                                  
J04  32845713.378   172605373.844        -283.800          43.000    32845704.807   134497658.945        -221.060          46.000  
J07  31512155.719   165597464.712         254.370          37.000    31512148.076   129036981.967         198.070          43.000  
C07  33926262.792   136606872.167       -1166.193          39.000    33926274.205   176662862.184       -1508.181          37.000  
C08  31493148.927   126809921.158         538.793          45.000    31493165.575   163993211.249         696.739          42.000  
C10  33522210.863   134979951.739       -1134.786          37.000    33522217.686   174558872.375       -1467.639          37.000  
C13  32319471.509   130137176.861         556.647          43.000    32319477.672   168296017.932         719.794          41.000  
C14  19629708.942    79040696.527       -1781.262          44.000    19629721.939   102217073.353       -2303.427          38.000  
C24                                                                  20481636.262   106653300.285        1354.514          39.000  
C27                                                                  16610285.314    86494154.862         939.147          47.000  
C28                                                                  16799468.800    87479221.181       -1919.285          47.000  
> 2023 07 11 06 09 17.9810000  0 37                     
G05  15755929.787    82798078.460        1750.178          45.000    15755921.645    64517968.219        1363.372          41.000  
G06  16364381.134    85995437.866       -2285.950          43.000    16364377.074    67009442.933       -1781.335          42.000  
G07  17831145.112    93703499.607         151.354          43.000    17831138.018    73015690.873         118.186          37.000  
G09  19033826.736   100023511.888       -3218.142          36.000    19033823.144    77940439.321       -2507.282          35.000  
G11  14610110.471    76776722.715         155.348          47.000    14610101.560    59826020.328         121.216          49.000  
G13  15848900.445    83286686.191        3213.420          44.000                                                                  
G15  18699498.617    98266583.469        3857.861          35.000    18699499.656    76571358.688        3006.460          35.000  
G19  19716686.409   103611872.849       -3581.803          31.000                                                                  
G20  14902113.096    78311210.968         728.606          45.000                                                                  
G29  17871977.286    93917905.590        2115.165          41.000    17871971.580    73182754.811        1648.527          35.000  
G30  17217509.927    90478788.692        1676.055          43.000    17217506.216    70503030.288        1306.237          40.000  
R02  16221970.677    86563665.815       -2921.822          47.000    16221963.406    67327228.309       -2272.576          42.000  
R03  13903908.852    74428847.599        -407.251          48.000    13903896.457    57889120.552        -316.660          48.000  
R04  15663836.269    83879248.612        2550.408          46.000    15663825.833    65239331.666        1983.654          44.000  
R12  18507323.379    98862828.081        2310.971          43.000                                                                  
R17  14870267.152    79573806.810       -2954.109          48.000    14870257.183    61890672.298       -2297.509          45.000  
R18  13542781.865    72292368.291         812.189          48.000    13542773.055    56227370.271         631.714          48.000  
R19  15905610.463    85084303.615        3843.183          34.000    15905599.676    66176657.982        2989.114          39.000  
E04  21035607.813   110542928.385        2853.839          40.000    21035607.118    84701739.041        2186.690          40.000  
E10  20344410.599   106910616.649        2685.532          41.000    20344407.731    81918522.832        2057.641          45.000  
E12  18589638.626    97689255.652        1855.914          42.000    18589632.366    74852828.222        1421.948          46.000  
E14  14610148.809    76776852.721        3261.842          40.000                                                                  
E19  18229189.260    95795091.785         693.535          39.000    18229184.148    73401442.310         531.348          46.000  
E20  20652669.053   108530580.238        -449.131          39.000                                                                  
E26  21458919.796   112767302.088       -2328.389          39.000    21458921.397    86406060.442       -1784.282          40.000  
J02  32242596.470   169435971.283          66.147          34.000    32242607.511   132027842.932          52.072          36.000  
J03  31617031.707   166148596.838         831.109          45.000                                                                  
J04  32845767.371   172605657.552        -283.796          43.000    32845758.787   134497880.016        -221.045          46.000  
J07  31512107.293   165597210.646         254.186          37.000    31512099.701   129036783.996         197.853          43.000  
C07  33926552.452   136608038.599       -1166.575          39.000    33926563.990   176664370.657       -1509.032          37.000  
C08  31493015.065   126809382.351         538.841          45.000    31493031.812   163992514.446         696.770          41.000  
C10  33522492.660   134981086.663       -1134.999          37.000    33522499.518   174560340.070       -1467.725          36.000  
C13  32319333.254   130136620.375         556.522          43.000    32319339.343   168295298.283         719.745          41.000  
C14  19630151.366    79042477.720       -1781.194          44.000    19630164.301   102219376.856       -2303.640          38.000  
C24                                                                  20481376.314   106651946.399        1353.907          39.000  
C27                                                                  16610105.135    86493216.025         938.499          47.000  
C28                                                                  16799837.540    87481140.824       -1919.870          47.000  
> 2023 07 11 06 09 18.9810000  0 37                     
G05  15755596.800    82796328.401        1749.962          45.000    15755588.762    64516604.533        1363.508          41.000  
G06  16364816.135    85997724.121       -2286.583          43.000    16364812.041    67011224.440       -1782.001          42.000  
G07  17831116.341    93703348.608         150.578          43.000    17831109.173    73015573.204         117.523          37.000  
G09  19034439.114   100026729.547       -3217.509          36.000    19034435.422    77942946.594       -2507.009          35.000  
G11  14610081.015    76776567.510         154.948          47.000    14610072.193    59825899.393         120.739          49.000  
G13  15848289.036    83283473.148        3212.606          44.000                                                                  
G15  18698764.449    98262725.458        3857.785          35.000    18698765.501    76568352.451        3006.199          35.000  
G19  19717368.103   103615454.851       -3581.147          31.000                                                                  
G20  14901974.591    78310482.475         728.368          45.000                                                                  
G29  17871574.904    93915790.667        2114.746          41.000    17871569.130    73181106.830        1647.668          35.000  
G30  17217191.126    90477112.909        1675.326          43.000    17217187.249    70501724.494        1305.500          40.000  
R02  16222518.388    86566587.730       -2922.105          47.000    16222511.007    67329500.908       -2272.733          42.000  
R03  13903984.953    74429255.002        -407.677          48.000    13903972.492    57889437.432        -317.208          48.000  
R04  15663360.108    83876698.538        2549.940          46.000    15663349.677    65237348.280        1983.339          44.000  
R12  18506890.851    98860517.354        2310.232          43.000                                                                  
R17  14870819.178    79576761.167       -2954.701          48.000    14870809.314    61892970.129       -2298.060          45.000  
R18  13542629.823    72291556.534         811.302          48.000    13542620.957    56226738.908         631.013          48.000  
R19  15904892.092    85080460.797        3842.698          34.000    15904881.274    66173669.136        2988.536          39.000  
E04  21035064.688   110540074.447        2853.877          40.000    21035064.119    84699552.262        2186.724          39.000  
E10  20343899.653   106907931.198        2685.189          41.000    20343896.845    81916465.135        2057.730          45.000  
E12  18589285.544    97687399.814        1855.713          42.000    18589279.224    74851406.218        1421.889          46.000  
E14  14609528.155    76773591.406        3260.788          40.000                                                                  
E19  18229057.397    95794398.559         693.077          40.000    18229052.279    73400911.132         530.919          46.000  
E20  20652754.539   108531029.587        -449.589          39.000                                                                  
E26  21459363.068   112769630.977       -2329.060          39.000    21459364.715    86407844.884       -1784.564          40.000  
J02  32242583.760   169435904.885          66.429          34.000    32242594.926   132027791.216          51.679          36.000  
J03  31616873.450   166147765.807         830.856          45.000                                                                  
J04  32845821.442   172605941.214        -283.593          43.000    32845812.800   134498101.052        -220.941          46.000  
J07  31512058.944   165596956.582         254.098          37.000    31512051.287   129036586.027         197.912          43.000  
C07  33926842.211   136609205.018       -1166.133          39.000    33926853.642   176665879.065       -1508.187          37.000  
C08  31492881.199   126808843.485         538.867          45.000    31492897.989   163991817.586         696.646          41.000  
C10  33522774.573   134982221.626       -1135.142          38.000    33522781.481   174561807.819       -1467.474          37.000  
C13  32319195.024   130136063.844         556.597          43.000    32319200.982   168294578.565         719.752          41.000  
C14  19630593.762    79044258.906       -1781.267          44.000    19630606.575   102221680.289       -2303.034          38.000  
C24                                                                  20481116.436   106650592.903        1353.386          39.000  
C27                                                                  16609924.859    86492277.755         937.952          47.000  
C28                                                                  16800206.337    87483060.903       -1920.349          47.000  
> 2023 07 11 06 09 19.9810000  0 37                     
G05  15755263.859    82794578.654        1749.287          45.000    15755255.806    64515241.082        1363.185          41.000  
G06  16365251.167    86000010.814       -2287.447          43.000    16365247.095    67013006.250       -1782.247          42.000  
G07  17831087.820    93703198.183         149.961          43.000    17831080.478    73015456.013         116.740          37.000  
G09  19035051.534   100029947.370       -3217.764          36.000    19035047.695    77945454.019       -2508.091          35.000  
G11  14610051.577    76776412.916         153.948          47.000    14610042.898    59825778.922         119.983          49.000  
G13  15847677.692    83280260.597        3211.924          44.000                                                                  
G15  18698030.308    98258867.685        3857.629          36.000    18698031.286    76565346.394        3006.165          35.000  
G19  19718049.650   103619036.789       -3582.142          31.000                                                                  
G20  14901836.075    78309754.284         727.781          45.000                                                                  
G29  17871172.552    93913676.393        2113.707          41.000    17871166.818    73179459.308        1647.486          35.000  
G30  17216872.320    90475437.653        1674.729          43.000    17216868.494    70500419.110        1305.070          40.000  
R02  16223065.904    86569509.753       -2922.258          47.000    16223058.628    67331773.595       -2272.887          42.000  
R03  13904061.184    74429662.952        -408.440          48.000    13904048.583    57889754.723        -317.656          48.000  
R04  15662883.919    83874149.005        2548.934          46.000    15662873.605    65235365.303        1982.515          44.000  
R12  18506458.440    98858207.152        2309.705          43.000                                                                  
R17  14871371.465    79579716.201       -2955.612          48.000    14871361.554    61895268.492       -2298.985          45.000  
R18  13542477.935    72290745.736         810.073          48.000    13542469.033    56226108.283         630.092          48.000  
R19  15904173.755    85076618.425        3842.276          34.000    15904162.918    66170680.623        2988.196          39.000  
E04  21034521.688   110537220.805        2853.216          40.000    21034521.063    84697365.707        2186.123          40.000  
E10  20343388.511   106905245.908        2685.000          41.000    20343385.835    81914407.584        2057.315          45.000  
E12  18588932.474    97685544.303        1855.073          42.000    18588926.050    74849984.457        1421.435          46.000  
E14  14608907.938    76770331.513        3258.874          40.000                                                                  
E19  18228925.526    95793705.762         692.528          39.000    18228920.415    73400380.294         530.403          46.000  
E20  20652840.165   108531479.374        -450.456          39.000                                                                  
E26  21459806.322   112771960.062       -2329.193          39.000    21459807.726    86409629.517       -1784.960          40.000  
J02  32242571.090   169435838.521          66.072          34.000    32242582.319   132027739.492          51.539          36.000  
J03  31616715.291   166146934.911         830.473          44.000                                                                  
J04  32845875.395   172606224.922        -283.833          43.000    32845866.839   134498322.130        -221.341          46.000  
J07  31512010.628   165596702.615         253.811          37.000    31512002.872   129036388.131         197.483          43.000  
C07  33927131.918   136610371.516       -1166.817          39.000    33927143.337   176667387.619       -1509.057          37.000  
C08  31492747.378   126808304.629         538.510          45.000    31492764.159   163991120.716         696.530          42.000  
C10  33523056.497   134983356.680       -1135.263          37.000    33523063.494   174563275.736       -1468.331          37.000  
C13  32319056.882   130135507.321         556.312          43.000    32319062.880   168293858.859         719.340          41.000  
C14  19631036.187    79046040.124       -1781.428          44.000    19631048.881   102223983.822       -2303.758          38.000  
C24                                                                  20480856.637   106649239.866        1352.449          39.000  
C27                                                                  16609744.922    86491340.100         937.040          47.000  
C28                                                                  16800575.237    87484981.484       -1921.109          47.000  
> 2023 07 11 06 09 20.9810000  0 37                     
G05  15754931.079    82792828.999        1749.337          45.000    15754922.905    64513877.711        1363.375          41.000  
G06  16365686.278    86002297.758       -2287.265          43.000    16365682.220    67014788.300       -1782.460          42.000  
G07  17831059.213    93703048.184         149.825          42.000    17831051.980    73015339.123         116.607          37.000  
G09  19035663.889   100033165.153       -3217.939          36.000    19035659.927    77947961.370       -2507.969          35.000  
G11  14610022.301    76776258.718         153.865          47.000    14610013.454    59825658.769         119.966          49.000  
G13  15847066.371    83277048.370        3211.765          44.000                                                                  
G15  18697296.142    98255009.971        3856.964          36.000    18697297.110    76562340.407        3005.795          35.000  
G19  19718731.217   103622618.466       -3581.390          31.000                                                                  
G20  14901697.474    78309026.195         727.974          45.000                                                                  
G29  17870770.333    93911562.577        2113.402          41.000    17870764.586    73177812.204        1646.795          35.000  
G30  17216553.593    90473762.755        1674.516          43.000    17216549.723    70499113.984        1305.249          40.000  
R02  16223613.487    86572431.728       -2922.211          47.000    16223606.264    67334046.237       -2272.606          42.000  
R03  13904137.505    74430071.256        -408.618          48.000    13904124.819    57890072.290        -317.759          48.000  
R04  15662407.790    83871599.802        2548.716          46.000    15662397.574    65233382.594        1982.355          44.000  
R12  18506026.025    98855897.328        2309.423          43.000                                                                  
R17  14871923.770    79582671.724       -2955.835          48.000    14871913.857    61897567.224       -2298.919          45.000  
R18  13542326.177    72289935.658         809.533          48.000    13542317.429    56225478.226         629.578          48.000  
R19  15903455.457    85072776.409        3841.367          34.000    15903444.645    66167692.364        2988.000          39.000  
E04  21033978.572   110534367.237        2853.281          40.000    21033978.079    84695179.215        2186.352          40.000  
E10  20342877.395   106902560.623        2685.069          41.000    20342874.937    81912350.039        2057.386          45.000  
E12  18588579.383    97683688.942        1855.074          42.000    18588572.918    74848562.816        1421.525          46.000  
E14  14608287.809    76767072.858        3257.770          40.000                                                                  
E19  18228793.680    95793013.281         692.289          40.000    18228788.649    73399849.686         530.324          46.000  
E20  20652925.791   108531929.394        -450.346          39.000                                                                  
E26  21460249.408   112774289.264       -2329.363          39.000    21460250.964    86411414.211       -1784.793          40.000  
J02  32242558.485   169435771.977          66.584          35.000    32242569.723   132027687.669          51.362          36.000  
J03  31616557.122   166146103.970         830.734          44.000                                                                  
J04  32845929.292   172606508.488        -283.709          43.000    32845920.761   134498543.084        -221.033          46.000  
J07  31511962.266   165596448.545         253.908          37.000    31511954.543   129036190.146         197.899          43.000  
C07  33927421.509   136611537.900       -1166.615          39.000    33927432.944   176668896.034       -1508.500          37.000  
C08  31492613.467   126807765.654         538.701          45.000    31492630.359   163990423.704         696.936          42.000  
C10  33523338.333   134984491.646       -1134.916          38.000    33523345.301   174564743.507       -1467.848          37.000  
C13  32318918.661   130134950.676         556.642          43.000    32318924.605   168293138.994         719.762          41.000  
C14  19631478.462    79047821.247       -1781.375          44.000    19631491.346   102226287.203       -2303.700          38.000  
C24                                                                  20480596.749   106647887.087        1352.497          39.000  
C27                                                                  16609565.015    86490402.883         936.898          47.000  
C28                                                                  16800944.044    87486902.380       -1921.269          47.000  
> 2023 07 11 06 09 21.9810000  0 37                     
G05  15754598.165    82791079.520        1749.279          45.000    15754590.020    64512514.507        1362.858          41.000  
G06  16366121.641    86004585.071       -2287.651          43.000    16366117.537    67016570.618       -1782.618          42.000  
G07  17831030.802    93702898.706         148.871          43.000    17831023.589    73015222.631         116.176          37.000  
G09  19036276.202   100036382.973       -3218.010          36.000    19036272.495    77950468.759       -2507.805          35.000  
G11  14609993.060    76776105.026         153.398          47.000    14609984.304    59825539.014         119.461          49.000  
G13  15846455.264    83273836.525        3211.600          44.000                                                                  
G15  18696562.071    98251152.387        3857.275          36.000    18696563.065    76559334.489        3005.744          35.000  
G19  19719412.656   103626200.026       -3581.890          31.000                                                                  
G20  14901558.973    78308298.317         727.696          46.000                                                                  
G29  17870368.240    93909449.336        2112.765          41.000    17870362.406    73176165.512        1646.453          35.000  
G30  17216234.912    90472088.291        1674.119          43.000    17216231.094    70497809.222        1304.803          40.000  
R02  16224161.088    86575353.750       -2922.253          47.000    16224153.822    67336318.931       -2272.973          42.000  
R03  13904213.948    74430480.011        -409.127          48.000    13904201.185    57890390.214        -318.253          48.000  
R04  15661931.832    83869051.039        2548.360          46.000    15661921.678    65231400.236        1981.968          44.000  
R12  18505593.681    98853587.962        2308.977          43.000                                                                  
R17  14872476.190    79585627.836       -2956.588          48.000    14872466.126    61899866.415       -2299.489          45.000  
R18  13542174.515    72289126.373         808.804          48.000    13542165.854    56224848.786         629.069          48.000  
R19  15902737.336    85068934.713        3841.549          34.000    15902726.513    66164704.413        2987.416          39.000  
E04  21033435.466   110531513.829        2853.121          39.000    21033435.009    84692992.834        2186.278          40.000  
E10  20342366.425   106899875.438        2685.146          41.000    20342363.957    81910292.550        2057.376          46.000  
E12  18588226.297    97681833.803        1854.998          41.000    18588219.862    74847141.348        1421.254          47.000  
E14  14607667.942    76763815.518        3256.686          39.000                                                                  
E19  18228662.059    95792321.151         691.946          39.000    18228656.934    73399319.356         530.114          47.000  
E20  20653011.546   108532379.766        -450.574          38.000                                                                  
E26  21460692.618   112776618.610       -2329.371          38.000    21460694.351    86413199.032       -1785.073          40.000  
J02  32242545.853   169435705.385          66.422          35.000    32242556.957   132027635.738          51.767          36.000  
J03  31616399.028   166145273.054         830.817          44.000                                                                  
J04  32845983.241   172606791.974        -283.516          43.000    32845974.671   134498763.989        -220.917          46.000  
J07  31511913.891   165596194.453         254.157          38.000    31511906.255   129035992.169         197.785          43.000  
C07  33927711.237   136612704.297       -1166.538          39.000    33927722.586   176670404.415       -1508.330          37.000  
C08  31492479.605   126807226.626         538.846          45.000    31492496.398   163989726.621         696.957          41.000  
C10  33523620.219   134985626.660       -1135.390          38.000    33523626.954   174566211.313       -1467.726          36.000  
C13  32318780.383   130134393.950         556.727          43.000    32318786.341   168292419.025         719.627          41.000  
C14  19631920.813    79049602.318       -1781.179          44.000    19631933.749   102228590.531       -2303.352          38.000  
C24                                                                  20480337.026   106646534.653        1352.255          39.000  
C27                                                                  16609385.171    86489466.199         936.208          47.000  
C28                                                                  16801312.951    87488823.689       -1921.555          47.000  
> 2023 07 11 06 09 22.9810000  0 37                     
G05  15754265.348    82789330.349        1749.348          45.000    15754257.176    64511151.512        1363.020          41.000  
G06  16366556.949    86006872.852       -2287.653          43.000    16366552.968    67018353.293       -1782.535          42.000  
G07  17831002.520    93702749.842         148.729          42.000    17830995.226    73015106.645         116.077          37.000  
G09  19036888.488   100039600.945       -3217.498          36.000    19036884.989    77952976.243       -2507.223          35.000  
G11  14609963.928    76775951.949         153.102          47.000    14609955.108    59825419.736         119.269          49.000  
G13  15845844.005    83270625.233        3211.162          44.000                                                                  
G15  18695828.100    98247295.073        3856.852          35.000    18695829.095    76556328.782        3005.623          35.000  
G19  19720094.119   103629781.484       -3581.201          32.000                                                                  
G20  14901420.502    78307570.769         727.482          46.000                                                                  
G29  17869966.184    93907336.752        2112.488          41.000    17869960.375    73174519.350        1646.143          35.000  
G30  17215916.442    90470414.385        1673.866          43.000    17215912.573    70496504.877        1304.603          40.000  
R02  16224708.707    86578275.964       -2922.098          47.000    16224701.459    67338591.748       -2272.430          42.000  
R03  13904290.408    74430889.347        -409.371          48.000    13904277.690    57890708.587        -318.371          48.000  
R04  15661455.968    83866502.822        2548.367          46.000    15661445.831    65229418.292        1982.003          44.000  
R12  18505161.518    98851279.192        2308.669          43.000                                                                  
R17  14873028.754    79588584.670       -2956.916          48.000    14873018.599    61902166.180       -2299.861          45.000  
R18  13542023.067    72288318.071         808.063          48.000    13542014.409    56224220.098         628.564          48.000  
R19  15902019.201    85065093.522        3841.504          34.000    15902008.465    66161716.823        2987.665          39.000  
E04  21032892.460   110528660.702        2853.264          39.000    21032892.056    84690806.695        2186.275          40.000  
E10  20341855.389   106897190.447        2685.178          40.000    20341853.011    81908235.226        2057.523          45.000  
E12  18587873.309    97679979.012        1854.846          41.000    18587867.050    74845720.152        1421.348          46.000  
E14  14607048.243    76760559.622        3255.502          39.000                                                                  
E19  18228530.407    95791629.502         691.847          39.000    18228525.339    73398789.393         530.052          46.000  
E20  20653097.441   108532830.597        -450.734          38.000                                                                  
E26  21461135.974   112778948.232       -2329.526          38.000    21461137.819    86414984.067       -1785.000          40.000  
J02  32242533.133   169435638.790          66.998          35.000    32242544.285   132027583.870          51.806          36.000  
J03  31616240.918   166144442.307         830.961          45.000                                                                  
J04  32846037.168   172607075.523        -283.202          43.000    32846028.605   134498984.934        -220.660          46.000  
J07  31511865.518   165595940.486         254.431          37.000    31511857.854   129035794.268         197.889          43.000  
C07  33928000.970   136613870.727       -1166.208          39.000    33928012.330   176671912.899       -1508.554          37.000  
C08  31492345.718   126806687.615         539.421          45.000    31492362.466   163989029.568         697.354          42.000  
C10  33523902.118   134986761.766       -1135.295          37.000    33523908.883   174567679.277       -1468.001          36.000  
C13  32318642.092   130133837.264         556.939          43.000    32318648.112   168291699.101         720.125          41.000  
C14  19632363.181    79051383.456       -1781.039          44.000    19632375.968   102230893.932       -2303.326          38.000  
C24                                                                  20480077.423   106645182.706        1351.857          39.000  
C27                                                                  16609205.454    86488530.158         936.046          47.000  
C28                                                                  16801681.992    87490745.524       -1921.792          47.000  
> 2023 07 11 06 09 23.9810000  0 37                     
G05  15753932.511    82787581.380        1748.959          45.000    15753924.307    64509788.680        1362.900          41.000  
G06  16366992.441    86009161.042       -2288.342          43.000    16366988.407    67020136.287       -1783.126          42.000  
G07  17830974.306    93702601.509         148.302          43.000    17830966.900    73014991.067         115.449          37.000  
G09  19037500.815   100042819.018       -3218.365          36.000    19037497.437    77955483.807       -2507.255          35.000  
G11  14609934.989    76775799.403         152.409          47.000    14609926.142    59825300.860         118.903          49.000  
G13  15845232.937    83267414.349        3210.851          44.000                                                                  
G15  18695094.075    98243437.863        3857.068          35.000    18695095.126    76553323.186        3005.984          35.000  
G19  19720775.730   103633362.822       -3581.277          32.000                                                                  
G20  14901282.069    78306843.430         727.328          46.000                                                                  
G29  17869564.243    93905224.748        2112.047          41.000    17869558.540    73172873.620        1646.199          35.000  
G30  17215598.072    90468740.947        1673.601          43.000    17215594.194    70495200.920        1303.802          40.000  
R02  16225256.417    86581198.283       -2922.300          47.000    16225249.185    67340864.662       -2272.872          43.000  
R03  13904366.963    74431299.183        -409.913          48.000    13904354.285    57891027.347        -318.796          48.000  
R04  15660980.083    83863955.040        2547.786          46.000    15660970.141    65227436.691        1981.560          44.000  
R12  18504729.443    98848970.936        2308.062          43.000                                                                  
R17  14873581.467    79591542.133       -2957.565          48.000    14873571.252    61904466.427       -2300.395          45.000  
R18  13541871.778    72287510.662         807.007          48.000    13541863.152    56223592.116         627.710          48.000  
R19  15901301.239    85061252.774        3840.737          34.000    15901290.531    66158729.556        2987.145          39.000  
E04  21032349.649   110525807.791        2852.825          39.000    21032349.139    84688620.697        2185.859          40.000  
E10  20341344.460   106894505.586        2684.685          41.000    20341342.037    81906177.998        2057.183          45.000  
E12  18587520.449    97678124.470        1854.654          41.000    18587514.200    74844299.148        1420.941          46.000  
E14  14606429.035    76757305.088        3254.024          39.000                                                                  
E19  18228398.736    95790938.252         691.133          39.000    18228393.712    73398259.734         529.517          46.000  
E20  20653183.271   108533281.795        -451.458          38.000                                                                  
E26  21461579.356   112781278.037       -2329.639          38.000    21461581.130    86416769.238       -1785.265          40.000  
J02  32242520.595   169435572.156          66.623          35.000    32242531.598   132027531.937          52.144          36.000  
J03  31616082.930   166143611.618         830.940          45.000                                                                  
J04  32846091.217   172607359.046        -283.488          43.000    32846082.647   134499205.860        -220.780          46.000  
J07  31511817.161   165595686.539         254.011          38.000    31511809.467   129035596.369         197.973          43.000  
C07  33928290.702   136615037.188       -1166.392          39.000    33928302.093   176673421.365       -1508.301          37.000  
C08  31492211.844   126806148.581         539.202          45.000    31492228.618   163988332.479         697.167          42.000  
C10  33524183.956   134987896.892       -1134.743          37.000    33524190.737   174569147.222       -1467.259          36.000  
C13  32318503.810   130133280.540         556.759          43.000    32318509.857   168290979.123         720.297          41.000  
C14  19632805.531    79053164.566       -1781.075          44.000    19632818.412   102233197.302       -2303.299          39.000  
C24                                                                  20479817.756   106643831.145        1351.597          39.000  
C27                                                                  16609025.860    86487594.667         935.320          47.000  
C28                                                                  16802051.044    87492667.783       -1922.214          47.000  
> 2023 07 11 06 09 24.9810000  0 37                     
G05  15753599.689    82785832.615        1748.502          45.000    15753591.604    64508425.996        1362.654          41.000  
G06  16367428.041    86011449.559       -2288.706          43.000    16367424.023    67021919.553       -1783.554          42.000  
G07  17830946.111    93702453.678         147.860          43.000    17830938.691    73014875.888         115.132          37.000  
G09  19038113.292   100046037.104       -3218.433          36.000    19038109.842    77957991.421       -2507.498          35.000  
G11  14609906.057    76775647.372         151.550          47.000    14609897.132    59825182.397         118.192          49.000  
G13  15844621.976    83264203.886        3210.339          44.000                                                                  
G15  18694360.180    98239580.834        3857.264          35.000    18694361.038    76550317.749        3005.552          35.000  
G19  19721457.258   103636944.017       -3581.049          32.000                                                                  
G20  14901143.716    78306116.313         726.977          46.000                                                                  
G29  17869162.479    93903113.327        2111.022          41.000    17869156.716    73171228.379        1644.945          35.000  
G30  17215279.706    90467067.988        1672.538          43.000    17215275.856    70493897.291        1303.594          40.000  
R02  16225804.065    86584120.678       -2922.602          47.000    16225796.766    67343137.639       -2273.180          42.000  
R03  13904443.756    74431709.517        -410.748          48.000    13904431.046    57891346.497        -319.421          48.000  
R04  15660504.433    83861407.688        2547.040          45.000    15660494.462    65225455.417        1980.996          44.000  
R12  18504297.436    98846663.175        2307.491          43.000                                                                  
R17  14874134.236    79594500.209       -2958.363          48.000    14874124.000    61906767.155       -2301.058          45.000  
R18  13541720.720    72286704.109         805.971          48.000    13541711.991    56222964.796         626.884          48.000  
R19  15900583.321    85057412.362        3840.331          34.000    15900572.612    66155742.588        2986.625          39.000  
E04  21031806.920   110522955.040        2852.420          39.000    21031806.193    84686434.811        2186.045          40.000  
E10  20340833.587   106891820.797        2684.539          40.000    20340831.245    81904120.820        2057.161          45.000  
E12  18587167.535    97676270.190        1854.036          41.000    18587161.307    74842878.323        1420.786          46.000  
E14  14605810.050    76754051.897        3252.324          39.000                                                                  
E19  18228267.423    95790247.383         690.746          39.000    18228262.267    73397730.369         529.162          46.000  
E20  20653269.034   108533733.297        -451.645          38.000                                                                  
E26  21462022.718   112783608.021       -2330.119          38.000    21462024.426    86418554.536       -1785.445          40.000  
J02  32242507.870   169435505.444          66.676          35.000    32242519.025   132027479.971          51.837          36.000  
J03  31615924.926   166142781.008         830.476          44.000                                                                  
J04  32846145.092   172607642.501        -283.300          43.000    32846136.601   134499426.741        -220.844          46.000  
J07  31511768.737   165595432.566         253.900          37.000    31511761.168   129035398.474         197.960          43.000  
C07  33928580.416   136616203.638       -1166.570          39.000    33928591.811   176674929.857       -1508.318          37.000  
C08  31492077.964   126805609.456         539.058          45.000    31492094.682   163987635.256         697.174          42.000  
C10  33524465.861   134989032.057       -1135.268          37.000    33524472.627   174570615.254       -1467.948          36.000  
C13  32318365.620   130132723.751         556.843          43.000    32318371.639   168290259.068         720.113          41.000  
C14  19633247.844    79054945.655       -1781.030          44.000    19633260.847   102235500.644       -2303.304          39.000  
C24                                                                  20479558.277   106642479.948        1350.866          39.000  
C27                                                                  16608846.208    86486659.724         934.542          47.000  
C28                                                                  16802420.375    87494590.470       -1922.807          47.000  
> 2023 07 11 06 09 25.9810000  0 37                     
G05  15753266.948    82784083.906        1748.462          45.000    15753259.013    64507063.363        1362.813          41.000  
G06  16367863.648    86013738.312       -2288.796          43.000    16367859.543    67023702.981       -1783.431          42.000  
G07  17830918.030    93702306.256         146.928          43.000    17830910.616    73014761.014         114.477          37.000  
G09  19038725.749   100049255.118       -3218.424          36.000    19038722.118    77960498.998       -2508.291          35.000  
G11  14609877.196    76775495.708         151.210          47.000    14609868.127    59825064.212         117.974          49.000  
G13  15844011.137    83260993.716        3209.807          44.000                                                                  
G15  18693626.094    98235723.844        3856.932          35.000    18693627.185    76547312.283        3005.188          35.000  
G19  19722138.581   103640524.904       -3580.946          33.000                                                                  
G20  14901005.358    78305389.281         726.658          46.000                                                                  
G29  17868760.827    93901002.321        2110.798          41.000    17868754.989    73169583.452        1644.555          35.000  
G30  17214961.391    90465395.300        1672.530          43.000    17214957.582    70492593.921        1303.107          40.000  
R02  16226351.697    86587042.987       -2922.394          47.000    16226344.437    67345410.553       -2273.087          42.000  
R03  13904520.344    74432120.190        -410.936          48.000    13904507.762    57891665.907        -319.554          48.000  
R04  15660028.829    83858860.648        2546.603          45.000    15660018.915    65223474.390        1980.744          44.000  
R12  18503865.498    98844355.729        2307.186          43.000                                                                  
R17  14874687.121    79597458.777       -2959.010          48.000    14874676.982    61909068.249       -2301.374          45.000  
R18  13541569.677    72285898.245         805.296          48.000    13541561.071    56222338.005         626.521          48.000  
R19  15899865.453    85053572.239        3839.707          34.000    15899854.811    66152755.812        2986.833          39.000  
E04  21031264.032   110520102.324        2852.748          39.000    21031263.434    84684248.999        2185.738          40.000  
E10  20340322.533   106889135.986        2684.547          41.000    20340320.343    81902063.638        2056.964          45.000  
E12  18586814.755    97674416.006        1853.930          41.000    18586808.483    74841457.592        1420.481          46.000  
E14  14605191.286    76750799.891        3251.064          40.000                                                                  
E19  18228135.948    95789556.772         690.077          39.000    18228130.946    73397201.190         528.840          46.000  
E20  20653355.145   108534185.056        -452.372          38.000                                                                  
E26  21462465.981   112785938.054       -2330.500          38.000    21462467.845    86420339.871       -1785.658          40.000  
J02  32242495.081   169435438.531          66.799          35.000    32242506.291   132027427.820          52.120          36.000  
J03  31615766.872   166141950.289         830.627          44.000                                                                  
J04  32846198.928   172607925.782        -283.362          43.000    32846190.472   134499647.481        -220.931          46.000  
J07  31511720.250   165595178.469         254.016          37.000    31511712.895   129035200.481         197.729          43.000  
C07  33928870.073   136617369.985       -1166.483          39.000    33928881.446   176676438.213       -1508.445          37.000  
C08  31491944.076   126805070.183         539.284          45.000    31491960.820   163986937.875         697.201          42.000  
C10  33524747.792   134990167.117       -1134.754          37.000    33524754.607   174572083.171       -1467.989          37.000  
C13  32318227.358   130132166.799         556.776          43.000    32318233.297   168289538.809         720.253          41.000  
C14  19633690.150    79056726.603       -1780.812          44.000    19633703.182   102237803.807       -2302.990          38.000  
C24                                                                  20479298.912   106641128.979        1350.356          39.000  
C27                                                                  16608666.662    86485725.171         934.111          47.000  
C28                                                                  16802789.583    87496513.442       -1923.212          47.000  
> 2023 07 11 06 09 26.9810000  0 37                     
G05  15752934.218    82782335.402        1748.105          45.000    15752926.320    64505700.896        1362.328          41.000  
G06  16368299.226    86016027.441       -2289.400          43.000    16368295.255    67025486.720       -1783.893          42.000  
G07  17830890.194    93702159.340         146.568          43.000    17830882.588    73014646.536         113.962          37.000  
G09  19039338.159   100052473.161       -3218.084          36.000    19039334.511    77963006.570       -2507.828          34.000  
G11  14609848.409    76775344.568         150.590          47.000    14609839.367    59824946.449         117.352          49.000  
G13  15843400.321    83257783.967        3209.210          44.000                                                                  
G15  18692892.091    98231867.037        3855.966          35.000    18692893.141    76544306.935        3005.838          34.000  
G19  19722820.030   103644105.698       -3580.751          33.000                                                                  
G20  14900867.056    78304662.467         726.333          46.000                                                                  
G29  17868359.256    93898891.928        2109.576          41.000    17868353.522    73167938.981        1643.578          35.000  
G30  17214643.176    90463723.109        1671.578          43.000    17214639.339    70491290.915        1302.531          40.000  
R02  16226899.388    86589965.352       -2922.779          47.000    16226892.031    67347683.491       -2273.129          42.000  
R03  13904597.253    74432531.350        -411.743          48.000    13904584.544    57891985.699        -320.185          48.000  
R04  15659553.262    83856314.083        2546.000          45.000    15659543.459    65221493.727        1980.119          45.000  
R12  18503433.650    98842048.779        2306.256          44.000                                                                  
R17  14875240.171    79600417.952       -2959.887          48.000    14875229.991    61911369.829       -2302.202          45.000  
R18  13541418.931    72285093.227         804.256          48.000    13541410.259    56221711.889         625.454          48.000  
R19  15899147.848    85049732.503        3839.509          34.000    15899137.052    66149769.366        2985.963          39.000  
E04  21030721.165   110517249.814        2852.421          39.000    21030720.670    84682063.326        2185.107          40.000  
E10  20339811.751   106886451.291        2684.132          41.000    20339809.414    81900006.522        2056.938          45.000  
E12  18586462.011    97672562.076        1853.574          42.000    18586455.603    74840037.049        1420.214          46.000  
E14  14604572.488    76747549.229        3249.856          40.000                                                                  
E19  18228004.544    95788866.540         689.856          39.000    18227999.552    73396672.324         528.487          46.000  
E20  20653441.170   108534637.156        -452.788          38.000                                                                  
E26  21462909.316   112788268.226       -2330.601          38.000    21462911.271    86422125.329       -1785.772          40.000  
J02  32242482.473   169435371.574          66.520          35.000    32242493.512   132027375.631          51.882          36.000  
J03  31615608.854   166141119.650         830.226          45.000                                                                  
J04  32846252.839   172608209.013        -283.215          43.000    32846244.287   134499868.186        -221.006          46.000  
J07  31511671.886   165594924.376         254.117          37.000    31511664.536   129035002.489         197.704          43.000  
C07  33929159.671   136618536.328       -1166.697          39.000    33929171.031   176677946.547       -1508.760          37.000  
C08  31491810.103   126804530.877         539.088          45.000    31491826.949   163986240.429         696.877          42.000  
C10  33525029.657   134991302.236       -1135.566          37.000    33525036.567   174573551.106       -1468.407          37.000  
C13  32318089.134   130131609.795         556.792          43.000    32318094.970   168288818.493         720.021          41.000  
C14  19634132.391    79058507.559       -1781.308          43.000    19634145.479   102240106.980       -2303.493          38.000  
C24                                                                  20479039.576   106639778.401        1349.916          39.000  
C27                                                                  16608487.376    86484791.182         933.364          47.000  
C28                                                                  16803159.035    87498436.851       -1923.878          47.000  
> 2023 07 11 06 09 27.9810000  0 37                     
G05  15752601.482    82780586.931        1748.558          45.000    15752593.715    64504338.474        1362.360          41.000  
G06  16368734.902    86018316.798       -2289.299          43.000    16368730.869    67027270.633       -1783.918          42.000  
G07  17830862.327    93702012.792         146.336          43.000    17830854.765    73014532.345         113.717          37.000  
G09  19039950.573   100055691.154       -3218.176          36.000    19039946.839    77965514.105       -2507.922          34.000  
G11  14609819.642    76775193.785         150.688          47.000    14609810.617    59824828.954         117.368          49.000  
G13  15842789.581    83254574.480        3209.564          44.000                                                                  
G15  18692158.129    98228010.189        3856.394          35.000    18692159.225    76541301.667        3005.120          35.000  
G19  19723501.473   103647686.143       -3579.629          33.000                                                                  
G20  14900728.710    78303935.704         726.787          46.000                                                                  
G29  17867957.713    93896781.922        2109.764          41.000    17867951.968    73166294.817        1644.054          35.000  
G30  17214324.937    90462051.207        1671.820          43.000    17214321.211    70489988.134        1302.731          40.000  
R02  16227447.008    86592887.591       -2922.040          47.000    16227439.647    67349956.353       -2272.998          42.000  
R03  13904674.107    74432942.797        -411.418          48.000    13904661.378    57892305.719        -320.032          48.000  
R04  15659077.761    83853767.772        2546.226          46.000    15659068.066    65219513.262        1980.468          45.000  
R12  18503001.845    98839742.142        2306.687          44.000                                                                  
R17  14875793.271    79603377.528       -2959.724          48.000    14875783.014    61913671.717       -2302.028          45.000  
R18  13541268.318    72284288.896         804.118          48.000    13541259.559    56221086.299         625.341          48.000  
R19  15898429.951    85045893.043        3839.164          34.000    15898419.359    66146783.111        2986.083          39.000  
E04  21030178.495   110514397.341        2852.676          39.000    21030177.857    84679877.640        2185.645          40.000  
E10  20339300.861   106883766.513        2685.033          41.000    20339298.379    81897949.364        2057.350          45.000  
E12  18586109.249    97670708.224        1853.888          42.000    18586102.888    74838616.566        1420.576          46.000  
E14  14603954.116    76744299.757        3249.093          40.000                                                                  
E19  18227873.372    95788176.524         690.156          39.000    18227868.329    73396143.608         528.823          46.000  
E20  20653527.197   108535089.422        -451.964          38.000                                                                  
E26  21463352.835   112790598.454       -2330.159          38.000    21463354.620    86423910.808       -1785.273          40.000  
J02  32242469.730   169435304.358          67.077          35.000    32242480.776   132027323.276          52.179          37.000  
J03  31615450.851   166140288.887         830.979          45.000                                                                  
J04  32846306.732   172608492.053        -282.819          43.000    32846298.153   134500088.723        -220.398          46.000  
J07  31511623.474   165594670.138         254.505          37.000    31511616.219   129034804.383         198.042          43.000  
C07  33929449.295   136619702.547       -1166.354          39.000    33929460.735   176679454.705       -1507.862          37.000  
C08  31491676.091   126803991.391         539.530          45.000    31491693.035   163985542.734         698.003          42.000  
C10  33525311.553   134992437.206       -1134.758          37.000    33525318.404   174575018.891       -1467.629          37.000  
C13  32317950.761   130131052.642         557.104          43.000    32317956.547   168288097.942         720.825          41.000  
C14  19634574.632    79060288.349       -1780.743          44.000    19634587.570   102242409.915       -2302.483          39.000  
C24                                                                  20478780.330   106638428.015        1350.395          39.000  
C27                                                                  16608308.079    86483857.564         933.536          47.000  
C28                                                                  16803528.411    87500360.521       -1923.720          47.000  
> 2023 07 11 06 09 28.9810000  0 37                     
G05  15752268.798    82778838.609        1748.168          45.000    15752261.002    64502976.124        1362.430          41.000  
G06  16369170.521    86020606.445       -2289.388          43.000    16369166.651    67029054.780       -1784.305          42.000  
G07  17830834.456    93701866.688         146.041          43.000    17830826.983    73014418.498         113.429          37.000  
G09  19040562.893   100058909.111       -3217.876          36.000    19040559.206    77968021.570       -2507.437          35.000  
G11  14609791.032    76775043.458         150.202          47.000    14609781.977    59824711.814         117.017          49.000  
G13  15842178.955    83251365.372        3208.855          44.000                                                                  
G15  18691424.093    98224153.423        3856.971          35.000    18691425.204    76538296.422        3004.281          34.000  
G19  19724182.824   103651266.431       -3580.165          33.000                                                                  
G20  14900590.378    78303209.105         726.661          46.000                                                                  
G29  17867556.251    93894672.421        2109.221          41.000    17867550.480    73164651.071        1643.421          35.000  
G30  17214006.814    90460379.678        1671.363          43.000    17214003.170    70488685.658        1302.364          40.000  
R02  16227994.641    86595809.836       -2922.167          47.000    16227987.213    67352229.200       -2272.815          42.000  
R03  13904750.943    74433354.654        -412.031          48.000    13904738.335    57892626.052        -320.400          48.000  
R04  15658602.270    83851221.835        2545.829          45.000    15658592.581    65217533.091        1980.006          45.000  
R12  18502570.126    98837435.976        2305.945          44.000                                                                  
R17  14876346.474    79606337.661       -2960.253          48.000    14876336.192    61915974.033       -2302.324          45.000  
R18  13541117.695    72283485.374         803.251          48.000    13541108.932    56220461.329         624.814          48.000  
R19  15897712.114    85042053.858        3839.791          34.000    15897701.713    66143797.115        2985.882          39.000  
E04  21029635.623   110511544.979        2852.370          39.000    21029635.104    84677692.088        2185.424          40.000  
E10  20338789.856   106881081.802        2684.699          41.000    20338787.521    81895892.253        2057.147          45.000  
E12  18585756.580    97668854.556        1853.712          42.000    18585750.123    74837196.226        1420.372          46.000  
E14  14603336.003    76741051.564        3247.584          40.000                                                                  
E19  18227742.184    95787486.856         689.556          39.000    18227736.930    73395615.157         528.289          46.000  
E20  20653613.400   108535542.032        -452.635          38.000                                                                  
E26  21463796.392   112792928.767       -2330.206          38.000    21463798.031    86425696.378       -1785.566          40.000  
J02  32242456.940   169435237.032          67.220          35.000    32242467.965   132027270.800          52.152          37.000  
J03  31615292.762   166139458.141         830.839          44.000                                                                  
J04  32846360.613   172608774.982        -282.818          43.000    32846352.000   134500309.187        -220.343          46.000  
J07  31511575.079   165594415.844         254.394          37.000    31511567.890   129034606.219         198.298          43.000  
C07  33929738.956   136620868.681       -1166.235          39.000    33929750.397   176680962.817       -1508.138          37.000  
C08  31491542.098   126803451.790         539.548          45.000    31491558.989   163984844.911         697.940          42.000  
C10  33525593.486   134993572.192       -1135.490          37.000    33525600.329   174576486.652       -1467.670          37.000  
C13  32317812.331   130130495.356         557.314          43.000    32317818.157   168287377.266         720.665          41.000  
C14  19635016.776    79062069.073       -1780.820          44.000    19635029.731   102244712.800       -2302.670          38.000  
C24                                                                  20478521.032   106637077.966        1349.975          39.000  
C27                                                                  16608128.924    86482924.439         932.939          48.000  
C28                                                                  16803897.768    87502284.548       -1924.109          47.000  
> 2023 07 11 06 09 29.9810000  0 37                     
G05  15751936.102    82777090.369        1748.340          45.000    15751928.323    64501613.879        1362.203          41.000  
G06  16369606.287    86022896.380       -2289.758          43.000    16369602.433    67030839.127       -1784.224          42.000  
G07  17830806.794    93701721.021         145.322          43.000    17830799.267    73014304.984         113.391          37.000  
G09  19041175.178   100062126.993       -3217.209          36.000    19041171.600    77970529.031       -2506.940          35.000  
G11  14609762.494    76774893.544         149.904          47.000    14609753.535    59824594.998         116.822          49.000  
G13  15841568.330    83248156.576        3208.743          44.000                                                                  
G15  18690690.092    98220296.713        3857.133          35.000    18690691.282    76535291.182        3005.444          34.000  
G19  19724864.048   103654846.431       -3579.309          33.000                                                                  
G20  14900452.159    78302482.631         726.483          45.000                                                                  
G29  17867154.751    93892563.406        2108.917          41.000    17867149.078    73163007.689        1642.935          35.000  
G30  17213688.790    90458708.532        1670.997          43.000    17213685.201    70487383.471        1301.979          40.000  
R02  16228542.209    86598732.087       -2922.152          47.000    16228534.790    67354502.054       -2272.646          42.000  
R03  13904827.913    74433766.862        -412.237          48.000    13904815.213    57892946.656        -320.617          48.000  
R04  15658126.885    83848676.223        2545.697          45.000    15658117.176    65215553.171        1980.028          45.000  
R12  18502138.467    98835130.162        2305.704          44.000                                                                  
R17  14876899.708    79609298.333       -2960.785          48.000    14876889.458    61918276.788       -2302.850          45.000  
R18  13540967.329    72282682.620         802.431          48.000    13540958.576    56219836.967         624.109          48.000  
R19  15896994.581    85038215.090        3838.033          34.000    15896984.122    66140811.365        2985.594          39.000  
E04  21029092.795   110508692.725        2851.999          39.000    21029092.387    84675506.570        2185.616          40.000  
E10  20338279.022   106878397.092        2684.774          41.000    20338276.685    81893835.139        2057.161          45.000  
E12  18585403.769    97667001.042        1853.760          42.000    18585397.493    74835776.006        1420.340          46.000  
E14  14602718.071    76737804.612        3246.590          40.000                                                                  
E19  18227611.076    95786797.460         689.398          39.000    18227605.772    73395086.923         528.182          46.000  
E20  20653699.626   108535994.875        -453.035          39.000                                                                  
E26  21464239.876   112795259.188       -2330.552          38.000    21464241.510    86427482.003       -1785.409          40.000  
J02  32242444.246   169435169.527          67.434          36.000    32242455.169   132027218.208          52.422          37.000  
J03  31615134.665   166138627.349         830.811          44.000                                                                  
J04  32846414.472   172609057.762        -282.581          43.000    32846405.801   134500529.540        -220.233          46.000  
J07  31511526.761   165594161.445         254.487          37.000    31511519.564   129034407.996         198.334          43.000  
C07  33930028.526   136622034.778       -1166.038          40.000    33930039.883   176682470.815       -1507.668          37.000  
C08  31491408.045   126802912.043         539.953          45.000    31491425.066   163984146.913         698.273          42.000  
C10  33525875.358   134994707.082       -1134.825          37.000    33525882.268   174577954.366       -1467.773          37.000  
C13  32317673.853   130129937.953         557.594          43.000    32317679.626   168286656.416         721.113          41.000  
C14  19635458.991    79063849.691       -1780.614          44.000    19635471.973   102247015.539       -2302.626          38.000  
C24                                                                  20478261.687   106635728.179        1349.800          39.000  
C27                                                                  16607949.815    86481991.755         932.668          48.000  
C28                                                                  16804267.337    87504208.911       -1924.490          47.000  
> 2023 07 11 06 09 30.9810000  0 37                     
G05  15751603.491    82775342.364        1747.590          45.000    15751595.808    64500251.795        1361.731          41.000  
G06  16370042.165    86025186.708       -2290.945          43.000    16370038.213    67032623.777       -1784.671          42.000  
G07  17830779.240    93701575.881         144.373          43.000    17830771.687    73014191.899         112.813          37.000  
G09  19041787.507   100065344.998       -3218.103          36.000    19041784.086    77973036.546       -2507.346          35.000  
G11  14609733.992    76774744.165         149.022          47.000    14609725.186    59824478.601         116.157          49.000  
G13  15840957.855    83244948.204        3208.176          44.000                                                                  
G15  18689956.275    98216440.194        3856.680          35.000    18689957.320    76532286.146        3003.970          34.000  
G19  19725545.237   103658426.292       -3579.281          33.000                                                                  
G20  14900314.047    78301756.378         726.180          45.000                                                                  
G29  17866753.624    93890454.974        2107.995          41.000    17866747.747    73161364.731        1642.303          35.000  
G30  17213370.941    90457037.851        1670.166          43.000    17213367.243    70486081.642        1301.412          40.000  
R02  16229089.807    86601654.450       -2922.698          47.000    16229082.546    67356775.004       -2273.177          42.000  
R03  13904904.927    74434179.555        -413.077          48.000    13904892.452    57893267.640        -321.285          48.000  
R04  15657651.569    83846131.079        2544.674          45.000    15657642.018    65213573.622        1979.359          45.000  
R12  18501706.881    98832824.823        2305.099          45.000                                                                  
R17  14877452.959    79612259.628       -2961.855          48.000    14877442.950    61920580.011       -2303.706          45.000  
R18  13540817.126    72281880.730         801.347          48.000    13540808.292    56219213.284         623.078          48.000  
R19  15896277.020    85034376.656        3837.582          34.000    15896266.579    66137825.919        2985.330          39.000  
E04  21028550.223   110505840.651        2851.569          39.000    21028549.563    84673321.228        2185.050          40.000  
E10  20337768.182   106875712.497        2684.271          41.000    20337765.828    81891778.119        2056.765          45.000  
E12  18585051.154    97665147.795        1852.900          42.000    18585044.756    74834355.979        1419.769          46.000  
E14  14602100.544    76734559.036        3244.568          40.000                                                                  
E19  18227480.048    95786108.493         688.574          39.000    18227474.700    73394559.011         527.551          46.000  
E20  20653785.977   108536448.070        -453.488          38.000                                                                  
E26  21464683.338   112797589.777       -2330.916          39.000    21464685.139    86429267.787       -1785.976          40.000  
J02  32242431.417   169435101.964          67.759          36.000    32242442.415   132027165.579          52.325          37.000  
J03  31614976.508   166137796.624         830.471          44.000                                                                  
J04  32846468.328   172609340.516        -282.824          43.000    32846459.552   134500749.862        -220.318          46.000  
J07  31511478.344   165593907.068         254.536          37.000    31511471.071   129034209.780         198.066          43.000  
C07  33930318.065   136623200.866       -1166.178          39.000    33930329.510   176683978.849       -1508.281          37.000  
C08  31491273.977   126802372.261         539.846          45.000    31491291.028   163983448.853         697.803          42.000  
C10  33526157.316   134995842.044       -1135.029          37.000    33526164.026   174579422.114       -1468.284          37.000  
C13  32317535.392   130129380.523         557.403          43.000    32317541.259   168285935.536         720.860          41.000  
C14  19635901.234    79065630.294       -1780.770          44.000    19635914.201   102249318.252       -2302.859          39.000  
C24                                                                  20478002.436   106634378.796        1348.877          39.000  
C27                                                                  16607770.788    86481059.636         931.657          48.000  
C28                                                                  16804637.009    87506133.706       -1925.155          47.000  
> 2023 07 11 06 09 31.9810000  0 37                     
G05  15751271.015    82773594.782        1747.333          45.000    15751263.216    64498890.046        1361.544          41.000  
G06  16370478.144    86027477.633       -2291.344          43.000    16370474.062    67034408.930       -1785.546          42.000  
G07  17830751.842    93701431.500         143.977          43.000    17830744.150    73014079.418         111.721          37.000  
G09  19042399.899   100068563.312       -3218.659          36.000    19042396.547    77975544.318       -2507.885          35.000  
G11  14609705.708    76774595.545         148.316          47.000    14609696.987    59824362.789         115.620          49.000  
G13  15840347.510    83241740.521        3207.433          44.000                                                                  
G15  18689222.498    98212584.089        3855.978          35.000    18689223.503    76529281.361        3004.409          34.000  
G19  19726226.365   103662006.291       -3580.270          33.000                                                                  
G20  14900175.888    78301030.606         725.556          46.000                                                                  
G29  17866352.469    93888347.355        2107.250          41.000    17866346.657    73159722.430        1641.934          35.000  
G30  17213053.151    90455367.865        1669.709          43.000    17213049.398    70484780.356        1301.049          40.000  
R02  16229637.541    86604577.107       -2922.776          47.000    16229630.217    67359048.175       -2273.062          42.000  
R03  13904982.161    74434592.985        -413.785          48.000    13904969.653    57893589.202        -321.781          48.000  
R04  15657176.466    83843586.629        2544.088          45.000    15657166.849    65211594.613        1978.854          45.000  
R12  18501275.496    98830520.248        2304.139          44.000                                                                  
R17  14878006.591    79615221.733       -2962.476          48.000    14877996.556    61922883.866       -2304.107          45.000  
R18  13540667.080    72281079.930         800.404          48.000    13540658.302    56218590.435         622.435          48.000  
R19  15895559.632    85030538.891        3836.815          34.000    15895549.222    66134841.006        2984.788          39.000  
E04  21028007.456   110502988.975        2851.494          39.000    21028006.939    84671136.195        2184.798          40.000  
E10  20337257.267   106873028.242        2684.329          40.000    20337254.938    81889721.369        2056.468          45.000  
E12  18584698.550    97663295.035        1852.593          41.000    18584692.332    74832936.335        1419.393          46.000  
E14  14601483.144    76731315.027        3243.243          39.000                                                                  
E19  18227348.961    95785420.120         688.229          39.000    18227343.777    73394031.566         527.239          46.000  
E20  20653872.320   108536901.894        -454.195          38.000                                                                  
E26  21465126.940   112799920.786       -2331.102          38.000    21465128.704    86431053.884       -1786.302          40.000  
J02  32242418.528   169435034.609          67.072          35.000    32242429.630   132027113.078          52.375          37.000  
J03  31614818.494   166136966.209         830.296          44.000                                                                  
J04  32846522.076   172609623.466        -283.101          43.000    32846513.428   134500970.346        -220.408          46.000  
J07  31511429.949   165593652.942         254.282          37.000    31511422.677   129034011.762         197.969          43.000  
C07  33930607.687   136624367.138       -1166.206          39.000    33930619.192   176685487.113       -1508.762          37.000  
C08  31491139.974   126801832.624         539.647          45.000    31491156.983   163982750.977         697.767          41.000  
C10  33526439.223   134996977.199       -1135.156          37.000    33526446.015   174580890.112       -1468.240          37.000  
C13  32317397.052   130128823.219         557.074          43.000    32317402.794   168285214.813         720.606          41.000  
C14  19636343.417    79067411.057       -1780.763          44.000    19636356.539   102251621.180       -2303.114          39.000  
C24                                                                  20477743.473   106633029.998        1348.799          39.000  
C27                                                                  16607591.885    86480128.289         931.121          48.000  
C28                                                                  16805006.782    87508059.174       -1925.806          47.000  
> 2023 07 11 06 09 32.9810000  0 37                     
G05  15750938.501    82771847.401        1747.382          45.000    15750930.679    64497528.460        1361.533          41.000  
G06  16370914.218    86029768.914       -2291.366          43.000    16370910.073    67036194.343       -1785.536          42.000  
G07  17830724.292    93701287.636         143.608          43.000    17830716.721    73013967.291         112.036          37.000  
G09  19043012.247   100071781.649       -3218.525          36.000    19043008.929    77978052.102       -2507.629          35.000  
G11  14609677.485    76774447.457         147.850          47.000    14609668.793    59824247.393         115.277          49.000  
G13  15839737.123    83238533.266        3207.002          44.000                                                                  
G15  18688488.787    98208728.150        3855.475          36.000    18688489.747    76526276.699        3004.741          35.000  
G19  19726907.580   103665586.132       -3579.976          33.000                                                                  
G20  14900037.906    78300305.044         725.555          45.000                                                                  
G29  17865951.543    93886240.315        2106.829          41.000    17865945.641    73158080.580        1641.643          35.000  
G30  17212735.375    90453698.334        1669.564          43.000    17212731.662    70483479.439        1300.775          40.000  
R02  16230185.328    86607499.811       -2922.559          47.000    16230177.876    67361321.392       -2273.229          42.000  
R03  13905059.434    74435006.910        -413.987          48.000    13905046.975    57893911.143        -322.054          48.000  
R04  15656701.187    83841042.651        2543.800          45.000    15656691.775    65209615.976        1978.598          45.000  
R12  18500844.125    98828216.165        2303.896          44.000                                                                  
R17  14878560.245    79618184.442       -2962.922          48.000    14878550.221    61925188.196       -2304.603          45.000  
R18  13540517.180    72280279.980         799.574          48.000    13540508.403    56217968.247         621.908          48.000  
R19  15894842.091    85026701.500        3837.401          34.000    15894831.891    66131856.395        2984.283          39.000  
E04  21027464.865   110500137.509        2851.802          39.000    21027464.340    84668951.325        2184.598          40.000  
E10  20336746.456   106870344.112        2684.145          40.000    20336744.227    81887664.682        2056.726          45.000  
E12  18584346.003    97661442.529        1852.522          41.000    18584339.705    74831516.875        1419.552          46.000  
E14  14600866.063    76728072.377        3241.877          39.000                                                                  
E19  18227218.001    95784732.160         687.863          39.000    18227212.724    73393504.425         526.981          46.000  
E20  20653958.720   108537356.057        -454.299          38.000                                                                  
E26  21465570.570   112802251.985       -2331.097          38.000    21465572.305    86432840.121       -1786.299          40.000  
J02  32242405.793   169434967.158          67.881          35.000    32242416.665   132027060.521          52.717          37.000  
J03  31614660.462   166136135.842         830.581          44.000                                                                  
J04  32846575.829   172609906.379        -282.923          43.000    32846567.271   134501190.797        -220.324          46.000  
J07  31511381.539   165593398.849         254.155          37.000    31511374.300   129033813.753         198.194          43.000  
C07  33930897.371   136625533.410       -1166.283          39.000    33930908.854   176686995.354       -1508.343          37.000  
C08  31491005.952   126801292.944         539.693          45.000    31491022.914   163982053.051         697.997          42.000  
C10  33526721.182   134998112.391       -1135.418          37.000    33526727.907   174582358.157       -1467.947          37.000  
C13  32317258.588   130128265.858         557.477          43.000    32317264.433   168284494.026         720.936          41.000  
C14  19636785.668    79069191.809       -1780.778          44.000    19636798.674   102253924.067       -2302.726          38.000  
C24                                                                  20477484.576   106631681.639        1348.082          39.000  
C27                                                                  16607413.217    86479197.518         930.499          48.000  
C28                                                                  16805376.679    87509985.069       -1926.110          47.000  
> 2023 07 11 06 09 33.9810000  0 37                     
G05  15750605.973    82770100.249        1746.615          45.000    15750598.190    64496167.028        1361.289          41.000  
G06  16371350.300    86032060.623       -2292.220          43.000    16371346.207    67037980.082       -1786.268          42.000  
G07  17830697.017    93701144.328         142.765          43.000    17830689.416    73013855.647         110.840          37.000  
G09  19043624.658   100075000.033       -3218.455          36.000    19043621.498    77980559.953       -2507.963          35.000  
G11  14609649.395    76774299.884         147.091          47.000    14609640.753    59824132.415         114.472          49.000  
G13  15839126.903    83235326.442        3206.389          44.000                                                                  
G15  18687755.094    98204872.342        3855.464          36.000    18687755.883    76523272.217        3004.028          35.000  
G19  19727588.784   103669165.823       -3579.971          32.000                                                                  
G20  14899899.867    78299579.719         725.042          45.000                                                                  
G29  17865550.541    93884133.868        2105.782          41.000    17865544.925    73156439.184        1640.890          35.000  
G30  17212417.843    90452029.318        1668.272          42.000    17212414.023    70482178.894        1300.015          40.000  
R02  16230733.153    86610422.589       -2923.105          47.000    16230725.617    67363594.660       -2273.615          42.000  
R03  13905136.820    74435421.336        -414.933          48.000    13905124.417    57894233.476        -322.795          48.000  
R04  15656226.131    83838499.139        2543.074          45.000    15656216.925    65207637.689        1977.842          45.000  
R12  18500413.023    98825912.599        2302.946          44.000                                                                  
R17  14879114.053    79621147.821       -2964.017          48.000    14879103.963    61927493.043       -2305.435          45.000  
R18  13540367.560    72279480.915         798.229          48.000    13540358.688    56217346.752         620.920          48.000  
R19  15894124.781    85022864.559        3836.434          34.000    15894114.547    66128872.094        2984.150          39.000  
E04  21026922.282   110497286.263        2851.014          39.000    21026921.826    84666766.589        2184.382          40.000  
E10  20336235.777   106867660.101        2683.623          40.000    20336233.397    81885608.100        2056.371          45.000  
E12  18583993.683    97659590.300        1851.771          41.000    18583987.214    74830097.635        1418.932          46.000  
E14  14600249.271    76724831.074        3240.496          39.000                                                                  
E19  18227087.057    95784044.609         687.182          39.000    18227081.855    73392977.599         526.429          46.000  
E20  20654045.219   108537810.599        -455.120          38.000                                                                  
E26  21466014.278   112804583.395       -2331.775          38.000    21466015.901    86434626.505       -1786.677          40.000  
J02  32242392.958   169434899.693          67.286          35.000    32242403.755   132027007.944          52.438          36.000  
J03  31614502.461   166135305.571         829.999          45.000                                                                  
J04  32846629.668   172610189.267        -283.119          43.000    32846621.139   134501411.239        -220.915          46.000  
J07  31511333.241   165593144.762         253.853          37.000    31511325.943   129033615.765         197.870          43.000  
C07  33931187.001   136626699.691       -1166.544          39.000    33931198.358   176688503.645       -1508.981          37.000  
C08  31490871.976   126800753.230         539.483          45.000    31490889.001   163981355.075         697.677          42.000  
C10  33527003.112   134999247.625       -1135.753          38.000    33527009.819   174583826.279       -1468.562          37.000  
C13  32317120.163   130127708.459         557.131          43.000    32317125.961   168283773.187         720.803          41.000  
C14  19637227.996    79070972.542       -1780.796          44.000    19637240.974   102256226.959       -2303.110          38.000  
C24                                                                  20477225.761   106630333.620        1347.650          39.000  
C27                                                                  16607234.514    86478267.295         929.523          48.000  
C28                                                                  16805746.570    87511911.392       -1926.727          47.000  
> 2023 07 11 06 09 34.9810000  0 37                     
G05  15750273.529    82768353.178        1747.255          45.000    15750265.743    64494805.682        1361.547          41.000  
G06  16371786.336    86034352.592       -2292.146          43.000    16371782.377    67039766.035       -1786.305          42.000  
G07  17830669.895    93701001.443         142.323          43.000    17830662.216    73013744.264         111.741          37.000  
G09  19044237.132   100078218.423       -3218.260          36.000    19044233.979    77983067.798       -2508.120          34.000  
G11  14609621.401    76774152.740         147.133          47.000    14609612.705    59824017.753         114.550          49.000  
G13  15838516.655    83232119.953        3206.371          44.000                                                                  
G15  18687021.381    98201016.612        3855.986          36.000    18687022.188    76520267.762        3004.025          34.000  
G19  19728269.728   103672745.252       -3578.832          32.000                                                                  
G20  14899761.865    78298854.530         725.134          46.000                                                                  
G29  17865149.764    93882027.891        2105.619          41.000    17865144.210    73154798.166        1640.971          35.000  
G30  17212100.279    90450360.613        1668.675          42.000    17212096.554    70480878.615        1300.291          40.000  
R02  16231280.754    86613345.345       -2922.689          47.000    16231273.388    67365867.909       -2273.264          42.000  
R03  13905214.329    74435836.117        -414.939          48.000    13905201.887    57894556.079        -322.657          48.000  
R04  15655751.307    83835955.956        2542.999          45.000    15655742.042    65205659.651        1977.959          45.000  
R12  18499981.703    98823609.413        2303.063          44.000                                                                  
R17  14879667.995    79624111.737       -2963.915          48.000    14879657.924    61929798.310       -2305.334          45.000  
R18  13540217.995    72278682.624         797.953          48.000    13540209.061    56216725.855         620.728          47.000  
R19  15893407.479    85019027.879        3837.342          34.000    15893397.265    66125888.050        2983.835          39.000  
E04  21026379.642   110494435.113        2851.239          39.000    21026379.216    84664581.949        2184.654          40.000  
E10  20335725.096   106864976.085        2684.182          40.000    20335722.716    81883551.534        2056.492          45.000  
E12  18583641.239    97657738.199        1852.145          41.000    18583634.798    74828678.501        1419.166          46.000  
E14  14599632.532    76721591.047        3239.307          39.000                                                                  
E19  18226956.252    95783357.342         687.254          39.000    18226951.161    73392450.989         526.641          46.000  
E20  20654131.716   108538265.365        -454.687          38.000                                                                  
E26  21466457.967   112806914.853       -2331.311          38.000    21466459.456    86436412.960       -1786.632          40.000  
J02  32242380.047   169434832.048          67.652          35.000    32242390.883   132026955.239          52.954          36.000  
J03  31614344.545   166134475.255         830.337          45.000                                                                  
J04  32846683.447   172610472.008        -282.623          43.000    32846674.973   134501631.549        -220.233          46.000  
J07  31511284.855   165592890.568         254.458          37.000    31511277.552   129033417.707         198.059          43.000  
C07  33931476.621   136627865.881       -1166.104          39.000    33931488.070   176690011.766       -1508.274          37.000  
C08  31490737.960   126800213.400         539.907          45.000    31490754.915   163980656.953         698.283          42.000  
C10  33527285.043   135000382.780       -1135.127          38.000    33527291.832   174585294.293       -1467.895          37.000  
C13  32316981.689   130127150.945         557.694          43.000    32316987.462   168283052.198         720.801          41.000  
C14  19637670.181    79072753.187       -1780.625          44.000    19637683.141   102258529.729       -2302.702          38.000  
C24                                                                  20476966.821   106628985.901        1347.722          39.000  
C27                                                                  16607055.958    86477337.511         929.657          48.000  
C28                                                                  16806116.616    87513838.067       -1926.730          47.000  
> 2023 07 11 06 09 35.9810000  0 37                     
G05  15749941.127    82766606.204        1746.664          45.000    15749933.294    64493444.410        1360.910          41.000  
G06  16372222.454    86036644.799       -2292.447          43.000    16372218.537    67041552.162       -1786.419          42.000  
G07  17830642.702    93700858.944         141.989          43.000    17830635.078    73013633.255         110.811          37.000  
G09  19044849.486   100081436.720       -3218.468          36.000    19044846.442    77985575.599       -2508.512          35.000  
G11  14609593.471    76774006.007         146.190          47.000    14609584.715    59823903.413         113.866          49.000  
G13  15837906.468    83228913.766        3205.778          44.000                                                                  
G15  18686287.759    98197160.919        3855.249          36.000    18686288.447    76517263.308        3004.353          34.000  
G19  19728950.709   103676324.454       -3579.262          31.000                                                                  
G20  14899623.976    78298129.431         724.715          46.000                                                                  
G29  17864749.068    93879922.356        2104.933          41.000    17864743.604    73153157.496        1640.478          35.000  
G30  17211782.833    90448692.279        1668.047          42.000    17211779.174    70479578.616        1299.703          40.000  
R02  16231828.483    86616268.105       -2923.043          47.000    16231821.088    67368141.165       -2273.541          42.000  
R03  13905291.845    74436251.238        -415.549          48.000    13905279.398    57894878.951        -323.144          48.000  
R04  15655276.344    83833413.065        2542.482          45.000    15655267.284    65203681.860        1977.489          45.000  
R12  18499550.531    98821306.576        2302.581          44.000                                                                  
R17  14880221.981    79627076.167       -2964.932          48.000    14880211.946    61932103.971       -2306.273          45.000  
R18  13540068.528    72277885.070         796.855          48.000    13540059.721    56216105.533         619.881          47.000  
R19  15892690.271    85015191.527        3836.407          34.000    15892680.124    66122904.201        2983.429          39.000  
E04  21025836.926   110491584.001        2851.101          40.000    21025836.644    84662397.330        2184.556          40.000  
E10  20335214.393   106862292.079        2683.698          41.000    20335211.817    81881494.942        2056.423          45.000  
E12  18583288.746    97655886.234        1851.623          42.000    18583282.436    74827259.457        1418.780          46.000  
E14  14599016.093    76718352.208        3238.075          40.000                                                                  
E19  18226825.482    95782670.345         686.656          40.000    18226820.356    73391924.587         526.089          46.000  
E20  20654218.210   108538720.408        -455.416          39.000                                                                  
E26  21466901.604   112809246.391       -2331.850          39.000    21466903.109    86438199.444       -1786.873          40.000  
J02  32242367.208   169434764.229          67.791          35.000    32242377.996   132026902.381          52.860          36.000  
J03  31614186.554   166133644.874         830.167          45.000                                                                  
J04  32846737.298   172610754.580        -282.741          43.000    32846728.745   134501851.741        -220.468          46.000  
J07  31511236.407   165592636.296         253.731          37.000    31511229.126   129033219.563         197.842          43.000  
C07  33931766.226   136629031.966       -1166.094          40.000    33931777.679   176691519.785       -1508.190          37.000  
C08  31490603.808   126799673.419         539.778          45.000    31490620.931   163979958.645         697.960          42.000  
C10  33527566.940   135001517.867       -1135.161          38.000    33527573.675   174586762.238       -1468.188          37.000  
C13  32316843.215   130126593.283         557.371          43.000    32316848.867   168282331.001         721.021          41.000  
C14  19638112.356    79074533.715       -1780.733          44.000    19638125.364   102260832.358       -2302.958          38.000  
C24                                                                  20476708.005   106627638.435        1347.048          39.000  
C27                                                                  16606877.524    86476408.158         928.871          48.000  
C28                                                                  16806486.780    87515765.025       -1927.397          47.000  
> 2023 07 11 06 09 36.9810000  0 37                     
G05  15749608.709    82764859.574        1746.528          45.000    15749600.803    64492083.420        1360.616          41.000  
G06  16372658.739    86038937.546       -2292.913          43.000    16372654.869    67043338.714       -1786.866          42.000  
G07  17830615.639    93700717.142         141.645          43.000    17830608.102    73013522.765         110.081          37.000  
G09  19045462.007   100084655.262       -3218.650          36.000    19045458.807    77988083.512       -2508.010          35.000  
G11  14609565.605    76773859.932         145.771          47.000    14609556.953    59823789.588         113.577          49.000  
G13  15837296.439    83225708.150        3205.464          44.000                                                                  
G15  18685554.068    98193305.531        3855.407          36.000    18685554.756    76514259.138        3004.210          34.000  
G19  19729631.758   103679903.639       -3578.711          31.000                                                                  
G20  14899486.060    78297404.705         724.626          45.000                                                                  
G29  17864348.633    93877817.565        2104.646          41.000    17864342.937    73151517.415        1639.528          35.000  
G30  17211465.521    90447024.557        1667.374          42.000    17211461.771    70478279.106        1299.017          40.000  
R02  16232376.176    86619191.119       -2923.156          47.000    16232368.860    67370414.608       -2273.299          42.000  
R03  13905369.539    74436666.995        -415.981          48.000    13905357.066    57895202.325        -323.649          48.000  
R04  15654801.632    83830870.776        2542.096          45.000    15654792.626    65201704.525        1977.129          45.000  
R12  18499119.508    98819004.393        2302.022          44.000                                                                  
R17  14880776.032    79630041.317       -2965.283          48.000    14880766.198    61934410.198       -2306.595          45.000  
R18  13539919.314    72277088.506         796.184          48.000    13539910.583    56215485.993         619.090          48.000  
R19  15891973.372    85011355.718        3835.992          34.000    15891963.176    66119920.804        2983.164          39.000  
E04  21025294.340   110488733.235        2850.832          40.000    21025294.092    84660213.002        2184.055          40.000  
E10  20334703.700   106859608.312        2683.672          41.000    20334701.111    81879438.559        2056.323          45.000  
E12  18582936.446    97654034.684        1851.328          42.000    18582930.004    74825840.742        1418.588          46.000  
E14  14598400.054    76715114.898        3236.524          40.000                                                                  
E19  18226694.749    95781983.873         686.303          40.000    18226689.811    73391398.597         525.745          46.000  
E20  20654304.886   108539175.943        -455.845          39.000                                                                  
E26  21467345.176   112811578.243       -2331.757          39.000    21467346.857    86439986.183       -1786.870          40.000  
J02  32242354.267   169434696.514          67.405          35.000    32242365.143   132026849.629          52.145          36.000  
J03  31614028.544   166132814.711         830.043          45.000                                                                  
J04  32846790.996   172611037.273        -282.840          43.000    32846782.508   134502072.007        -220.235          46.000  
J07  31511188.124   165592382.182         253.851          37.000    31511180.782   129033021.533         198.064          43.000  
C07  33932055.851   136630198.201       -1166.240          39.000    33932067.312   176693027.954       -1507.963          37.000  
C08  31490469.780   126799133.516         540.060          45.000    31490486.782   163979260.445         698.232          42.000  
C10  33527848.797   135002653.111       -1135.154          38.000    33527855.619   174588230.352       -1468.075          37.000  
C13  32316704.721   130126035.679         557.475          43.000    32316710.511   168281609.902         721.087          41.000  
C14  19638554.634    79076314.340       -1780.897          44.000    19638567.595   102263135.085       -2302.907          38.000  
C24                                                                  20476449.293   106626291.485        1346.932          39.000  
C27                                                                  16606699.181    86475479.508         928.371          48.000  
C28                                                                  16806856.923    87517692.567       -1927.701          47.000  
> 2023 07 11 06 09 37.9810000  0 37                     
G05  15749276.421    82763113.139        1746.311          45.000    15749268.532    64490722.531        1360.967          41.000  
G06  16373095.151    86041230.639       -2293.336          43.000    16373091.285    67045125.538       -1786.949          42.000  
G07  17830588.725    93700575.818         141.009          43.000    17830581.260    73013412.647         109.812          37.000  
G09  19046074.310   100087873.839       -3218.865          35.000    19046071.229    77990591.499       -2508.123          35.000  
G11  14609538.024    76773714.367         145.342          47.000    14609529.345    59823676.156         113.218          50.000  
G13  15836686.510    83222502.963        3204.813          44.000                                                                  
G15  18684820.380    98189450.286        3855.430          36.000    18684821.191    76511255.064        3003.831          34.000  
G19  19730312.912   103683482.683       -3578.805          31.000                                                                  
G20  14899348.197    78296680.192         724.309          46.000                                                                  
G29  17863948.192    93875713.320        2103.998          41.000    17863942.474    73149877.739        1639.454          35.000  
G30  17211148.312    90445357.267        1666.915          42.000    17211144.536    70476979.919        1298.835          40.000  
R02  16232923.912    86622114.139       -2922.943          47.000    16232916.666    67372688.084       -2273.428          42.000  
R03  13905447.403    74437083.217        -416.364          48.000    13905434.641    57895526.053        -323.815          48.000  
R04  15654326.953    83828328.927        2541.544          45.000    15654317.914    65199727.528        1976.953          45.000  
R12  18498688.698    98816702.682        2301.367          44.000                                                                  
R17  14881330.209    79633007.040       -2966.004          48.000    14881320.432    61936716.861       -2306.935          45.000  
R18  13539770.301    72276292.774         795.292          48.000    13539761.581    56214867.079         618.663          47.000  
R19  15891256.650    85007520.290        3835.360          34.000    15891246.227    66116937.687        2982.827          39.000  
E04  21024752.034   110485882.671        2850.268          39.000    21024751.567    84658028.790        2184.057          40.000  
E10  20334192.968   106856924.639        2683.559          41.000    20334190.350    81877382.240        2056.275          45.000  
E12  18582584.083    97652183.357        1851.220          42.000    18582577.575    74824422.192        1418.388          46.000  
E14  14597784.375    76711878.896        3235.280          40.000                                                                  
E19  18226564.313    95781297.763         685.995          40.000    18226559.215    73390872.882         525.497          46.000  
E20  20654391.550   108539631.805        -455.999          39.000                                                                  
E26  21467788.910   112813910.284       -2332.263          39.000    21467790.803    86441773.039       -1786.788          40.000  
J02  32242341.341   169434628.647          68.296          35.000    32242352.183   132026796.752          53.130          36.000  
J03  31613870.638   166131984.587         830.019          45.000                                                                  
J04  32846844.832   172611319.884        -282.371          43.000    32846836.352   134502292.236        -220.246          46.000  
J07  31511139.722   165592128.018         254.055          37.000    31511132.566   129032823.492         198.083          43.000  
C07  33932345.449   136631364.368       -1165.703          39.000    33932356.963   176694536.146       -1508.577          37.000  
C08  31490335.660   126798593.558         539.917          45.000    31490352.582   163978562.151         698.270          42.000  
C10  33528130.825   135003788.373       -1135.100          38.000    33528137.572   174589698.493       -1467.968          37.000  
C13  32316566.157   130125478.011         557.696          43.000    32316572.069   168280888.729         721.070          41.000  
C14  19638996.811    79078094.903       -1780.550          44.000    19639009.688   102265437.773       -2302.947          38.000  
C24                                                                  20476190.808   106624944.909        1346.442          39.000  
C27                                                                  16606521.063    86474551.387         927.872          48.000  
C28                                                                  16807227.140    87519620.521       -1928.193          47.000  
> 2023 07 11 06 09 38.9810000  0 37                     
G05  15748943.957    82761366.936        1746.142          45.000    15748936.178    64489361.869        1360.652          41.000  
G06  16373531.622    86043524.150       -2293.603          43.000    16373527.794    67046912.686       -1787.510          42.000  
G07  17830561.925    93700435.081         140.539          43.000    17830554.393    73013302.989         109.406          37.000  
G09  19046686.670   100091092.507       -3219.039          35.000    19046683.671    77993099.540       -2508.256          35.000  
G11  14609510.492    76773569.365         144.613          47.000    14609501.773    59823563.161         112.779          49.000  
G13  15836076.568    83219298.229        3204.479          44.000                                                                  
G15  18684086.626    98185595.247        3854.847          36.000    18684087.593    76508251.128        3004.229          35.000  
G19  19730994.011   103687061.619       -3578.921          32.000                                                                  
G20  14899210.346    78295955.944         723.978          46.000                                                                  
G29  17863547.915    93873609.711        2103.049          41.000    17863542.227    73148238.549        1638.915          35.000  
G30  17210831.217    90443690.473        1666.685          43.000    17210827.364    70475681.116        1298.662          40.000  
R02  16233471.708    86625037.254       -2923.154          47.000    16233464.485    67374961.612       -2273.677          42.000  
R03  13905525.201    74437499.975        -417.008          48.000    13905512.487    57895850.196        -324.416          48.000  
R04  15653852.405    83825787.604        2541.028          45.000    15653843.343    65197750.954        1976.302          45.000  
R12  18498257.869    98814401.537        2300.745          44.000                                                                  
R17  14881884.406    79635973.405       -2966.792          48.000    14881874.786    61939024.029       -2307.416          45.000  
R18  13539621.488    72275497.956         794.464          48.000    13539612.561    56214248.896         617.726          47.000  
R19  15890539.625    85003685.307        3835.019          35.000    15890529.403    66113954.930        2982.565          39.000  
E04  21024209.674   110483032.280        2850.324          39.000    21024209.070    84655844.742        2183.913          40.000  
E10  20333682.212   106854241.111        2683.456          41.000    20333679.654    81875326.038        2056.083          45.000  
E12  18582231.812    97650332.329        1850.782          42.000    18582225.519    74823003.873        1418.229          46.000  
E14  14597168.738    76708644.290        3233.905          40.000                                                                  
E19  18226433.771    95780612.097         685.388          40.000    18226428.783    73390347.492         525.186          46.000  
E20  20654478.402   108540088.074        -456.684          39.000                                                                  
E26  21468232.645   112816242.527       -2332.561          39.000    21468234.537    86443560.085       -1787.019          40.000  
J02  32242328.495   169434560.835          67.808          35.000    32242339.320   132026743.901          52.970          36.000  
J03  31613712.725   166131154.563         829.875          45.000                                                                  
J04  32846898.646   172611602.513        -282.593          43.000    32846890.156   134502512.473        -220.511          46.000  
J07  31511091.393   165591873.952         253.472          37.000    31511084.231   129032625.514         197.852          43.000  
C07  33932635.072   136632530.643       -1166.415          39.000    33932646.616   176696044.351       -1508.566          37.000  
C08  31490201.584   126798053.562         539.902          45.000    31490218.508   163977863.815         698.241          42.000  
C10  33528412.768   135004923.687       -1135.625          38.000    33528419.560   174591166.713       -1468.367          37.000  
C13  32316427.614   130124920.345         557.480          43.000    32316433.463   168280167.532         721.223          41.000  
C14  19639438.993    79079875.508       -1780.767          44.000    19639451.855   102267740.474       -2302.898          38.000  
C24                                                                  20475932.331   106623598.767        1345.414          39.000  
C27                                                                  16606342.965    86473623.859         927.042          48.000  
C28                                                                  16807597.491    87521548.956       -1928.829          47.000  
> 2023 07 11 06 09 39.9810000  0 37                     
G05  15748611.645    82759620.854        1746.052          45.000    15748603.724    64488001.287        1360.515          41.000  
G06  16373968.205    86045817.939       -2293.907          43.000    16373964.267    67048700.059       -1787.877          42.000  
G07  17830535.312    93700294.770         140.132          43.000    17830527.758    73013193.652         108.921          37.000  
G09  19047299.236   100094311.148       -3218.987          35.000    19047296.129    77995607.552       -2507.885          35.000  
G11  14609482.957    76773424.778         144.311          47.000    14609474.300    59823450.504         112.420          50.000  
G13  15835466.841    83216093.835        3204.022          44.000                                                                  
G15  18683353.105    98181740.249        3855.140          36.000    18683354.026    76505247.254        3003.827          35.000  
G19  19731674.924   103690640.312       -3578.803          32.000                                                                  
G20  14899072.501    78295231.820         723.925          46.000                                                                  
G29  17863147.729    93871506.566        2102.702          41.000    17863141.985    73146599.734        1638.547          35.000  
G30  17210514.081    90442024.069        1666.199          42.000    17210510.254    70474382.615        1298.212          40.000  
R02  16234019.511    86627960.339       -2923.200          47.000    16234012.245    67377235.119       -2273.589          42.000  
R03  13905603.121    74437917.121        -417.541          48.000    13905590.418    57896174.637        -324.539          48.000  
R04  15653377.869    83823246.631        2540.640          45.000    15653368.812    65195774.643        1976.112          45.000  
R12  18497827.114    98812100.774        2300.407          44.000                                                                  
R17  14882438.864    79638940.299       -2967.262          48.000    14882429.271    61941331.616       -2307.985          45.000  
R18  13539472.838    72274703.921         793.477          48.000    13539463.729    56213631.309         617.150          48.000  
R19  15889822.624    84999850.669        3834.501          34.000    15889812.531    66110972.415        2982.258          39.000  
E04  21023667.292   110480182.035        2849.903          39.000    21023666.822    84653660.783        2183.906          39.000  
E10  20333171.574   106851557.613        2683.214          41.000    20333169.004    81873269.849        2055.989          44.000  
E12  18581879.715    97648481.464        1850.431          42.000    18581873.228    74821585.673        1418.031          46.000  
E14  14596553.504    76705410.947        3232.572          40.000                                                                  
E19  18226303.293    95779926.710         685.191          40.000    18226298.316    73389822.332         524.954          46.000  
E20  20654565.260   108540544.610        -456.780          39.000                                                                  
E26  21468676.346   112818574.858       -2332.569          39.000    21468678.482    86445347.188       -1787.194          39.000  
J02  32242315.586   169434492.829          68.047          35.000    32242326.325   132026690.894          53.312          36.000  
J03  31613554.778   166130324.501         830.259          45.000                                                                  
J04  32846952.399   172611885.008        -282.643          43.000    32846943.892   134502732.588        -220.246          46.000  
J07  31511043.032   165591619.761         253.958          37.000    31511035.873   129032427.442         198.056          43.000  
C07  33932924.669   136633696.796       -1166.187          39.000    33932936.342   176697552.467       -1508.270          37.000  
C08  31490067.478   126797513.449         540.157          45.000    31490084.451   163977165.335         698.546          42.000  
C10  33528694.703   135006058.962       -1135.466          38.000    33528701.471   174592634.872       -1468.300          37.000  
C13  32316289.077   130124362.531         558.038          43.000    32316294.906   168279446.176         721.310          41.000  
C14  19639881.205    79081656.004       -1780.511          44.000    19639894.155   102270043.051       -2302.499          38.000  
C24                                                                  20475673.911   106622252.870        1345.622          38.000  
C27                                                                  16606164.861    86472696.775         926.755          48.000  
C28                                                                  16807967.887    87523477.701       -1928.865          47.000  
> 2023 07 11 06 09 40.9810000  0 37                     
G05  15748279.379    82757874.765        1745.905          45.000    15748271.459    64486640.696        1360.382          41.000  
G06  16374404.799    86048111.910       -2294.341          43.000    16374400.847    67050487.552       -1787.790          42.000  
G07  17830508.602    93700154.778         139.793          43.000    17830501.043    73013084.541         109.396          37.000  
G09  19047911.648   100097529.624       -3218.745          35.000    19047908.595    77998115.461       -2507.601          35.000  
G11  14609455.509    76773280.509         144.021          47.000    14609446.781    59823338.086         112.178          49.000  
G13  15834857.048    83212889.655        3203.784          44.000                                                                  
G15  18682619.550    98177885.243        3854.840          36.000    18682620.400    76502243.357        3003.650          35.000  
G19  19732355.673   103694218.668       -3579.188          32.000                                                                  
G20  14898934.734    78294507.708         723.775          46.000                                                                  
G29  17862747.589    93869403.792        2102.389          41.000    17862741.798    73144961.225        1638.237          35.000  
G30  17210197.009    90440357.907        1665.886          43.000    17210193.191    70473084.316        1298.026          40.000  
R02  16234567.265    86630883.325       -2923.144          46.000    16234560.026    67379508.540       -2273.307          42.000  
R03  13905681.055    74438334.525        -417.789          48.000    13905668.459    57896499.291        -324.812          48.000  
R04  15652903.417    83820705.851        2540.593          45.000    15652894.397    65193798.489        1975.939          45.000  
R12  18497396.537    98809800.276        2300.382          44.000                                                                  
R17  14882993.290    79641907.607       -2967.728          48.000    14882983.861    61943639.513       -2308.243          45.000  
R18  13539324.209    72273910.509         792.875          48.000    13539315.181    56213014.206         616.695          48.000  
R19  15889105.725    84996016.194        3833.897          34.000    15889095.722    66107990.047        2982.128          39.000  
E04  21023124.993   110477331.731        2850.195          39.000    21023124.442    84651476.799        2183.779          40.000  
E10  20332660.818   106848873.980        2683.779          40.000    20332658.267    81871213.571        2056.198          45.000  
E12  18581527.566    97646630.618        1850.771          42.000    18581520.981    74820167.497        1418.149          47.000  
E14  14595938.415    76702178.742        3231.447          39.000                                                                  
E19  18226172.868    95779241.512         684.886          39.000    18226168.016    73389297.302         524.923          47.000  
E20  20654652.292   108541001.297        -457.158          38.000                                                                  
E26  21469120.157   112820907.160       -2332.507          38.000    21469122.282    86447134.268       -1787.101          40.000  
J02  32242302.617   169434424.551          68.632          35.000    32242313.293   132026637.737          52.934          36.000  
J03  31613396.765   166129494.311         829.974          45.000                                                                  
J04  32847006.097   172612167.239        -282.272          43.000    32846997.645   134502952.506        -219.973          46.000  
J07  31510994.621   165591365.363         254.543          37.000    31510987.610   129032229.222         198.253          43.000  
C07  33933214.281   136634862.799       -1166.162          39.000    33933226.003   176699060.352       -1508.104          37.000  
C08  31489933.225   126796973.120         540.298          45.000    31489950.199   163976466.567         698.683          42.000  
C10  33528976.664   135007194.089       -1135.386          38.000    33528983.493   174594102.857       -1468.219          37.000  
C13  32316150.452   130123804.527         558.010          43.000    32316156.319   168278724.536         721.750          41.000  
C14  19640323.394    79083436.317       -1780.179          44.000    19640336.186   102272345.407       -2302.725          38.000  
C24                                                                  20475415.606   106620907.172        1345.531          38.000  
C27                                                                  16605986.810    86471770.033         926.440          48.000  
C28                                                                  16808338.317    87525406.686       -1929.257          47.000  
> 2023 07 11 06 09 41.9810000  0 37                     
G05  15747947.249    82756129.093        1745.552          45.000    15747939.294    64485280.429        1360.394          41.000  
G06  16374841.455    86050406.459       -2294.664          43.000    16374837.515    67052275.511       -1787.935          42.000  
G07  17830481.977    93700015.548         139.003          43.000    17830474.653    73012976.084         108.185          37.000  
G09  19048524.173   100100748.397       -3219.384          36.000    19048521.135    78000623.601       -2508.302          35.000  
G11  14609428.271    76773136.990         143.273          47.000    14609419.475    59823226.258         111.572          49.000  
G13  15834247.338    83209686.137        3203.176          44.000                                                                  
G15  18681885.978    98174030.601        3854.567          36.000    18681886.873    76499239.752        3003.416          34.000  
G19  19733036.515   103697797.106       -3578.644          32.000                                                                  
G20  14898797.003    78293784.055         723.369          46.000                                                                  
G29  17862347.620    93867301.836        2101.531          41.000    17862341.829    73143323.341        1637.349          35.000  
G30  17209880.044    90438692.438        1665.000          42.000    17209876.209    70471786.564        1297.322          40.000  
R02  16235115.039    86633806.602       -2923.369          46.000    16235107.849    67381782.208       -2273.653          42.000  
R03  13905759.273    74438752.648        -418.414          48.000    13905746.488    57896824.496        -325.404          48.000  
R04  15652429.108    83818165.738        2539.990          45.000    15652420.088    65191822.850        1975.297          45.000  
R12  18496966.049    98807500.511        2299.477          44.000                                                                  
R17  14883548.048    79644875.744       -2968.488          48.000    14883538.508    61945948.054       -2308.709          45.000  
R18  13539175.782    72273118.198         791.825          48.000    13539166.836    56212397.965         615.834          48.000  
R19  15888388.722    84992182.355        3833.358          34.000    15888379.100    66105008.197        2981.562          39.000  
E04  21022582.741   110474481.884        2849.708          39.000    21022582.035    84649293.146        2183.511          40.000  
E10  20332150.199   106846190.715        2683.370          40.000    20332147.577    81869157.565        2055.993          45.000  
E12  18581175.403    97644780.265        1850.407          42.000    18581168.865    74818749.701        1417.653          46.000  
E14  14595323.628    76698948.105        3230.054          39.000                                                                  
E19  18226042.802    95778556.932         684.193          39.000    18226037.688    73388772.754         524.290          46.000  
E20  20654739.361   108541458.565        -457.644          38.000                                                                  
E26  21469564.190   112823239.870       -2333.110          38.000    21469566.134    86448921.667       -1787.681          40.000  
J02  32242289.698   169434356.480          68.081          35.000    32242300.286   132026584.685          52.526          36.000  
J03  31613238.807   166128664.406         829.629          45.000                                                                  
J04  32847059.824   172612449.671        -282.483          43.000    32847051.311   134503172.579        -220.025          46.000  
J07  31510946.317   165591111.247         253.892          37.000    31510939.161   129032031.199         197.954          43.000  
C07  33933503.853   136636028.952       -1166.009          39.000    33933515.599   176700568.463       -1508.233          37.000  
C08  31489799.080   126796432.924         540.021          45.000    31489816.122   163975767.963         698.466          42.000  
C10  33529258.676   135008329.415       -1135.368          38.000    33529265.547   174595571.117       -1468.882          37.000  
C13  32316011.934   130123246.644         557.882          43.000    32316017.882   168278003.069         721.386          41.000  
C14  19640765.609    79085216.788       -1780.621          44.000    19640778.395   102274647.925       -2302.394          38.000  
C24                                                                  20475157.242   106619562.078        1344.823          38.000  
C27                                                                  16605809.130    86470844.077         925.587          48.000  
C28                                                                  16808708.852    87527336.320       -1929.940          47.000  
> 2023 07 11 06 09 42.9810000  0 37                     
G05  15747615.147    82754383.547        1745.465          45.000    15747607.254    64483920.274        1359.934          41.000  
G06  16375278.099    86052701.294       -2294.863          43.000    16375274.285    67054063.697       -1788.313          42.000  
G07  17830455.467    93699876.726         138.698          43.000    17830448.269    73012867.922         107.720          37.000  
G09  19049136.772   100103967.099       -3218.874          36.000    19049133.719    78003131.700       -2508.414          35.000  
G11  14609400.980    76772993.896         142.998          47.000    14609392.225    59823114.752         111.386          49.000  
G13  15833637.747    83206482.947        3202.856          44.000                                                                  
G15  18681152.476    98170176.031        3854.452          36.000    18681153.227    76496236.174        3004.131          35.000  
G19  19733717.402   103701375.260       -3578.094          32.000                                                                  
G20  14898659.285    78293060.518         723.464          46.000                                                                  
G29  17861947.681    93865200.355        2101.099          41.000    17861941.941    73141685.819        1636.976          35.000  
G30  17209563.179    90437027.333        1664.820          42.000    17209559.449    70470489.082        1297.320          40.000  
R02  16235662.823    86636729.816       -2923.135          46.000    16235655.715    67384055.813       -2273.629          42.000  
R03  13905837.482    74439171.116        -418.710          48.000    13905824.620    57897149.976        -325.640          48.000  
R04  15651954.809    83815625.968        2539.420          46.000    15651945.837    65189847.467        1975.248          45.000  
R12  18496535.627    98805201.134        2299.021          44.000                                                                  
R17  14884102.884    79647844.389       -2968.889          48.000    14884093.295    61948257.002       -2309.174          45.000  
R18  13539027.490    72272326.657         791.143          48.000    13539018.542    56211782.320         615.340          48.000  
R19  15887671.949    84988348.852        3833.458          35.000    15887662.462    66102026.541        2981.876          39.000  
E04  21022040.383   110471632.095        2849.672          38.000    21022039.618    84647109.556        2183.363          40.000  
E10  20331639.600   106843507.467        2683.216          40.000    20331636.980    81867101.567        2055.877          45.000  
E12  18580823.435    97642930.073        1850.049          42.000    18580816.861    74817332.019        1417.595          47.000  
E14  14594709.079    76695718.725        3228.801          39.000                                                                  
E19  18225912.525    95777872.634         684.218          39.000    18225907.353    73388248.438         524.063          46.000  
E20  20654826.364   108541916.071        -457.427          38.000                                                                  
E26  21470008.149   112825572.643       -2332.816          38.000    21470010.124    86450709.114       -1787.404          40.000  
J02  32242276.657   169434288.208          68.298          35.000    32242287.294   132026531.494          52.941          36.000  
J03  31613080.860   166127834.447         829.894          45.000                                                                  
J04  32847113.569   172612731.956        -282.101          43.000    32847104.925   134503392.544        -219.865          46.000  
J07  31510897.949   165590857.009         254.256          38.000    31510890.765   129031833.108         197.978          43.000  
C07  33933793.438   136637195.051       -1165.950          39.000    33933805.269   176702076.484       -1507.932          37.000  
C08  31489664.912   126795892.602         540.308          45.000    31489681.966   163975069.201         698.923          42.000  
C10  33529540.609   135009464.678       -1135.120          38.000    33529547.574   174597039.254       -1467.852          37.000  
C13  32315873.307   130122688.652         557.975          43.000    32315879.266   168277281.441         721.861          41.000  
C14  19641207.746    79086997.171       -1780.453          44.000    19641220.511   102276950.356       -2302.203          38.000  
C24                                                                  20474898.997   106618217.264        1344.479          38.000  
C27                                                                  16605631.465    86469918.560         925.350          48.000  
C28                                                                  16809079.405    87529266.274       -1929.995          47.000  
> 2023 07 11 06 09 43.9810000  0 37                     
G05  15747282.972    82752638.043        1745.490          45.000    15747275.028    64482560.129        1360.137          41.000  
G06  16375714.864    86054996.347       -2294.953          43.000    16375711.011    67055852.035       -1788.448          42.000  
G07  17830429.150    93699738.285         138.441          43.000    17830421.973    73012760.032         107.621          37.000  
G09  19049749.291   100107185.719       -3218.530          36.000    19049746.306    78005639.708       -2508.334          36.000  
G11  14609373.834    76772851.167         142.551          47.000    14609365.057    59823003.531         111.081          49.000  
G13  15833028.277    83203280.017        3202.969          44.000                                                                  
G15  18680418.837    98166321.432        3854.342          36.000    18680419.704    76493232.624        3003.566          35.000  
G19  19734398.327   103704953.151       -3576.935          32.000                                                                  
G20  14898521.688    78292337.051         723.498          46.000                                                                  
G29  17861547.801    93863099.287        2100.630          41.000    17861542.016    73140048.634        1636.917          35.000  
G30  17209246.473    90435362.522        1664.714          42.000    17209242.612    70469191.822        1297.146          40.000  
R02  16236210.625    86639652.918       -2923.009          47.000    16236203.522    67386329.337       -2273.313          42.000  
R03  13905915.731    74439589.885        -418.922          48.000    13905902.840    57897475.689        -325.912          48.000  
R04  15651480.587    83813086.503        2539.423          46.000    15651471.574    65187872.337        1975.089          45.000  
R12  18496105.256    98802902.102        2298.826          45.000                                                                  
R17  14884657.918    79650813.497       -2969.356          48.000    14884648.084    61950566.303       -2309.462          45.000  
R18  13538879.342    72271535.812         790.538          48.000    13538870.414    56211167.215         614.971          48.000  
R19  15886955.488    84984515.575        3833.136          35.000    15886945.860    66099045.140        2981.314          39.000  
E04  21021498.008   110468782.364        2849.649          38.000    21021497.407    84644925.990        2183.547          40.000  
E10  20331129.094   106840824.150        2683.482          40.000    20331126.334    81865045.519        2056.075          45.000  
E12  18580471.369    97641079.973        1849.960          41.000    18580464.817    74815914.404        1417.596          47.000  
E14  14594094.953    76692490.535        3227.665          39.000                                                                  
E19  18225782.339    95777188.558         683.923          39.000    18225777.302    73387724.259         524.024          47.000  
E20  20654913.324   108542373.819        -458.000          38.000                                                                  
E26  21470452.071   112827905.453       -2332.855          37.000    21470454.147    86452496.581       -1787.308          40.000  
J02  32242263.595   169434219.737          68.349          35.000    32242274.305   132026478.125          53.300          36.000  
J03  31612922.876   166127004.403         830.264          45.000                                                                  
J04  32847167.277   172613014.032        -281.823          43.000    32847158.624   134503612.361        -219.832          46.000  
J07  31510849.536   165590602.626         254.372          37.000    31510842.384   129031634.878         198.339          43.000  
C07  33934083.009   136638361.025       -1165.809          39.000    33934094.901   176703584.349       -1507.988          37.000  
C08  31489530.714   126795352.115         540.475          45.000    31489547.642   163974370.227         699.362          42.000  
C10  33529822.488   135010599.890       -1135.296          38.000    33529829.394   174598507.310       -1467.544          37.000  
C13  32315734.676   130122130.484         558.261          43.000    32315740.695   168276559.633         721.721          41.000  
C14  19641649.907    79088777.397       -1780.155          44.000    19641662.689   102279252.592       -2302.002          38.000  
C24                                                                  20474640.818   106616872.643        1344.811          38.000  
C27                                                                  16605453.831    86468993.438         924.937          48.000  
C28                                                                  16809450.105    87531196.511       -1930.417          47.000  
> 2023 07 11 06 09 44.9810000  0 37                     
G05  15746950.869    82750892.794        1745.306          44.000    15746942.922    64481200.200        1360.273          41.000  
G06  16376151.596    86057291.849       -2295.516          43.000    16376147.807    67057640.724       -1788.536          42.000  
G07  17830402.967    93699600.431         137.620          43.000    17830395.765    73012652.612         107.108          37.000  
G09  19050361.860   100110404.486       -3218.819          36.000    19050358.814    78008147.819       -2508.535          35.000  
G11  14609346.768    76772709.023         141.966          47.000    14609337.991    59822892.765         110.686          49.000  
G13  15832418.862    83200077.598        3202.386          44.000                                                                  
G15  18679685.468    98162467.085        3854.554          36.000    18679686.384    76490229.249        3003.260          35.000  
G19  19735079.091   103708530.968       -3577.233          31.000                                                                  
G20  14898384.065    78291613.869         723.242          46.000                                                                  
G29  17861148.092    93860998.862        2100.238          41.000    17861142.241    73138411.930        1636.702          35.000  
G30  17208929.661    90433698.242        1664.194          42.000    17208925.957    70467894.999        1296.420          40.000  
R02  16236758.531    86642576.197       -2923.211          47.000    16236751.243    67388602.997       -2273.483          42.000  
R03  13905994.101    74440009.198        -419.377          48.000    13905981.157    57897801.816        -326.083          48.000  
R04  15651006.480    83810547.586        2538.961          45.000    15650997.501    65185897.630        1974.743          45.000  
R12  18495674.964    98800603.636        2298.543          45.000                                                                  
R17  14885212.885    79653783.289       -2969.952          48.000    14885203.143    61952876.134       -2309.906          45.000  
R18  13538731.399    72270745.880         789.665          48.000    13538722.467    56210552.823         614.272          48.000  
R19  15886239.045    84980682.784        3832.426          35.000    15886229.409    66096064.080        2980.917          39.000  
E04  21020955.922   110465932.846        2849.730          38.000    21020955.247    84642742.602        2183.418          39.000  
E10  20330618.578   106838141.023        2683.084          40.000    20330615.831    81862989.608        2056.028          44.000  
E12  18580119.364    97639230.184        1849.819          41.000    18580112.865    74814497.041        1417.396          46.000  
E14  14593480.678    76689263.769        3226.014          39.000                                                                  
E19  18225652.268    95776504.919         683.570          39.000    18225647.231    73387200.449         523.739          46.000  
E20  20655000.535   108542831.962        -458.289          38.000                                                                  
E26  21470896.146   112830238.504       -2332.865          38.000    21470897.948    86454284.246       -1787.695          39.000  
J02  32242250.453   169434151.262          68.524          35.000    32242261.326   132026424.759          53.555          36.000  
J03  31612764.890   166126174.500         829.982          45.000                                                                  
J04  32847220.924   172613296.153        -281.964          43.000    32847212.367   134503832.177        -219.690          46.000  
J07  31510801.130   165590348.303         254.735          37.000    31510793.921   129031436.719         198.179          43.000  
C07  33934372.573   136639527.052       -1165.861          39.000    33934384.481   176705092.266       -1507.522          37.000  
C08  31489396.495   126794811.622         540.534          45.000    31489413.361   163973671.268         699.357          42.000  
C10  33530104.480   135011735.157       -1135.267          38.000    33530111.194   174599975.492       -1467.923          37.000  
C13  32315596.087   130121572.299         558.343          43.000    32315601.948   168275837.771         722.083          41.000  
C14  19642091.986    79090557.649       -1780.123          44.000    19642104.881   102281554.897       -2302.422          38.000  
C24                                                                  20474382.707   106615528.518        1343.869          38.000  
C27                                                                  16605276.254    86468068.937         924.376          48.000  
C28                                                                  16809820.851    87533127.235       -1930.815          47.000  
> 2023 07 11 06 09 45.9810000  0 37                     
G05  15746618.806    82749147.867        1744.574          44.000    15746610.917    64479840.526        1359.509          41.000  
G06  16376588.539    86059587.803       -2296.166          43.000    16376584.664    67059429.788       -1789.242          42.000  
G07  17830376.818    93699463.188         137.126          43.000    17830369.660    73012545.684         106.600          37.000  
G09  19050974.570   100113623.380       -3219.013          36.000    19050971.333    78010656.040       -2508.337          35.000  
G11  14609319.908    76772567.488         141.238          47.000    14609311.009    59822782.483         110.030          49.000  
G13  15831809.589    83196875.700        3201.574          44.000                                                                  
G15  18678952.096    98158612.986        3854.392          36.000    18678952.912    76487226.066        3003.280          35.000  
G19  19735760.062   103712108.776       -3578.611          30.000                                                                  
G20  14898246.535    78290890.999         722.713          46.000                                                                  
G29  17860748.508    93858899.111        2099.415          41.000    17860742.756    73136775.767        1635.816          36.000  
G30  17208613.108    90432034.527        1663.467          42.000    17208609.442    70466598.595        1296.007          40.000  
R02  16237306.496    86645499.679       -2923.702          46.000    16237299.136    67390876.811       -2273.878          42.000  
R03  13906072.472    74440429.111        -420.439          48.000    13906059.695    57898128.421        -326.921          48.000  
R04  15650532.384    83808009.215        2538.123          45.000    15650523.432    65183923.339        1974.080          45.000  
R12  18495244.815    98798305.736        2297.644          45.000                                                                  
R17  14885767.937    79656753.781       -2970.959          48.000    14885758.289    61955186.519       -2310.717          45.000  
R18  13538583.602    72269956.906         788.283          48.000    13538574.683    56209939.183         613.103          48.000  
R19  15885522.753    84976850.490        3831.783          35.000    15885513.043    66093083.407        2980.425          39.000  
E04  21020413.706   110463083.653        2848.882          39.000    21020413.041    84640559.471        2182.773          40.000  
E10  20330107.886   106835458.079        2682.762          41.000    20330105.323    81860933.866        2055.595          45.000  
E12  18579767.495    97637380.749        1849.220          42.000    18579760.821    74813079.942        1416.900          47.000  
E14  14592866.868    76686038.434        3224.451          40.000                                                                  
E19  18225522.307    95775821.818         682.814          39.000    18225517.297    73386677.029         523.270          47.000  
E20  20655087.916   108543290.565        -459.008          38.000                                                                  
E26  21471340.061   112832571.843       -2333.548          38.000    21471341.950    86456072.135       -1788.259          40.000  
J02  32242237.512   169434082.807          68.742          35.000    32242248.390   132026371.433          53.472          36.000  
J03  31612607.011   166125344.736         829.705          45.000                                                                  
J04  32847274.684   172613578.306        -282.127          43.000    32847266.073   134504052.047        -219.983          46.000  
J07  31510752.817   165590094.099         254.229          37.000    31510745.469   129031238.634         198.140          43.000  
C07  33934662.178   136640693.147       -1166.218          39.000    33934674.030   176706600.278       -1507.753          37.000  
C08  31489262.218   126794271.137         540.586          45.000    31489279.160   163972972.306         698.807          42.000  
C10  33530386.496   135012870.545       -1135.505          38.000    33530393.301   174601443.769       -1468.347          37.000  
C13  32315457.493   130121014.152         558.174          43.000    32315463.352   168275115.955         721.870          41.000  
C14  19642534.115    79092337.977       -1780.462          44.000    19642547.023   102283857.211       -2302.431          38.000  
C24                                                                  20474124.714   106614184.835        1343.198          38.000  
C27                                                                  16605098.898    86467145.072         923.508          48.000  
C28                                                                  16810191.793    87535058.480       -1931.460          47.000  
> 2023 07 11 06 09 46.9810000  0 37                     
G05  15746286.733    82747403.204        1744.323          45.000    15746278.965    64478481.056        1359.129          41.000  
G06  16377025.510    86061884.217       -2296.955          43.000    16377021.699    67061219.205       -1789.839          42.000  
G07  17830350.902    93699326.549         136.195          43.000    17830343.699    73012439.227         105.756          37.000  
G09  19051587.149   100116842.424       -3219.675          36.000    19051583.892    78013164.369       -2508.501          35.000  
G11  14609293.072    76772426.565         140.461          47.000    14609284.287    59822672.668         109.499          49.000  
G13  15831200.379    83193674.300        3201.019          44.000                                                                  
G15  18678218.800    98154759.145        3853.781          36.000    18678219.469    76484223.065        3002.969          35.000  
G19  19736440.809   103715686.510       -3578.005          30.000                                                                  
G20  14898109.044    78290168.437         722.399          46.000                                                                  
G29  17860349.065    93856800.020        2098.865          41.000    17860343.356    73135140.110        1635.392          35.000  
G30  17208296.637    90430371.337        1662.741          42.000    17208292.851    70465302.583        1295.927          40.000  
R02  16237854.458    86648423.324       -2923.966          46.000    16237847.063    67393150.758       -2273.984          42.000  
R03  13906151.086    74440849.576        -420.880          48.000    13906138.229    57898455.452        -327.332          48.000  
R04  15650058.472    83805471.354        2537.576          45.000    15650049.637    65181949.453        1973.650          45.000  
R12  18494814.800    98796008.398        2296.897          45.000                                                                  
R17  14886323.171    79659724.928       -2971.579          48.000    14886313.527    61957497.414       -2311.368          46.000  
R18  13538435.979    72269168.873         787.404          48.000    13538427.067    56209326.263         612.418          48.000  
R19  15884806.443    84973018.648        3832.055          35.000    15884796.753    66090103.115        2979.843          39.000  
E04  21019871.499   110460234.704        2848.813          39.000    21019870.941    84638376.517        2182.783          39.000  
E10  20329597.243   106832775.321        2682.866          41.000    20329594.768    81858878.253        2055.410          44.000  
E12  18579415.509    97635531.646        1848.716          42.000    18579408.888    74811663.094        1416.626          46.000  
E14  14592253.538    76682814.522        3223.269          39.000                                                                  
E19  18225392.313    95775139.156         682.421          39.000    18225387.226    73386153.949         522.976          46.000  
E20  20655175.084   108543749.593        -459.591          38.000                                                                  
E26  21471784.229   112834905.435       -2333.904          38.000    21471785.903    86457860.191       -1788.372          40.000  
J02  32242224.478   169434014.396          68.193          35.000    32242235.335   132026318.129          53.061          36.000  
J03  31612449.091   166124515.116         829.478          45.000                                                                  
J04  32847328.385   172613860.508        -282.450          43.000    32847319.778   134504271.941        -219.979          46.000  
J07  31510704.491   165589839.971         254.460          37.000    31510697.164   129031040.626         197.942          43.000  
C07  33934951.825   136641859.287       -1166.315          39.000    33934963.715   176708108.385       -1508.126          37.000  
C08  31489128.006   126793730.682         540.394          45.000    31489145.073   163972273.369         698.806          42.000  
C10  33530668.529   135014005.983       -1135.620          38.000    33530675.223   174602912.182       -1468.967          37.000  
C13  32315318.973   130120456.020         557.876          43.000    32315324.695   168274394.158         721.680          41.000  
C14  19642976.290    79094118.318       -1780.369          43.000    19642989.230   102286159.614       -2302.841          38.000  
C24                                                                  20473866.841   106612841.606        1342.781          38.000  
C27                                                                  16604921.539    86466221.830         922.878          48.000  
C28                                                                  16810562.728    87536990.228       -1932.238          47.000  
> 2023 07 11 06 09 47.9810000  0 37                     
G05  15745954.756    82745658.731        1744.355          44.000    15745947.059    64477121.715        1359.374          41.000  
G06  16377462.665    86064180.970       -2296.908          43.000    16377458.827    67063008.876       -1789.892          42.000  
G07  17830325.007    93699190.426         135.722          43.000    17830317.695    73012333.121         106.359          37.000  
G09  19052199.751   100120061.490       -3219.619          36.000    19052196.417    78015672.762       -2508.331          34.000  
G11  14609266.366    76772286.130         140.169          47.000    14609257.587    59822563.238         109.217          49.000  
G13  15830591.205    83190473.315        3200.676          44.000                                                                  
G15  18677485.432    98150905.460        3853.282          37.000    18677486.101    76481220.163        3003.324          35.000  
G19  19737121.574   103719264.052       -3577.708          30.000                                                                  
G20  14897971.600    78289446.073         722.156          46.000                                                                  
G29  17859949.774    93854701.486        2098.200          41.000    17859944.093    73133504.885        1635.245          36.000  
G30  17207980.169    90428708.597        1662.566          42.000    17207976.487    70464006.967        1295.251          40.000  
R02  16238402.395    86651346.977       -2923.690          46.000    16238394.976    67395424.702       -2274.036          42.000  
R03  13906229.740    74441270.518        -421.190          48.000    13906216.835    57898782.855        -327.667          48.000  
R04  15649584.688    83802933.916        2537.315          45.000    15649575.770    65179975.891        1973.393          45.000  
R12  18494384.608    98793711.565        2296.351          45.000                                                                  
R17  14886878.547    79662696.676       -2972.039          48.000    14886868.855    61959808.770       -2311.726          46.000  
R18  13538288.595    72268381.696         786.719          48.000    13538279.599    56208714.010         611.960          48.000  
R19  15884090.363    84969187.239        3831.430          34.000    15884080.551    66087123.122        2979.733          39.000  
E04  21019329.443   110457385.940        2848.519          39.000    21019328.924    84636193.697        2182.612          40.000  
E10  20329086.856   106830092.677        2682.346          41.000    20329084.256    81856822.714        2055.355          45.000  
E12  18579063.861    97633682.770        1848.566          42.000    18579057.099    74810246.423        1416.573          47.000  
E14  14591640.308    76679591.946        3221.861          40.000                                                                  
E19  18225262.377    95774456.859         681.942          39.000    18225257.380    73385631.145         522.627          47.000  
E20  20655262.378   108544208.915        -459.287          38.000                                                                  
E26  21472228.296   112837239.172       -2333.488          38.000    21472230.179    86459648.365       -1788.166          40.000  
J02  32242211.435   169433945.924          68.032          35.000    32242222.247   132026264.755          53.123          36.000  
J03  31612291.194   166123685.544         829.405          45.000                                                                  
J04  32847382.072   172614142.638        -281.949          43.000    32847373.521   134504491.793        -219.884          46.000  
J07  31510656.033   165589585.870         254.100          38.000    31510648.775   129030842.608         198.096          43.000  
C07  33935241.401   136643025.422       -1166.152          39.000    33935253.311   176709616.457       -1508.057          37.000  
C08  31488993.740   126793190.160         540.551          45.000    31489010.864   163971574.354         699.017          42.000  
C10  33530950.400   135015141.446       -1135.741          38.000    33530957.298   174604380.578       -1468.669          37.000  
C13  32315180.254   130119897.797         558.350          43.000    32315185.994   168273672.271         721.937          41.000  
C14  19643418.417    79095898.636       -1780.282          44.000    19643431.416   102288461.921       -2302.530          38.000  
C24                                                                  20473608.926   106611498.732        1342.657          39.000  
C27                                                                  16604744.402    86465299.118         922.425          48.000  
C28                                                                  16810933.841    87538922.377       -1932.391          47.000  
> 2023 07 11 06 09 48.9810000  0 37                     
G05  15745622.810    82743914.487        1743.807          44.000    15745615.287    64475762.580        1358.881          41.000  
G06  16377899.795    86066478.124       -2297.122          43.000    16377896.062    67064798.864       -1790.290          42.000  
G07  17830299.133    93699054.828         135.312          43.000    17830291.934    73012227.476         105.696          37.000  
G09  19052812.205   100123280.611       -3219.267          36.000    19052808.902    78018181.195       -2508.380          34.000  
G11  14609239.825    76772146.234         139.690          47.000    14609230.862    59822454.231         108.830          49.000  
G13  15829982.156    83187272.776        3200.140          44.000                                                                  
G15  18676752.148    98147051.890        3853.419          36.000    18676752.829    76478217.415        3002.935          35.000  
G19  19737802.444   103722841.470       -3577.500          30.000                                                                  
G20  14897834.166    78288723.946         722.027          46.000                                                                  
G29  17859550.575    93852603.541        2097.687          41.000    17859544.855    73131870.134        1634.620          36.000  
G30  17207663.903    90427046.335        1662.051          42.000    17207660.151    70462711.703        1294.835          40.000  
R02  16238950.179    86654270.685       -2923.685          47.000    16238942.896    67397698.705       -2274.250          42.000  
R03  13906308.553    74441691.951        -421.689          48.000    13906295.595    57899110.640        -328.041          48.000  
R04  15649110.907    83800396.933        2536.576          45.000    15649101.966    65178002.674        1973.017          45.000  
R12  18493954.668    98791415.219        2296.180          44.000                                                                  
R17  14887433.975    79665669.075       -2972.769          48.000    14887424.365    61962120.622       -2312.062          46.000  
R18  13538141.233    72267595.375         786.001          48.000    13538132.268    56208102.436         611.223          48.000  
R19  15883374.260    84965356.264        3830.690          34.000    15883364.442    66084143.457        2979.583          39.000  
E04  21018787.354   110454537.360        2848.534          39.000    21018786.755    84634011.041        2182.349          39.000  
E10  20328576.318   106827410.146        2682.299          41.000    20328573.782    81854767.259        2055.492          44.000  
E12  18578711.972    97631834.147        1848.446          42.000    18578705.387    74808829.951        1416.476          46.000  
E14  14591027.285    76676370.737        3220.656          40.000                                                                  
E19  18225132.573    95773774.967         681.703          39.000    18225127.664    73385108.665         522.266          46.000  
E20  20655350.008   108544668.672        -460.152          39.000                                                                  
E26  21472672.371   112839573.127       -2333.965          38.000    21472674.277    86461436.717       -1788.339          40.000  
J02  32242198.494   169433877.334          68.982          35.000    32242209.147   132026211.330          53.149          36.000  
J03  31612133.327   166122856.034         829.624          45.000                                                                  
J04  32847435.666   172614424.743        -282.100          43.000    32847427.245   134504711.613        -219.856          46.000  
J07  31510607.627   165589331.756         254.145          37.000    31510600.413   129030644.611         197.796          43.000  
C07  33935531.046   136644191.578       -1166.201          39.000    33935542.778   176711124.557       -1507.973          37.000  
C08  31488859.516   126792649.610         540.580          45.000    31488876.502   163970875.295         699.193          42.000  
C10  33531232.407   135016276.934       -1135.767          38.000    33531239.119   174605849.007       -1468.534          37.000  
C13  32315041.632   130119339.564         558.021          43.000    32315047.356   168272950.323         721.907          41.000  
C14  19643860.546    79097678.939       -1780.290          43.000    19643873.610   102290764.251       -2302.223          38.000  
C24                                                                  20473351.162   106610156.278        1342.403          39.000  
C27                                                                  16604567.343    86464376.970         921.949          48.000  
C28                                                                  16811304.896    87540854.975       -1932.774          47.000  
> 2023 07 11 06 09 49.9810000  0 37                     
G05  15745290.990    82742170.503        1743.657          44.000    15745283.528    64474403.621        1358.784          41.000  
G06  16378336.907    86068775.729       -2297.843          43.000    16378333.290    67066589.189       -1790.577          42.000  
G07  17830273.373    93698919.823         134.810          43.000    17830266.213    73012122.296         104.856          37.000  
G09  19053424.865   100126499.886       -3219.048          35.000    19053421.506    78020689.708       -2508.290          34.000  
G11  14609213.234    76772006.921         139.036          47.000    14609204.374    59822345.677         108.325          49.000  
G13  15829373.113    83184072.716        3199.854          44.000                                                                  
G15  18676018.801    98143198.577        3853.080          36.000    18676019.526    76475214.822        3002.772          35.000  
G19  19738483.207   103726418.775       -3577.134          32.000                                                                  
G20  14897696.725    78288002.112         721.624          46.000                                                                  
G29  17859151.574    93850506.222        2097.089          41.000    17859145.754    73130235.887        1633.776          36.000  
G30  17207347.682    90425384.596        1661.524          42.000    17207343.908    70461416.840        1294.823          40.000  
R02  16239497.973    86657194.507       -2923.811          47.000    16239490.815    67399972.782       -2273.906          42.000  
R03  13906387.375    74442113.908        -422.193          48.000    13906374.403    57899438.824        -328.356          48.000  
R04  15648637.234    83797860.445        2536.273          45.000    15648628.244    65176029.861        1972.606          45.000  
R12  18493524.793    98789119.454        2295.478          44.000                                                                  
R17  14887989.491    79668642.142       -2973.321          48.000    14887980.033    61964433.015       -2312.653          46.000  
R18  13537994.067    72266809.964         784.978          48.000    13537985.125    56207491.555         610.552          48.000  
R19  15882658.427    84961525.740        3830.387          34.000    15882648.380    66081164.179        2979.086          39.000  
E04  21018245.352   110451689.040        2848.173          39.000    21018244.765    84631828.545        2182.475          39.000  
E10  20328065.847   106824727.785        2682.240          41.000    20328063.430    81852711.945        2055.341          44.000  
E12  18578360.183    97629985.861        1848.011          42.000    18578353.530    74807413.733        1416.022          46.000  
E14  14590414.569    76673150.944        3219.151          40.000                                                                  
E19  18225002.921    95773093.563         681.016          39.000    18224997.952    73384586.536         522.014          46.000  
E20  20655437.471   108545128.803        -460.020          39.000                                                                  
E26  21473116.606   112841907.317       -2334.480          38.000    21473118.426    86463225.243       -1788.732          40.000  
J02  32242185.359   169433808.785          68.625          35.000    32242196.033   132026157.926          53.088          36.000  
J03  31611975.585   166122026.667         829.153          45.000                                                                  
J04  32847489.328   172614706.871        -282.124          43.000    32847480.816   134504931.450        -219.855          46.000  
J07  31510559.241   165589077.721         254.136          37.000    31510552.085   129030446.652         198.035          43.000  
C07  33935820.652   136645357.785       -1166.327          39.000    33935832.447   176712632.706       -1507.978          37.000  
C08  31488725.255   126792109.055         540.484          45.000    31488742.366   163970176.234         698.983          42.000  
C10  33531514.439   135017412.498       -1135.596          38.000    33531521.072   174607317.565       -1468.680          37.000  
C13  32314902.989   130118781.313         558.215          43.000    32314908.583   168272228.392         721.875          41.000  
C14  19644302.695    79099459.272       -1780.344          43.000    19644315.680   102293066.626       -2302.844          38.000  
C24                                                                  20473093.306   106608814.237        1341.963          39.000  
C27                                                                  16604390.503    86463455.438         921.202          48.000  
C28                                                                  16811676.195    87542788.071       -1933.471          47.000  
> 2023 07 11 06 09 50.9810000  0 37                     
G05  15744959.233    82740426.731        1743.508          44.000    15744951.680    64473044.845        1358.712          41.000  
G06  16378774.182    86071073.717       -2298.308          43.000    16378770.527    67068379.831       -1790.877          42.000  
G07  17830247.833    93698785.377         134.118          43.000    17830240.568    73012017.511         104.768          37.000  
G09  19054037.591   100129719.229       -3219.426          36.000    19054034.118    78023198.309       -2508.839          34.000  
G11  14609186.842    76771868.155         138.510          46.000    14609177.946    59822237.547         107.915          49.000  
G13  15828764.342    83180873.120        3199.307          44.000                                                                  
G15  18675285.580    98139345.402        3853.380          36.000    18675286.248    76472212.397        3002.659          35.000  
G19  19739163.842   103729995.969       -3577.105          32.000                                                                  
G20  14897559.468    78287280.517         721.521          46.000                                                                  
G29  17858752.814    93848409.527        2096.385          41.000    17858746.815    73128602.045        1634.227          36.000  
G30  17207031.505    90423723.350        1661.135          42.000    17207027.835    70460122.369        1294.209          40.000  
R02  16240046.055    86660118.493       -2924.069          46.000    16240038.838    67402246.996       -2274.282          42.000  
R03  13906466.290    74442536.361        -422.701          48.000    13906453.244    57899767.395        -328.691          48.000  
R04  15648163.749    83795324.447        2535.759          46.000    15648154.648    65174057.424        1972.234          45.000  
R12  18493095.069    98786824.164        2294.887          44.000                                                                  
R17  14888545.282    79671615.856       -2974.123          48.000    14888535.754    61966745.892       -2313.155          46.000  
R18  13537847.283    72266025.456         783.869          48.000    13537838.128    56206881.375         609.750          48.000  
R19  15881942.264    84957695.631        3829.948          35.000    15881932.395    66078185.206        2978.765          39.000  
E04  21017703.294   110448840.943        2847.955          39.000    21017702.823    84629646.241        2182.333          40.000  
E10  20327555.493   106822045.536        2682.368          40.000    20327553.023    81850656.746        2054.967          45.000  
E12  18578008.427    97628137.824        1847.987          42.000    18578001.919    74805997.717        1415.773          47.000  
E14  14589802.078    76669932.533        3217.657          39.000                                                                  
E19  18224873.397    95772412.542         680.712          39.000    18224868.329    73384064.723         521.852          47.000  
E20  20655525.195   108545589.363        -460.949          38.000                                                                  
E26  21473560.828   112844241.704       -2334.492          38.000    21473562.716    86465013.921       -1788.737          40.000  
J02  32242172.281   169433740.201          68.664          35.000    32242182.991   132026104.463          53.501          36.000  
J03  31611817.822   166121197.365         829.127          45.000                                                                  
J04  32847543.021   172614988.984        -282.193          43.000    32847534.587   134505151.278        -219.874          46.000  
J07  31510510.945   165588823.729         253.782          37.000    31510503.805   129030248.734         197.749          43.000  
C07  33936110.326   136646523.983       -1166.275          39.000    33936121.961   176714140.874       -1507.997          37.000  
C08  31488590.921   126791568.454         540.635          45.000    31488608.096   163969477.123         698.999          42.000  
C10  33531796.483   135018548.126       -1135.710          38.000    33531803.199   174608786.175       -1468.689          37.000  
C13  32314764.269   130118223.017         558.355          43.000    32314769.876   168271506.401         721.873          41.000  
C14  19644744.867    79101239.585       -1780.249          44.000    19644757.789   102295368.969       -2302.575          38.000  
C24                                                                  20472835.630   106607472.623        1341.430          39.000  
C27                                                                  16604213.604    86462534.471         920.651          48.000  
C28                                                                  16812047.475    87544721.599       -1933.836          47.000  
> 2023 07 11 06 09 51.9810000  0 37                     
G05  15744627.513    82738683.096        1743.361          44.000    15744619.906    64471686.178        1358.457          41.000  
G06  16379211.464    86073371.998       -2298.879          43.000    16379207.857    67070170.683       -1791.050          42.000  
G07  17830222.410    93698651.381         133.320          43.000    17830215.008    73011913.116         103.644          37.000  
G09  19054650.186   100132938.555       -3219.372          36.000    19054646.765    78025706.871       -2508.849          35.000  
G11  14609160.611    76771729.835         137.766          47.000    14609151.628    59822129.770         107.280          49.000  
G13  15828155.579    83177673.872        3198.817          44.000                                                                  
G15  18674552.210    98135492.376        3852.388          36.000    18674552.949    76469210.030        3002.375          35.000  
G19  19739844.473   103733572.970       -3577.089          33.000                                                                  
G20  14897422.205    78286559.088         721.035          46.000                                                                  
G29  17858353.942    93846313.334        2095.683          41.000    17858347.951    73126968.687        1632.709          35.000  
G30  17206715.427    90422062.505        1660.202          42.000    17206711.760    70458828.211        1293.361          40.000  
R02  16240594.150    86663042.528       -2924.458          47.000    16240586.711    67404521.241       -2274.300          42.000  
R03  13906545.270    74442959.219        -423.418          48.000    13906532.308    57900096.299        -329.583          48.000  
R04  15647690.202    83792788.822        2534.950          45.000    15647681.163    65172085.277        1971.603          45.000  
R12  18492665.446    98784529.294        2294.305          44.000                                                                  
R17  14889101.172    79674590.119       -2975.036          48.000    14889091.587    61969059.198       -2313.754          46.000  
R18  13537700.516    72265241.728         783.031          48.000    13537691.248    56206271.815         609.007          48.000  
R19  15881226.388    84953865.878        3829.202          34.000    15881216.448    66075206.515        2977.936          39.000  
E04  21017161.246   110445992.945        2847.615          39.000    21017160.901    84627464.044        2181.648          39.000  
E10  20327045.152   106819363.340        2682.021          40.000    20327042.562    81848601.540        2055.052          44.000  
E12  18577656.870    97626289.986        1847.456          42.000    18577650.318    74804581.829        1415.572          46.000  
E14  14589189.915    76666715.373        3216.346          39.000                                                                  
E19  18224743.899    95771731.826         680.238          39.000    18224738.958    73383543.145         521.316          46.000  
E20  20655612.813   108546050.180        -461.208          38.000                                                                  
E26  21474005.021   112846576.191       -2334.820          38.000    21474006.862    86466802.688       -1789.344          40.000  
J02  32242159.330   169433671.474          68.664          35.000    32242169.895   132026050.900          53.659          36.000  
J03  31611660.002   166120368.058         828.948          45.000                                                                  
J04  32847596.740   172615270.986        -282.384          43.000    32847588.258   134505371.013        -219.968          46.000  
J07  31510462.604   165588569.659         253.783          37.000    31510455.402   129030050.759         197.783          43.000  
C07  33936399.988   136647690.124       -1166.188          39.000    33936411.545   176715648.983       -1508.691          37.000  
C08  31488456.665   126791027.732         540.729          45.000    31488473.745   163968777.850         698.997          42.000  
C10  33532078.562   135019683.720       -1135.962          38.000    33532085.368   174610254.748       -1468.948          37.000  
C13  32314625.520   130117664.636         558.220          43.000    32314631.200   168270784.280         721.896          41.000  
C14  19645187.019    79103019.844       -1780.789          44.000    19645199.934   102297671.220       -2302.667          38.000  
C24                                                                  20472577.998   106606131.304        1340.937          38.000  
C27                                                                  16604036.918    86461613.987         919.872          48.000  
C28                                                                  16812418.751    87546655.492       -1934.430          47.000  
> 2023 07 11 06 09 52.9810000  0 37                     
G05  15744295.782    82736939.907        1742.916          44.000    15744288.203    64470327.851        1358.073          41.000  
G06  16379648.942    86075670.890       -2299.282          43.000    16379645.311    67071962.028       -1791.454          42.000  
G07  17830197.014    93698518.108         133.172          43.000    17830189.606    73011809.274         103.556          37.000  
G09  19055262.847   100136158.200       -3220.032          36.000    19055259.521    78028215.663       -2508.738          35.000  
G11  14609134.339    76771592.270         137.228          47.000    14609125.376    59822022.567         106.936          49.000  
G13  15827546.974    83174475.284        3198.413          44.000                                                                  
G15  18673819.063    98131639.724        3852.255          36.000    18673819.812    76466207.971        3002.164          34.000  
G19  19740524.952   103737150.023       -3577.029          34.000                                                                  
G20  14897285.012    78285838.097         720.638          46.000                                                                  
G29  17857955.118    93844217.932        2095.165          41.000    17857949.209    73125335.892        1632.523          35.000  
G30  17206399.484    90420402.327        1659.956          42.000    17206395.847    70457534.566        1293.438          40.000  
R02  16241142.235    86665966.824       -2924.312          46.000    16241134.742    67406795.699       -2274.524          42.000  
R03  13906624.373    74443382.798        -423.862          48.000    13906611.374    57900425.738        -329.542          48.000  
R04  15647216.753    83790253.855        2534.728          45.000    15647207.802    65170113.638        1971.426          45.000  
R12  18492236.007    98782235.175        2293.817          44.000                                                                  
R17  14889657.215    79677565.201       -2975.368          48.000    14889647.553    61971373.161       -2314.365          46.000  
R18  13537553.920    72264459.094         782.258          48.000    13537544.620    56205663.097         608.311          48.000  
R19  15880510.704    84950036.738        3828.596          35.000    15880500.685    66072228.292        2978.167          39.000  
E04  21016619.421   110443145.368        2847.553          39.000    21016618.947    84625282.120        2181.756          40.000  
E10  20326534.711   106816681.486        2681.943          40.000    20326532.266    81846546.622        2054.765          45.000  
E12  18577305.425    97624442.619        1847.305          42.000    18577298.821    74803166.314        1415.370          47.000  
E14  14588577.963    76663499.822        3214.686          39.000                                                                  
E19  18224614.600    95771051.757         679.690          39.000    18224609.410    73383022.050         520.915          47.000  
E20  20655700.510   108546511.573        -461.522          38.000                                                                  
E26  21474449.468   112848911.093       -2335.235          38.000    21474451.266    86468591.750       -1789.286          40.000  
J02  32242146.276   169433602.922          68.590          35.000    32242156.844   132025997.501          53.077          36.000  
J03  31611502.286   166119539.036         828.971          45.000                                                                  
J04  32847650.483   172615553.167        -282.147          43.000    32847641.912   134505590.896        -219.924          46.000  
J07  31510414.255   165588315.827         253.689          37.000    31510407.102   129029852.974         197.638          43.000  
C07  33936689.698   136648856.469       -1166.547          39.000    33936701.148   176717157.299       -1508.550          37.000  
C08  31488322.352   126790487.145         540.672          45.000    31488339.479   163968078.763         699.050          42.000  
C10  33532360.661   135020819.511       -1136.181          38.000    33532367.430   174611723.569       -1468.739          37.000  
C13  32314486.963   130117106.373         558.180          43.000    32314492.524   168270062.309         722.113          41.000  
C14  19645629.185    79104800.226       -1780.469          44.000    19645642.040   102299973.670       -2302.533          38.000  
C24                                                                  20472320.532   106604790.606        1340.465          38.000  
C27                                                                  16603860.374    86460694.265         919.508          48.000  
C28                                                                  16812790.252    87548590.033       -1934.888          47.000  
> 2023 07 11 06 09 53.9810000  0 37                     
G05  15743964.192    82735196.911        1743.176          44.000    15743956.594    64468969.673        1358.248          41.000  
G06  16380086.488    86077970.161       -2299.312          43.000    16380082.834    67073753.668       -1791.406          42.000  
G07  17830171.723    93698385.423         132.512          43.000    17830164.356    73011705.882         103.105          37.000  
G09  19055875.496   100139377.886       -3219.605          35.000    19055872.243    78030724.479       -2508.552          35.000  
G11  14609108.380    76771455.238         136.877          47.000    14609099.299    59821915.790         106.702          49.000  
G13  15826938.406    83171277.152        3197.996          44.000                                                                  
G15  18673085.939    98127787.207        3852.488          36.000    18673086.632    76463206.033        3002.233          35.000  
G19  19741205.591   103740726.967       -3576.945          35.000                                                                  
G20  14897147.797    78285117.347         720.758          46.000                                                                  
G29  17857556.563    93842123.139        2094.584          41.000    17857550.595    73123703.597        1632.165          35.000  
G30  17206083.683    90418742.641        1659.628          42.000    17206080.027    70456241.304        1293.132          40.000  
R02  16241690.288    86668891.144       -2924.224          46.000    16241682.752    67409070.163       -2274.513          42.000  
R03  13906703.569    74443806.879        -424.246          48.000    13906690.644    57900755.582        -329.931          48.000  
R04  15646743.416    83787719.350        2534.592          45.000    15646734.502    65168142.368        1971.385          45.000  
R12  18491806.602    98779941.575        2293.490          44.000                                                                  
R17  14890213.289    79680540.912       -2975.793          48.000    14890203.566    61973687.589       -2314.371          46.000  
R18  13537407.522    72263677.337         781.396          48.000    13537398.130    56205055.063         607.674          48.000  
R19  15879794.925    84946208.018        3829.046          35.000    15879784.874    66069250.422        2977.681          39.000  
E04  21016077.546   110440298.002        2847.563          38.000    21016077.033    84623100.380        2181.885          40.000  
E10  20326024.326   106813999.762        2681.839          40.000    20326021.853    81844491.787        2054.928          44.000  
E12  18576953.896    97622595.517        1847.156          41.000    18576947.310    74801751.009        1415.326          46.000  
E14  14587966.330    76660285.613        3213.859          39.000                                                                  
E19  18224485.274    95770372.061         679.723          38.000    18224480.134    73382501.255         520.726          46.000  
E20  20655788.385   108546973.359        -461.873          38.000                                                                  
E26  21474893.778   112851246.173       -2334.729          37.000    21474895.720    86470380.976       -1789.290          40.000  
J02  32242133.202   169433534.325          68.444          35.000    32242143.698   132025944.025          53.736          36.000  
J03  31611344.421   166118710.103         828.972          45.000                                                                  
J04  32847704.110   172615835.321        -282.049          43.000    32847695.597   134505810.757        -219.769          46.000  
J07  31510365.919   165588062.038         253.796          37.000    31510358.692   129029655.191         198.083          43.000  
C07  33936979.349   136650022.781       -1166.347          39.000    33936990.954   176718665.601       -1508.052          37.000  
C08  31488188.173   126789946.543         540.766          45.000    31488205.175   163967379.647         699.108          42.000  
C10  33532642.734   135021955.315       -1135.957          38.000    33532649.281   174613192.445       -1468.729          37.000  
C13  32314348.293   130116548.064         558.447          43.000    32314353.842   168269340.318         721.996          41.000  
C14  19646071.365    79106580.614       -1780.305          44.000    19646084.055   102302276.101       -2302.091          38.000  
C24                                                                  20472063.131   106603450.275        1340.311          38.000  
C27                                                                  16603683.850    86459775.116         919.006          48.000  
C28                                                                  16813161.790    87550525.018       -1935.084          47.000  
> 2023 07 11 06 09 54.9810000  0 37                     
G05  15743632.509    82733454.099        1742.563          44.000    15743625.058    64467611.641        1357.686          41.000  
G06  16380524.099    86080269.787       -2300.373          43.000    16380520.359    67075545.586       -1792.380          42.000  
G07  17830146.611    93698253.210         131.662          43.000    17830139.240    73011602.869         102.378          37.000  
G09  19056488.272   100142597.629       -3220.323          36.000    19056484.949    78033233.375       -2509.325          35.000  
G11  14609082.327    76771318.695         135.965          47.000    14609073.421    59821809.396         105.904          49.000  
G13  15826329.902    83168079.397        3197.177          44.000                                                                  
G15  18672352.818    98123934.847        3852.148          36.000    18672353.507    76460204.229        3001.475          34.000  
G19  19741886.248   103744303.701       -3576.658          36.000                                                                  
G20  14897010.640    78284396.780         720.263          46.000                                                                  
G29  17857158.059    93840028.876        2093.729          41.000    17857151.994    73122071.722        1631.092          35.000  
G30  17205767.985    90417083.386        1658.383          42.000    17205764.328    70454948.377        1292.449          40.000  
R02  16242238.303    86671815.495       -2924.827          46.000    16242230.828    67411344.648       -2274.835          42.000  
R03  13906782.836    74444231.397        -425.165          48.000    13906769.949    57901085.759        -330.648          48.000  
R04  15646270.209    83785185.260        2533.718          45.000    15646261.294    65166171.411        1970.622          45.000  
R12  18491377.286    98777648.423        2292.683          44.000                                                                  
R17  14890769.511    79683517.174       -2976.876          48.000    14890759.867    61976002.452       -2315.285          46.000  
R18  13537261.117    72262896.424         780.008          48.000    13537251.846    56204447.685         606.765          48.000  
R19  15879079.315    84942379.727        3827.860          35.000    15879069.300    66066272.844        2976.931          39.000  
E04  21015535.687   110437450.793        2847.116          39.000    21015535.326    84620918.748        2181.349          40.000  
E10  20325513.965   106811318.084        2681.562          40.000    20325511.515    81842437.010        2054.512          44.000  
E12  18576602.387    97620748.647        1846.330          42.000    18576595.919    74800335.865        1414.805          46.000  
E14  14587355.005    76657072.734        3211.896          40.000                                                                  
E19  18224356.046    95769692.766         678.668          39.000    18224350.802    73381980.745         520.119          46.000  
E20  20655876.325   108547435.449        -462.478          38.000                                                                  
E26  21475338.058   112853581.434       -2335.651          38.000    21475340.105    86472170.303       -1789.697          40.000  
J02  32242120.165   169433465.612          68.309          35.000    32242130.631   132025890.492          53.309          36.000  
J03  31611186.728   166117881.197         828.564          45.000                                                                  
J04  32847757.695   172616117.396        -282.197          43.000    32847749.298   134506030.558        -220.071          46.000  
J07  31510317.735   165587808.204         253.329          37.000    31510310.383   129029457.412         197.578          43.000  
C07  33937269.021   136651189.076       -1166.647          40.000    33937280.628   176720173.882       -1508.204          37.000  
C08  31488053.953   126789405.865         540.414          45.000    31488070.864   163966680.423         699.220          42.000  
C10  33532924.793   135023091.131       -1136.104          38.000    33532931.304   174614661.310       -1469.171          37.000  
C13  32314209.580   130115989.696         558.151          43.000    32314215.235   168268618.201         721.915          41.000  
C14  19646513.532    79108360.960       -1780.719          44.000    19646526.203   102304578.500       -2302.587          38.000  
C24                                                                  20471805.702   106602110.326        1339.216          38.000  
C27                                                                  16603507.456    86458856.481         918.153          48.000  
C28                                                                  16813533.435    87552460.401       -1935.876          47.000  
> 2023 07 11 06 09 55.9810000  0 37                     
G05  15743300.843    82731711.437        1742.598          44.000    15743293.404    64466253.717        1357.955          41.000  
G06  16380961.740    86082569.708       -2299.902          43.000    16380958.051    67077337.712       -1791.806          42.000  
G07  17830121.464    93698121.470         131.623          43.000    17830114.192    73011500.232         102.077          37.000  
G09  19057101.087   100145817.299       -3219.072          36.000    19057097.592    78035742.239       -2508.916          35.000  
G11  14609056.397    76771182.612         136.022          47.000    14609047.525    59821703.352         105.943          49.000  
G13  15825721.425    83164882.021        3197.302          44.000                                                                  
G15  18671619.830    98120082.605        3852.047          36.000    18671620.413    76457202.465        3001.763          34.000  
G19  19742566.831   103747880.268       -3576.518          37.000                                                                  
G20  14896873.604    78283676.389         720.576          46.000                                                                  
G29  17856759.626    93837935.151        2093.608          41.000    17856753.503    73120440.212        1631.768          35.000  
G30  17205452.254    90415424.513        1658.855          42.000    17205448.685    70453655.766        1292.425          40.000  
R02  16242786.186    86674739.886       -2924.308          47.000    16242778.778    67413619.171       -2274.445          42.000  
R03  13906862.218    74444656.302        -424.921          48.000    13906849.280    57901416.247        -330.539          48.000  
R04  15645797.062    83782651.590        2533.810          45.000    15645788.119    65164200.786        1970.470          45.000  
R12  18490948.157    98775355.695        2292.642          43.000                                                                  
R17  14891325.923    79686493.965       -2976.960          48.000    14891316.164    61978317.737       -2315.393          46.000  
R18  13537114.998    72262116.297         779.983          48.000    13537105.682    56203840.915         606.633          48.000  
R19  15878363.616    84938551.757        3827.860          35.000    15878353.712    66063295.531        2977.288          39.000  
E04  21014993.878   110434603.709        2847.365          39.000    21014993.366    84618737.231        2181.620          40.000  
E10  20325003.718   106808636.497        2681.764          41.000    20325001.232    81840382.273        2054.899          44.000  
E12  18576251.121    97618901.956        1846.911          42.000    18576244.461    74798920.879        1415.006          46.000  
E14  14586743.832    76653861.146        3211.152          40.000                                                                  
E19  18224226.629    95769013.787         678.932          39.000    18224221.706    73381460.482         520.351          46.000  
E20  20655964.343   108547897.856        -462.235          38.000                                                                  
E26  21475782.518   112855916.811       -2335.527          38.000    21475784.424    86473959.721       -1789.341          40.000  
J02  32242106.991   169433396.778          69.045          35.000    32242117.548   132025836.870          53.666          36.000  
J03  31611028.856   166117052.291         828.975          45.000                                                                  
J04  32847811.355   172616399.378        -281.658          43.000    32847802.957   134506250.287        -219.660          46.000  
J07  31510269.502   165587554.316         253.885          37.000    31510262.080   129029259.579         197.976          43.000  
C07  33937558.663   136652355.327       -1166.317          40.000    33937570.225   176721682.116       -1507.846          37.000  
C08  31487919.701   126788865.088         540.714          45.000    31487936.611   163965981.063         699.863          41.000  
C10  33533206.896   135024226.917       -1135.172          38.000    33533213.460   174616130.141       -1468.542          37.000  
C13  32314070.863   130115431.216         558.666          43.000    32314076.548   168267895.971         722.472          41.000  
C14  19646955.634    79110141.224       -1780.149          44.000    19646968.319   102306880.788       -2302.197          38.000  
C24                                                                  20471548.319   106600770.674        1339.522          38.000  
C27                                                                  16603331.234    86457938.334         918.137          48.000  
C28                                                                  16813905.213    87554396.151       -1935.862          47.000  
> 2023 07 11 06 09 56.9810000  0 37                     
G05  15742969.189    82729968.866        1742.313          44.000    15742961.848    64464895.883        1357.471          41.000  
G06  16381399.482    86084869.926       -2300.518          43.000    16381395.786    67079130.094       -1792.424          42.000  
G07  17830096.555    93697990.158         130.696          43.000    17830089.309    73011397.871         102.531          37.000  
G09  19057713.824   100149036.988       -3219.563          36.000    19057710.260    78038251.090       -2509.053          35.000  
G11  14609030.575    76771046.957         135.363          47.000    14609021.646    59821597.651         105.469          49.000  
G13  15825113.038    83161684.988        3196.594          44.000                                                                  
G15  18670886.720    98116230.403        3852.245          36.000    18670887.444    76454200.780        3001.138          34.000  
G19  19743247.371   103751456.546       -3576.184          37.000                                                                  
G20  14896736.560    78282956.123         720.023          46.000                                                                  
G29  17856361.317    93835841.899        2092.932          41.000    17856355.116    73118809.126        1630.852          35.000  
G30  17205136.626    90413766.023        1658.208          42.000    17205132.958    70452363.443        1291.865          40.000  
R02  16243334.296    86677664.318       -2924.640          47.000    16243326.819    67415893.727       -2274.574          42.000  
R03  13906941.710    74445081.605        -425.590          49.000    13906928.771    57901747.039        -331.052          48.000  
R04  15645323.991    83780118.309        2533.007          45.000    15645315.089    65162230.444        1970.081          45.000  
R12  18490519.034    98773063.403        2291.852          43.000                                                                  
R17  14891882.267    79689471.302       -2977.791          48.000    14891872.505    61980633.442       -2316.122          46.000  
R18  13536969.057    72261336.927         778.960          48.000    13536959.723    56203234.743         605.752          48.000  
R19  15877648.190    84934724.123        3827.110          35.000    15877638.134    66060318.502        2976.730          38.000  
E04  21014452.110   110431756.728        2846.856          39.000    21014451.582    84616555.773        2181.311          40.000  
E10  20324493.488   106805954.903        2681.442          41.000    20324490.846    81838327.554        2054.653          44.000  
E12  18575899.742    97617055.459        1846.176          42.000    18575893.133    74797506.020        1414.663          46.000  
E14  14586132.905    76650650.837        3209.258          40.000                                                                  
E19  18224097.511    95768335.076         678.111          39.000    18224092.481    73380940.440         519.789          46.000  
E20  20656052.298   108548360.500        -462.840          38.000                                                                  
E26  21476226.866   112858252.243       -2335.501          38.000    21476228.773    86475749.215       -1789.476          40.000  
J02  32242093.792   169433327.814          68.842          35.000    32242104.427   132025783.101          53.875          36.000  
J03  31610871.079   166116223.357         828.692          45.000                                                                  
J04  32847865.031   172616681.233        -281.847          43.000    32847856.558   134506469.909        -219.697          46.000  
J07  31510221.211   165587300.357         253.718          37.000    31510213.860   129029061.689         197.916          43.000  
C07  33937848.271   136653521.514       -1166.108          39.000    33937859.795   176723190.279       -1508.232          37.000  
C08  31487785.378   126788324.181         540.849          45.000    31487802.355   163965281.564         699.566          41.000  
C10  33533488.983   135025362.687       -1135.911          38.000    33533495.494   174617598.929       -1468.541          37.000  
C13  32313932.134   130114872.637         558.302          43.000    32313937.888   168267173.597         722.258          41.000  
C14  19647397.722    79111921.410       -1780.208          44.000    19647410.344   102309182.954       -2302.140          38.000  
C24                                                                  20471291.125   106599431.314        1339.099          38.000  
C27                                                                  16603155.007    86457020.646         917.294          48.000  
C28                                                                  16814276.937    87556332.224       -1936.387          47.000  
> 2023 07 11 06 09 57.9810000  0 37                     
G05  15742637.586    82728226.473        1742.175          44.000    15742630.255    64463538.162        1357.610          41.000  
G06  16381837.310    86087170.484       -2300.908          43.000    16381833.611    67080922.734       -1792.826          42.000  
G07  17830071.682    93697859.358         130.296          43.000    17830064.501    73011295.958         101.348          37.000  
G09  19058326.566   100152256.686       -3219.411          36.000    19058322.788    78040759.935       -2508.445          35.000  
G11  14609004.922    76770911.801         134.746          47.000    14608995.966    59821492.334         105.063          49.000  
G13  15824504.811    83158488.346        3196.531          44.000                                                                  
G15  18670153.576    98112378.368        3851.991          36.000    18670154.421    76451199.193        3000.792          34.000  
G19  19743927.842   103755032.689       -3576.193          37.000                                                                  
G20  14896599.689    78282236.062         719.952          46.000                                                                  
G29  17855963.141    93833749.210        2092.190          41.000    17855956.910    73117178.459        1630.494          36.000  
G30  17204821.099    90412107.981        1657.596          42.000    17204817.368    70451071.445        1291.589          40.000  
R02  16243882.226    86680588.797       -2924.600          46.000    16243874.919    67418168.323       -2274.692          42.000  
R03  13907021.257    74445507.358        -426.123          49.000    13907008.393    57902078.182        -331.423          48.000  
R04  15644850.950    83777585.406        2532.477          45.000    15644842.079    65160260.421        1969.798          45.000  
R12  18490090.023    98770771.569        2291.188          43.000                                                                  
R17  14892438.855    79692449.245       -2978.316          48.000    14892429.011    61982949.611       -2316.463          46.000  
R18  13536823.294    72260558.371         778.130          48.000    13536813.841    56202629.201         605.127          48.000  
R19  15876932.538    84930896.875        3826.428          35.000    15876922.615    66057341.719        2976.422          38.000  
E04  21013910.295   110428909.919        2846.394          39.000    21013909.780    84614374.462        2180.845          40.000  
E10  20323983.262   106803273.386        2681.432          41.000    20323980.533    81836272.891        2054.684          45.000  
E12  18575548.403    97615209.151        1846.130          42.000    18575541.632    74796091.328        1414.527          47.000  
E14  14585522.246    76647441.815        3208.272          40.000                                                                  
E19  18223968.400    95767656.762         677.871          39.000    18223963.427    73380420.687         519.662          47.000  
E20  20656140.414   108548823.476        -462.897          38.000                                                                  
E26  21476671.434   112860587.853       -2335.825          38.000    21476673.282    86477538.836       -1789.760          40.000  
J02  32242080.536   169433258.740          69.035          35.000    32242091.306   132025729.298          53.618          36.000  
J03  31610713.326   166115394.454         828.748          45.000                                                                  
J04  32847918.658   172616963.006        -281.715          43.000    32847910.162   134506689.483        -219.747          46.000  
J07  31510172.839   165587046.369         253.881          37.000    31510165.522   129028863.784         197.787          43.000  
C07  33938137.837   136654687.690       -1166.063          39.000    33938149.227   176724698.390       -1507.999          37.000  
C08  31487651.059   126787783.209         541.102          45.000    31487668.107   163964581.976         699.358          41.000  
C10  33533770.959   135026498.443       -1135.686          38.000    33533777.514   174619067.751       -1468.776          37.000  
C13  32313793.432   130114313.987         558.610          43.000    32313799.195   168266451.143         722.427          41.000  
C14  19647839.805    79113701.551       -1780.168          44.000    19647852.469   102311485.062       -2301.916          38.000  
C24                                                                  20471034.016   106598092.281        1338.871          38.000  
C27                                                                  16602978.911    86456103.484         916.788          48.000  
C28                                                                  16814648.840    87558268.707       -1936.853          47.000  
> 2023 07 11 06 09 58.9810000  0 37                     
G05  15742306.030    82726484.165        1742.173          44.000    15742298.820    64462180.534        1357.388          41.000  
G06  16382275.116    86089471.286       -2301.146          43.000    16382271.370    67082715.571       -1793.082          42.000  
G07  17830046.956    93697728.928         129.945          43.000    17830039.659    73011194.323         101.500          37.000  
G09  19058939.069   100155476.344       -3219.377          36.000    19058935.405    78043268.776       -2509.073          35.000  
G11  14608979.383    76770777.044         134.451          47.000    14608970.319    59821387.320         104.712          49.000  
G13  15823896.626    83155292.023        3196.107          44.000                                                                  
G15  18669420.523    98108526.348        3851.802          36.000    18669421.406    76448197.603        3001.752          34.000  
G19  19744608.274   103758608.553       -3575.828          37.000                                                                  
G20  14896462.707    78281516.095         719.588          46.000                                                                  
G29  17855565.027    93831656.957        2091.936          41.000    17855558.870    73115548.136        1629.835          35.000  
G30  17204505.592    90410450.267        1657.214          42.000    17204501.904    70449779.716        1291.503          40.000  
R02  16244430.243    86683513.164       -2924.377          47.000    16244422.918    67420442.824       -2274.490          42.000  
R03  13907100.837    74445933.470        -426.425          49.000    13907087.918    57902409.605        -331.719          48.000  
R04  15644378.017    83775052.792        2532.372          45.000    15644369.054    65158290.617        1969.562          45.000  
R12  18489661.084    98768480.091        2291.104          43.000                                                                  
R17  14892995.588    79695427.678       -2978.812          48.000    14892985.591    61985266.162       -2316.868          46.000  
R18  13536677.616    72259780.565         777.196          48.000    13536668.049    56202024.230         604.527          48.000  
R19  15876217.198    84927069.884        3826.264          35.000    15876207.139    66054365.173        2976.312          38.000  
E04  21013368.450   110426063.161        2846.648          39.000    21013368.212    84612193.188        2181.003          40.000  
E10  20323472.886   106800591.871        2681.422          41.000    20323470.284    81834218.214        2054.657          44.000  
E12  18575197.021    97613362.966        1846.164          42.000    18575190.357    74794676.723        1414.457          46.000  
E14  14584911.850    76644234.041        3207.068          40.000                                                                  
E19  18223839.395    95766978.654         677.935          39.000    18223834.400    73379901.101         519.479          46.000  
E20  20656228.633   108549286.713        -463.440          38.000                                                                  
E26  21477116.001   112862923.493       -2335.509          38.000    21477117.748    86479328.478       -1789.680          40.000  
J02  32242067.444   169433189.467          69.551          35.000    32242078.150   132025675.321          53.988          36.000  
J03  31610555.652   166114565.482         828.949          45.000                                                                  
J04  32847972.267   172617244.609        -281.452          43.000    32847963.773   134506908.915        -219.552          46.000  
J07  31510124.492   165586792.279         253.863          37.000    31510117.194   129028665.781         197.777          43.000  
C07  33938427.433   136655853.760       -1166.303          39.000    33938438.787   176726206.369       -1507.864          37.000  
C08  31487516.707   126787242.106         540.916          45.000    31487533.711   163963882.188         699.747          42.000  
C10  33534052.969   135027634.137       -1135.850          38.000    33534059.599   174620536.414       -1468.668          37.000  
C13  32313654.686   130113755.172         558.828          43.000    32313660.474   168265728.484         722.728          41.000  
C14  19648281.977    79115481.573       -1780.184          44.000    19648294.576   102313787.042       -2302.265          39.000  
C24                                                                  20470776.954   106596753.533        1338.773          38.000  
C27                                                                  16602802.917    86455186.748         916.315          48.000  
C28                                                                  16815020.713    87560205.481       -1937.091          47.000  
> 2023 07 11 06 09 59.9810000  0 37                     
G05  15741974.572    82724742.131        1742.025          44.000    15741967.342    64460823.093        1357.628          41.000  
G06  16382713.011    86091772.532       -2301.314          43.000    16382709.184    67084508.750       -1793.232          42.000  
G07  17830022.261    93697599.094         129.778          43.000    17830014.936    73011093.164         101.166          37.000  
G09  19059551.670   100158696.135       -3220.277          35.000    19059548.213    78045777.664       -2508.730          36.000  
G11  14608953.894    76770642.860         134.167          46.000    14608944.794    59821282.770         104.397          49.000  
G13  15823288.455    83152096.188        3195.958          44.000                                                                  
G15  18668687.630    98104674.577        3851.685          36.000    18668688.402    76445196.211        3001.676          34.000  
G19  19745288.653   103762184.318       -3575.769          37.000                                                                  
G20  14896325.686    78280796.414         719.639          46.000                                                                  
G29  17855167.008    93829565.342        2091.626          41.000    17855160.778    73113918.330        1629.502          35.000  
G30  17204190.245    90408793.073        1656.947          42.000    17204186.478    70448488.412        1291.198          40.000  
R02  16244978.181    86686437.629       -2924.285          46.000    16244970.923    67422717.405       -2274.462          42.000  
R03  13907180.519    74446360.142        -426.730          49.000    13907167.594    57902741.455        -331.887          48.000  
R04  15643905.100    83772520.695        2532.032          45.000    15643896.117    65156321.204        1969.362          45.000  
R12  18489232.192    98766189.149        2290.843          43.000                                                                  
R17  14893552.323    79698406.756       -2979.237          48.000    14893542.337    61987583.220       -2317.133          46.000  
R18  13536532.131    72259003.687         776.667          48.000    13536522.500    56201419.998         603.992          48.000  
R19  15875501.992    84923243.376        3826.342          35.000    15875491.807    66051389.008        2976.076          39.000  
E04  21012826.840   110423216.644        2846.542          38.000    21012826.492    84610012.089        2181.181          40.000  
E10  20322962.795   106797910.506        2681.770          40.000    20322959.993    81832163.675        2054.826          45.000  
E12  18574845.843    97611517.133        1845.856          41.000    18574839.193    74793262.373        1414.438          47.000  
E14  14584301.661    76641027.668        3206.028          40.000                                                                  
E19  18223710.426    95766301.029         677.583          39.000    18223705.410    73379381.886         519.267          47.000  
E20  20656316.856   108549750.340        -463.557          38.000                                                                  
E26  21477560.567   112865259.394       -2335.460          38.000    21477562.332    86481118.310       -1789.613          40.000  
J02  32242054.248   169433120.243          69.512          35.000    32242065.013   132025621.373          54.206          36.000  
J03  31610397.812   166113736.645         829.027          45.000                                                                  
J04  32848025.816   172617526.247        -281.378          43.000    32848017.267   134507128.363        -219.356          46.000  
J07  31510076.074   165586538.237         254.211          37.000    31510068.833   129028467.836         197.993          43.000  
C07  33938716.996   136657019.865       -1165.940          39.000    33938728.402   176727714.413       -1507.808          37.000  
C08  31487382.330   126786700.984         541.375          45.000    31487399.271   163963182.433         699.548          42.000  
C10  33534335.000   135028769.905       -1135.832          38.000    33534341.695   174622005.223       -1468.586          37.000  
C13  32313515.925   130113196.363         558.759          43.000    32313521.640   168265005.814         722.586          41.000  
C14  19648724.036    79117261.618       -1779.807          43.000    19648736.602   102316089.021       -2301.830          39.000  
C24                                                                  20470519.918   106595415.215        1338.301          38.000  
C27                                                                  16602627.020    86454270.615         915.974          48.000  
C28                                                                  16815392.756    87562142.755       -1937.302          47.000  
> 2023 07 11 06 10 00.9810000  0 37                     
G05  15741643.052    82723000.298        1741.872          44.000    15741635.948    64459465.825        1357.257          42.000  
G06  16383150.971    86094074.137       -2301.444          43.000    16383147.188    67086302.210       -1793.361          42.000  
G07  17829997.595    93697469.795         129.008          43.000    17829990.327    73010992.397         100.948          37.000  
G09  19060164.441   100161915.921       -3219.259          36.000    19060160.989    78048286.599       -2508.819          36.000  
G11  14608928.464    76770509.204         133.497          46.000    14608919.337    59821178.613         104.079          49.000  
G13  15822680.495    83148900.761        3195.585          44.000                                                                  
G15  18667954.595    98100822.919        3852.157          36.000    18667955.467    76442194.973        3001.141          35.000  
G19  19745969.038   103765759.943       -3575.817          36.000                                                                  
G20  14896188.753    78280076.936         719.569          46.000                                                                  
G29  17854769.193    93827474.310        2091.252          40.000    17854762.770    73112288.923        1629.666          35.000  
G30  17203874.939    90407136.332        1656.737          42.000    17203871.239    70447197.447        1290.969          40.000  
R02  16245526.284    86689362.142       -2924.344          46.000    16245519.003    67424992.029       -2274.611          42.000  
R03  13907260.441    74446787.279        -427.232          49.000    13907247.379    57903073.674        -332.260          48.000  
R04  15643432.286    83769989.019        2531.631          45.000    15643423.317    65154352.136        1968.916          45.000  
R12  18488803.355    98763898.681        2290.408          43.000                                                                  
R17  14894109.119    79701386.396       -2979.742          48.000    14894099.035    61989900.717       -2317.571          46.000  
R18  13536386.810    72258227.688         775.743          48.000    13536377.116    56200816.434         603.386          48.000  
R19  15874786.773    84919417.263        3825.841          35.000    15874776.526    66048413.138        2975.741          39.000  
E04  21012285.162   110420370.325        2846.561          38.000    21012284.908    84607831.154        2180.957          40.000  
E10  20322452.638   106795229.267        2681.470          40.000    20322449.670    81830109.217        2054.638          44.000  
E12  18574494.667    97609671.520        1845.892          41.000    18574487.989    74791848.210        1414.202          46.000  
E14  14583691.795    76637822.674        3204.305          39.000                                                                  
E19  18223581.619    95765623.806         677.236          39.000    18223576.590    73378862.981         518.836          46.000  
E20  20656405.158   108550214.319        -463.710          38.000                                                                  
E26  21478005.038   112867595.473       -2335.868          38.000    21478006.914    86482908.282       -1789.820          40.000  
J02  32242041.012   169433050.906          69.643          35.000    32242051.819   132025567.368          53.869          36.000  
J03  31610240.117   166112907.856         828.963          45.000                                                                  
J04  32848079.481   172617807.829        -281.327          43.000    32848070.864   134507347.780        -219.379          46.000  
J07  31510027.758   165586284.204         254.443          37.000    31510020.411   129028269.895         198.126          43.000  
C07  33939006.610   136658185.971       -1166.200          39.000    33939018.002   176729222.418       -1507.568          37.000  
C08  31487247.930   126786159.818         541.355          45.000    31487264.823   163962482.551         700.205          42.000  
C10  33534617.170   135029905.689       -1135.427          38.000    33534623.890   174623474.057       -1468.445          38.000  
C13  32313377.098   130112637.497         559.105          43.000    32313382.776   168264283.075         723.098          41.000  
C14  19649166.051    79119041.634       -1779.769          43.000    19649178.538   102318390.982       -2301.656          39.000  
C24                                                                  20470262.930   106594077.293        1337.801          38.000  
C27                                                                  16602451.247    86453355.025         915.684          48.000  
C28                                                                  16815764.852    87564080.446       -1937.836          47.000  
> 2023 07 11 06 10 01.9810000  0 37                     
G05  15741311.495    82721258.593        1741.862          45.000    15741304.476    64458108.674        1356.899          41.000  
G06  16383589.112    86096376.067       -2301.838          43.000    16383585.267    67088095.912       -1793.646          42.000  
G07  17829973.017    93697340.947         128.890          43.000    17829965.763    73010892.008         100.513          38.000  
G09  19060777.231   100165135.717       -3219.644          36.000    19060773.645    78050795.507       -2508.324          36.000  
G11  14608903.009    76770375.993         133.165          46.000    14608894.003    59821074.819         103.803          49.000  
G13  15822072.545    83145705.731        3194.937          44.000                                                                  
G15  18667221.793    98096971.380        3852.076          36.000    18667222.553    76439193.766        3001.264          35.000  
G19  19746649.456   103769335.301       -3574.988          35.000                                                                  
G20  14896051.890    78279357.636         719.347          46.000                                                                  
G29  17854371.449    93825383.796        2090.521          40.000    17854365.027    73110659.978        1628.881          35.000  
G30  17203559.747    90405480.000        1656.448          42.000    17203556.042    70445906.794        1291.079          40.000  
R02  16246074.183    86692286.697       -2924.199          46.000    16246067.080    67427266.675       -2274.414          42.000  
R03  13907340.341    74447214.808        -427.502          48.000    13907327.130    57903406.197        -332.435          48.000  
R04  15642959.535    83767457.761        2531.234          45.000    15642950.692    65152383.375        1968.726          45.000  
R12  18488374.685    98761608.659        2290.015          43.000                                                                  
R17  14894666.013    79704366.580       -2980.101          48.000    14894655.935    61992218.634       -2317.821          46.000  
R18  13536241.543    72257452.462         775.078          48.000    13536231.871    56200213.479         602.945          48.000  
R19  15874071.621    84915591.483        3825.876          34.000    15874061.255    66045437.540        2975.844          39.000  
E04  21011743.434   110417524.139        2846.333          38.000    21011743.317    84605650.301        2180.946          40.000  
E10  20321942.460   106792548.067        2681.323          40.000    20321939.545    81828054.795        2054.635          44.000  
E12  18574143.541    97607826.110        1845.583          41.000    18574136.795    74790434.195        1414.100          46.000  
E14  14583082.158    76634618.946        3203.308          39.000                                                                  
E19  18223452.879    95764946.870         676.989          39.000    18223447.809    73378344.290         518.766          46.000  
E20  20656493.409   108550678.616        -464.263          38.000                                                                  
E26  21478449.429   112869931.652       -2335.901          38.000    21478451.453    86484698.342       -1790.062          40.000  
J02  32242027.782   169432981.484          69.204          35.000    32242038.525   132025513.220          54.678          36.000  
J03  31610082.363   166112079.075         828.923          45.000                                                                  
J04  32848133.066   172618089.316        -281.324          43.000    32848124.461   134507567.113        -219.166          46.000  
J07  31509979.438   165586030.132         254.413          37.000    31509972.170   129028071.901         198.283          43.000  
C07  33939296.190   136659352.012       -1166.032          39.000    33939307.619   176730730.424       -1508.192          37.000  
C08  31487113.499   126785618.527         541.564          45.000    31487130.387   163961782.561         700.154          42.000  
C10  33534899.313   135031041.458       -1136.016          38.000    33534905.910   174624942.872       -1468.927          37.000  
C13  32313238.273   130112078.544         559.220          43.000    32313243.939   168263560.225         723.229          41.000  
C14  19649608.148    79120821.587       -1779.759          43.000    19649620.707   102320692.861       -2301.728          39.000  
C24                                                                  20470006.092   106592739.652        1338.089          38.000  
C27                                                                  16602275.583    86452439.924         915.147          48.000  
C28                                                                  16816137.030    87566018.499       -1938.081          47.000  
> 2023 07 11 06 10 02.9810000  0 37                     
G05  15740980.091    82719516.916        1741.381          45.000    15740972.989    64456751.518        1356.859          41.000  
G06  16384027.203    86098678.163       -2302.380          43.000    16384023.283    67089889.761       -1794.189          42.000  
G07  17829948.561    93697212.444         127.894          43.000    17829941.203    73010791.875          99.938          38.000  
G09  19061390.035   100168355.399       -3219.815          36.000    19061386.402    78053304.354       -2508.697          36.000  
G11  14608877.567    76770243.134         132.523          46.000    14608868.716    59820971.289         103.151          49.000  
G13  15821464.664    83142510.930        3194.277          44.000                                                                  
G15  18666488.755    98093119.868        3851.033          36.000    18666489.652    76436192.518        3001.880          34.000  
G19  19747329.849   103772910.394       -3575.323          34.000                                                                  
G20  14895914.970    78278638.374         718.894          45.000                                                                  
G29  17853973.776    93823293.694        2089.553          40.000    17853967.278    73109031.294        1628.701          35.000  
G30  17203244.625    90403823.952        1655.667          42.000    17203240.787    70444616.374        1290.294          40.000  
R02  16246622.208    86695211.178       -2924.557          46.000    16246615.121    67429541.287       -2274.933          42.000  
R03  13907420.182    74447642.629        -428.315          49.000    13907407.043    57903738.946        -333.065          48.000  
R04  15642486.936    83764926.802        2530.620          45.000    15642478.085    65150414.869        1968.167          45.000  
R12  18487946.016    98759318.962        2289.200          43.000                                                                  
R17  14895222.950    79707347.236       -2981.112          48.000    14895213.115    61994536.920       -2318.710          46.000  
R18  13536096.540    72256677.921         773.918          48.000    13536086.839    56199611.061         601.959          48.000  
R19  15873356.617    84911765.940        3825.124          35.000    15873346.189    66042462.143        2974.977          39.000  
E04  21011201.721   110414677.953        2845.682          39.000    21011201.603    84603469.470        2180.602          40.000  
E10  20321432.180   106789866.795        2680.959          40.000    20321429.297    81826000.308        2054.473          45.000  
E12  18573792.215    97605980.769        1845.063          41.000    18573785.615    74789020.225        1413.828          47.000  
E14  14582472.692    76631416.396        3201.591          39.000                                                                  
E19  18223324.005    95764270.137         676.604          39.000    18223319.004    73377825.760         518.260          47.000  
E20  20656581.783   108551143.052        -464.788          38.000                                                                  
E26  21478894.150   112872267.851       -2336.507          38.000    21478896.020    86486488.395       -1790.093          40.000  
J02  32242014.520   169432911.792          69.444          35.000    32242025.210   132025458.930          54.142          36.000  
J03  31609924.602   166111250.167         828.715          45.000                                                                  
J04  32848186.475   172618370.570        -281.689          43.000    32848178.059   134507786.270        -219.140          46.000  
J07  31509930.997   165585775.892         253.963          37.000    31509923.766   129027873.790         198.038          43.000  
C07  33939585.758   136660517.919       -1165.974          39.000    33939597.229   176732238.190       -1507.798          37.000  
C08  31486978.980   126785077.080         541.219          45.000    31486995.948   163961082.331         700.218          42.000  
C10  33535181.345   135032177.119       -1136.004          38.000    33535188.028   174626411.518       -1468.759          38.000  
C13  32313099.430   130111519.387         559.273          43.000    32313105.068   168262837.133         722.856          41.000  
C14  19650050.086    79122601.387       -1779.991          43.000    19650062.841   102322994.509       -2301.831          39.000  
C24                                                                  20469749.318   106591402.245        1337.106          38.000  
C27                                                                  16602099.895    86451525.197         914.339          48.000  
C28                                                                  16816509.224    87567956.799       -1938.762          47.000  
> 2023 07 11 06 10 03.9810000  0 37                     
G05  15740648.830    82717775.691        1740.536          45.000    15740641.667    64455394.698        1356.567          41.000  
G06  16384465.425    86100980.896       -2303.008          43.000    16384461.509    67091684.093       -1794.686          42.000  
G07  17829924.279    93697084.712         127.380          43.000    17829916.985    73010692.347          99.348          37.000  
G09  19062002.833   100171575.365       -3220.109          36.000    19061999.109    78055813.446       -2509.443          35.000  
G11  14608852.415    76770111.038         131.575          47.000    14608843.560    59820868.352         102.542          49.000  
G13  15820856.881    83139316.794        3193.746          44.000                                                                  
G15  18665755.935    98089268.690        3850.793          36.000    18665756.807    76433191.684        3000.249          34.000  
G19  19748010.024   103776485.553       -3575.433          32.000                                                                  
G20  14895778.247    78277919.567         718.560          45.000                                                                  
G29  17853576.288    93821204.390        2088.966          40.000    17853569.724    73107403.308        1627.012          35.000  
G30  17202929.641    90402168.624        1654.796          42.000    17202925.709    70443326.523        1289.354          40.000  
R02  16247170.278    86698135.991       -2925.118          46.000    16247163.205    67431816.118       -2274.992          42.000  
R03  13907500.106    74448071.171        -429.050          49.000    13907487.094    57904072.251        -333.566          48.000  
R04  15642014.379    83762396.545        2529.745          45.000    15642005.669    65148446.887        1967.555          45.000  
R12  18487517.499    98757030.010        2288.507          43.000                                                                  
R17  14895780.266    79710328.753       -2982.051          48.000    14895770.230    61996855.870       -2319.270          46.000  
R18  13535951.617    72255904.481         772.797          48.000    13535941.981    56199009.497         601.003          48.000  
R19  15872641.579    84907941.063        3824.184          35.000    15872631.175    66039487.217        2974.460          39.000  
E04  21010659.993   110411832.187        2845.382          39.000    21010660.109    84601288.957        2180.151          40.000  
E10  20320922.030   106787185.863        2680.799          41.000    20320919.118    81823946.098        2054.006          44.000  
E12  18573440.956    97604135.928        1844.469          42.000    18573434.524    74787606.648        1413.337          46.000  
E14  14581863.586    76628215.434        3200.146          40.000                                                                  
E19  18223195.239    95763594.054         675.901          39.000    18223190.334    73377307.721         517.831          46.000  
E20  20656670.203   108551608.118        -465.422          38.000                                                                  
E26  21479338.867   112874604.454       -2336.824          38.000    21479340.652    86488278.783       -1790.497          40.000  
J02  32242001.281   169432842.284          69.362          35.000    32242011.951   132025404.756          54.297          36.000  
J03  31609766.936   166110421.561         828.388          45.000                                                                  
J04  32848240.000   172618652.011        -281.599          43.000    32848231.564   134508005.588        -219.465          46.000  
J07  31509882.585   165585521.892         254.102          37.000    31509875.469   129027675.865         197.865          43.000  
C07  33939875.341   136661684.023       -1166.316          39.000    33939886.845   176733746.227       -1508.441          37.000  
C08  31486844.559   126784535.751         541.249          45.000    31486861.511   163960382.285         699.802          42.000  
C10  33535463.425   135033312.959       -1135.868          38.000    33535470.130   174627880.430       -1469.109          37.000  
C13  32312960.580   130110960.378         558.908          43.000    32312966.289   168262114.192         722.661          41.000  
C14  19650492.193    79124381.327       -1779.976          43.000    19650504.913   102325296.384       -2302.040          39.000  
C24                                                                  20469492.639   106590065.427        1336.943          38.000  
C27                                                                  16601924.454    86450611.253         913.612          48.000  
C28                                                                  16816881.609    87569895.768       -1939.436          47.000  
> 2023 07 11 06 10 04.9810000  0 37                     
G05  15740317.525    82716034.774        1740.939          45.000    15740310.381    64454038.163        1356.471          41.000  
G06  16384903.733    86103284.143       -2303.273          43.000    16384899.893    67093478.828       -1794.799          42.000  
G07  17829900.138    93696957.647         127.041          43.000    17829892.808    73010593.330          99.364          37.000  
G09  19062615.680   100174795.519       -3219.582          37.000    19062611.779    78058322.675       -2509.107          35.000  
G11  14608827.452    76769979.595         131.430          47.000    14608818.453    59820765.935         102.377          49.000  
G13  15820249.170    83136123.244        3193.431          44.000                                                                  
G15  18665023.167    98085417.826        3851.362          36.000    18665024.007    76430190.993        3001.245          34.000  
G19  19748690.351   103780060.707       -3575.240          31.000                                                                  
G20  14895641.510    78277201.132         718.494          46.000                                                                  
G29  17853178.823    93819115.811        2088.594          40.000    17853172.262    73105775.821        1627.559          35.000  
G30  17202614.683    90400513.885        1654.792          42.000    17202610.744    70442037.116        1289.421          40.000  
R02  16247718.422    86701060.953       -2924.681          46.000    16247711.258    67434091.094       -2274.719          42.000  
R03  13907580.295    74448500.313        -429.073          49.000    13907567.219    57904406.031        -333.652          48.000  
R04  15641541.878    83759866.825        2529.852          45.000    15641533.192    65146479.338        1967.648          45.000  
R12  18487089.092    98754741.721        2288.334          43.000                                                                  
R17  14896337.641    79713310.998       -2982.292          48.000    14896327.561    61999175.395       -2319.493          46.000  
R18  13535806.784    72255132.030         772.151          48.000    13535797.245    56198408.697         600.742          48.000  
R19  15871926.608    84904116.736        3824.141          35.000    15871916.316    66036512.745        2974.491          39.000  
E04  21010118.507   110408986.765        2845.496          39.000    21010118.550    84599108.709        2180.325          40.000  
E10  20320411.980   106784505.195        2680.900          41.000    20320409.020    81821892.089        2054.087          45.000  
E12  18573090.098    97602291.478        1844.500          42.000    18573083.431    74786193.365        1413.444          47.000  
E14  14581254.772    76625015.954        3199.219          40.000                                                                  
E19  18223066.599    95762918.469         675.750          39.000    18223061.639    73376790.069         517.677          47.000  
E20  20656759.021   108552073.656        -465.643          38.000                                                                  
E26  21479783.606   112876941.375       -2336.680          39.000    21479785.394    86490069.409       -1790.561          40.000  
J02  32241988.031   169432772.835          69.603          35.000    32241998.752   132025350.662          54.567          36.000  
J03  31609609.336   166109593.170         828.451          45.000                                                                  
J04  32848293.544   172618933.557        -280.964          43.000    32848285.083   134508224.982        -219.182          46.000  
J07  31509834.347   165585268.013         254.396          37.000    31509827.172   129027478.061         198.026          43.000  
C07  33940165.024   136662850.205       -1166.065          39.000    33940176.474   176735254.376       -1508.277          37.000  
C08  31486710.156   126783994.502         541.362          45.000    31486727.078   163959682.318         700.249          42.000  
C10  33535745.515   135034448.955       -1135.922          38.000    33535752.254   174629349.518       -1468.765          37.000  
C13  32312821.703   130110401.434         559.186          43.000    32312827.411   168261391.343         723.259          41.000  
C14  19650934.142    79126161.374       -1779.931          43.000    19650946.978   102327598.384       -2302.006          39.000  
C24                                                                  20469236.141   106588729.167        1336.027          38.000  
C27                                                                  16601749.039    86449698.003         913.270          48.000  
C28                                                                  16817253.995    87571835.297       -1939.474          47.000  
> 2023 07 11 06 10 05.9810000  0 37                     
G05  15739986.312    82714294.114        1740.662          45.000    15739979.189    64452681.803        1356.305          41.000  
G06  16385342.158    86105587.818       -2304.222          43.000    16385338.336    67095273.877       -1795.348          42.000  
G07  17829876.089    93696831.131         126.457          43.000    17829868.669    73010494.768          98.378          37.000  
G09  19063228.387   100178015.837       -3220.529          36.000    19063224.682    78060832.007       -2509.928          35.000  
G11  14608802.579    76769848.727         130.525          47.000    14608793.664    59820663.954         101.697          49.000  
G13  15819641.587    83132930.154        3192.839          44.000                                                                  
G15  18664290.416    98081567.193        3850.483          36.000    18664291.282    76427190.502        3000.918          34.000  
G19  19749370.808   103783635.763       -3575.295          30.000                                                                  
G20  14895504.855    78276482.976         717.989          46.000                                                                  
G29  17852781.410    93817027.862        2087.611          40.000    17852774.989    73104148.847        1626.945          36.000  
G30  17202299.809    90398859.659        1653.711          42.000    17202295.964    70440748.119        1288.552          40.000  
R02  16248266.705    86703986.018       -2925.184          46.000    16248259.315    67436366.144       -2275.135          42.000  
R03  13907660.662    74448929.974        -429.965          49.000    13907647.447    57904740.227        -334.567          48.000  
R04  15641069.604    83757337.591        2528.972          45.000    15641060.911    65144512.151        1966.918          45.000  
R12  18486660.886    98752453.963        2287.487          43.000                                                                  
R17  14896894.994    79716293.885       -2983.226          48.000    14896884.986    62001495.415       -2320.268          46.000  
R18  13535662.307    72254360.481         771.068          48.000    13535652.759    56197808.605         599.774          48.000  
R19  15871211.821    84900292.848        3823.402          35.000    15871201.487    66033538.594        2974.275          39.000  
E04  21009577.067   110406141.561        2845.061          39.000    21009577.225    84596928.623        2179.953          40.000  
E10  20319901.992   106781824.683        2680.358          41.000    20319898.858    81819838.181        2053.756          44.000  
E12  18572739.150    97600447.318        1843.883          42.000    18572732.551    74784780.323        1412.676          46.000  
E14  14580646.228    76621817.909        3197.267          40.000                                                                  
E19  18222938.046    95762243.330         674.955          39.000    18222933.302    73376272.764         516.894          46.000  
E20  20656847.614   108552539.573        -466.047          38.000                                                                  
E26  21480228.367   112879278.531       -2337.372          39.000    21480230.083    86491860.203       -1790.976          40.000  
J02  32241974.933   169432703.391          69.266          35.000    32241985.648   132025296.563          53.646          36.000  
J03  31609451.690   166108764.875         828.187          45.000                                                                  
J04  32848347.099   172619215.128        -281.529          43.000    32848338.728   134508444.368        -219.260          46.000  
J07  31509786.090   165585014.238         253.616          37.000    31509778.803   129027280.300         197.650          43.000  
C07  33940454.666   136664016.436       -1166.211          39.000    33940466.137   176736762.563       -1508.133          37.000  
C08  31486575.828   126783453.208         541.411          45.000    31486592.701   163958982.316         700.066          42.000  
C10  33536027.659   135035585.002       -1136.031          38.000    33536034.367   174630818.692       -1469.708          38.000  
C13  32312682.880   130109842.479         558.769          43.000    32312688.590   168260668.491         722.825          42.000  
C14  19651376.194    79127941.419       -1780.127          43.000    19651389.140   102329900.368       -2302.106          38.000  
C24                                                                  20468979.602   106587393.303        1335.490          38.000  
C27                                                                  16601573.826    86448785.335         912.388          47.000  
C28                                                                  16817626.490    87573775.299       -1940.292          47.000  
> 2023 07 11 06 10 06.9810000  0 37                     
G05  15739655.187    82712553.628        1740.093          45.000    15739647.983    64451325.573        1356.107          41.000  
G06  16385780.599    86107891.792       -2304.146          43.000    16385776.791    67097069.185       -1795.492          42.000  
G07  17829852.079    93696705.111         125.513          43.000    17829844.635    73010396.580          97.899          37.000  
G09  19063841.069   100181236.099       -3220.054          36.000    19063837.460    78063341.308       -2509.609          35.000  
G11  14608777.631    76769718.329         130.191          47.000    14608768.857    59820562.345         101.406          49.000  
G13  15819034.112    83129737.450        3192.474          44.000                                                                  
G15  18663557.555    98077716.691        3850.219          37.000    18663558.576    76424190.143        3000.219          35.000  
G19  19750050.942   103787210.543       -3574.198          28.000                                                                  
G20  14895368.138    78275764.988         717.846          46.000                                                                  
G29  17852384.265    93814940.438        2087.174          40.000    17852377.792    73102522.292        1626.037          35.000  
G30  17201985.136    90397205.855        1653.558          42.000    17201981.271    70439459.404        1288.905          40.000  
R02  16248814.823    86706911.143       -2925.292          46.000    16248807.408    67438641.240       -2275.225          42.000  
R03  13907741.017    74449360.083        -430.476          49.000    13907727.700    57905074.746        -334.834          48.000  
R04  15640597.394    83754808.732        2528.480          45.000    15640588.634    65142545.261        1966.773          45.000  
R12  18486232.828    98750166.634        2286.933          43.000                                                                  
R17  14897452.470    79719277.355       -2983.970          48.000    14897442.610    62003815.886       -2320.748          46.000  
R18  13535518.003    72253589.772         770.136          48.000    13535508.350    56197209.165         599.018          48.000  
R19  15870497.065    84896469.319        3822.908          35.000    15870486.812    66030564.767        2973.472          39.000  
E04  21009035.674   110403296.495        2845.323          39.000    21009035.810    84594748.662        2179.906          40.000  
E10  20319391.874   106779144.222        2680.362          41.000    20319388.820    81817784.322        2053.755          44.000  
E12  18572388.409    97598603.357        1843.883          42.000    18572381.910    74783367.408        1412.864          46.000  
E14  14580037.990    76618621.144        3196.047          40.000                                                                  
E19  18222809.618    95761568.564         674.542          39.000    18222804.880    73375755.728         516.910          46.000  
E20  20656936.340   108553005.826        -466.349          38.000                                                                  
E26  21480673.081   112881615.815       -2337.431          39.000    21480674.910    86493651.095       -1790.944          40.000  
J02  32241961.697   169432633.832          69.602          35.000    32241972.397   132025242.343          54.445          36.000  
J03  31609294.045   166107936.591         828.255          45.000                                                                  
J04  32848400.677   172619496.599        -281.410          43.000    32848392.348   134508663.693        -219.227          46.000  
J07  31509737.792   165584760.404         253.736          37.000    31509730.597   129027082.511         197.656          43.000  
C07  33940744.292   136665182.639       -1166.147          40.000    33940755.953   176738270.720       -1508.019          37.000  
C08  31486441.424   126782911.857         541.290          45.000    31486458.207   163958282.231         700.031          42.000  
C10  33536309.775   135036721.047       -1136.382          38.000    33536316.526   174632287.819       -1469.053          38.000  
C13  32312544.030   130109283.425         559.154          43.000    32312549.716   168259945.526         722.835          42.000  
C14  19651818.255    79129721.407       -1780.081          43.000    19651831.225   102332202.293       -2301.801          38.000  
C24                                                                  20468723.129   106586057.791        1335.191          38.000  
C27                                                                  16601398.718    86447873.178         911.912          47.000  
C28                                                                  16817999.169    87575715.671       -1940.526          47.000  
> 2023 07 11 06 10 07.9810000  0 37                     
G05  15739324.009    82710813.225        1740.507          45.000    15739316.787    64449969.426        1356.008          41.000  
G06  16386219.053    86110196.047       -2304.333          43.000    16386215.302    67098864.705       -1795.538          42.000  
G07  17829828.203    93696579.500         125.703          43.000    17829820.819    73010298.706          97.791          37.000  
G09  19064453.803   100184456.337       -3219.771          36.000    19064450.189    78065850.600       -2509.891          35.000  
G11  14608752.886    76769588.360         129.821          47.000    14608744.188    59820461.058         101.333          49.000  
G13  15818426.617    83126545.078        3192.310          44.000                                                                  
G15  18662824.883    98073866.203        3850.394          37.000    18662825.770    76421189.771        3000.192          34.000  
G19  19750731.300   103790785.180       -3574.855          27.000                                                                  
G20  14895231.537    78275047.116         718.000          46.000                                                                  
G29  17851987.110    93812853.483        2087.113          40.000    17851980.630    73100896.085        1626.450          35.000  
G30  17201670.539    90395552.402        1653.324          42.000    17201666.531    70438171.023        1288.473          40.000  
R02  16249362.958    86709836.272       -2924.929          46.000    16249355.564    67440916.320       -2274.802          42.000  
R03  13907821.527    74449790.561        -430.485          49.000    13907808.124    57905409.557        -334.712          48.000  
R04  15640125.111    83752280.235        2528.328          45.000    15640116.548    65140578.660        1966.571          45.000  
R12  18485804.822    98747879.667        2286.951          43.000                                                                  
R17  14898010.073    79722261.347       -2984.014          48.000    14898000.296    62006136.767       -2320.842          46.000  
R18  13535373.699    72252819.824         769.699          48.000    13535364.111    56196610.310         598.784          48.000  
R19  15869782.517    84892646.065        3823.742          35.000    15869772.062    66027591.151        2973.569          39.000  
E04  21008494.301   110400451.557        2845.146          39.000    21008494.489    84592568.755        2180.010          40.000  
E10  20318881.830   106776463.778        2680.565          41.000    20318878.673    81815730.479        2053.887          44.000  
E12  18572037.603    97596759.558        1843.922          42.000    18572030.718    74781954.627        1412.824          46.000  
E14  14579429.945    76615425.637        3195.152          40.000                                                                  
E19  18222681.249    95760894.058         674.414          39.000    18222676.618    73375238.892         516.779          46.000  
E20  20657025.089   108553472.310        -466.112          38.000                                                                  
E26  21481117.804   112883953.164       -2337.081          38.000    21481119.671    86495442.064       -1791.037          40.000  
J02  32241948.364   169432564.121          69.868          35.000    32241959.078   132025188.044          54.275          36.000  
J03  31609136.432   166107108.276         828.477          45.000                                                                  
J04  32848454.165   172619777.912        -281.184          43.000    32848445.939   134508882.914        -219.098          46.000  
J07  31509689.414   165584506.455         254.248          37.000    31509682.284   129026884.637         198.083          43.000  
C07  33941033.922   136666348.758       -1165.868          39.000    33941045.488   176739778.788       -1508.073          37.000  
C08  31486306.895   126782370.369         541.524          45.000    31486323.757   163957581.949         700.674          42.000  
C10  33536591.961   135037857.024       -1135.951          38.000    33536598.702   174633756.918       -1468.965          37.000  
C13  32312405.066   130108724.239         559.370          43.000    32312410.852   168259222.359         723.731          41.000  
C14  19652260.310    79131501.302       -1779.929          43.000    19652273.271   102334504.090       -2301.579          38.000  
C24                                                                  20468466.616   106584722.554        1335.024          38.000  
C27                                                                  16601223.579    86446961.467         911.648          47.000  
C28                                                                  16818371.832    87577656.381       -1940.601          47.000  
> 2023 07 11 06 10 08.9810000  0 37                     
G05  15738992.827    82709072.982        1739.916          45.000    15738985.618    64448613.391        1355.846          41.000  
G06  16386657.592    86112500.607       -2304.899          43.000    16386653.771    67100660.469       -1796.196          42.000  
G07  17829804.371    93696454.373         124.877          43.000    17829797.006    73010201.199          96.967          37.000  
G09  19065066.554   100187676.591       -3220.702          36.000    19065062.965    78068359.839       -2509.221          35.000  
G11  14608728.206    76769458.830         129.188          46.000    14608719.514    59820360.140         100.567          49.000  
G13  15817819.163    83123353.076        3191.577          44.000                                                                  
G15  18662092.194    98070015.821        3849.967          37.000    18662092.972    76418189.495        2999.573          35.000  
G19  19751411.362   103794359.521       -3574.112          27.000                                                                  
G20  14895095.006    78274329.416         717.428          46.000                                                                  
G29  17851589.936    93810767.055        2085.889          40.000    17851583.590    73099270.329        1624.925          36.000  
G30  17201355.899    90393899.360        1652.437          42.000    17201351.920    70436882.944        1287.740          40.000  
R02  16249911.030    86712761.387       -2925.199          46.000    16249903.718    67443191.438       -2275.416          42.000  
R03  13907901.956    74450221.470        -431.441          49.000    13907888.663    57905744.713        -335.525          48.000  
R04  15639652.978    83749752.142        2527.653          45.000    15639644.411    65138612.369        1965.976          45.000  
R12  18485376.809    98745593.161        2286.006          43.000                                                                  
R17  14898567.794    79725245.882       -2984.959          48.000    14898558.056    62008458.069       -2321.665          46.000  
R18  13535229.584    72252050.658         768.583          48.000    13535220.056    56196012.079         597.737          47.000  
R19  15869067.785    84888823.202        3823.009          35.000    15869057.391    66024617.837        2972.776          39.000  
E04  21007952.856   110397606.718        2844.527          39.000    21007953.002    84590388.946        2179.839          40.000  
E10  20318371.663   106773783.361        2680.342          41.000    20318368.549    81813676.662        2053.705          44.000  
E12  18571686.794    97594915.955        1843.300          42.000    18571679.968    74780541.997        1412.451          46.000  
E14  14578822.068    76612231.426        3193.540          40.000                                                                  
E19  18222553.019    95760219.870         673.815          39.000    18222548.170    73374722.306         516.392          46.000  
E20  20657113.860   108553939.091        -466.810          38.000                                                                  
E26  21481562.439   112886290.651       -2337.678          38.000    21481564.448    86497233.092       -1791.185          40.000  
J02  32241935.107   169432494.255          69.982          35.000    32241945.775   132025133.611          54.438          36.000  
J03  31608978.744   166106279.953         828.107          45.000                                                                  
J04  32848507.711   172620059.138        -281.307          43.000    32848499.487   134509102.042        -219.272          46.000  
J07  31509641.108   165584252.472         254.296          37.000    31509633.900   129026686.731         197.723          43.000  
C07  33941323.501   136667514.833       -1166.203          39.000    33941335.058   176741286.768       -1508.199          37.000  
C08  31486172.407   126781828.779         541.286          45.000    31486189.215   163956881.562         700.272          42.000  
C10  33536873.980   135038992.953       -1135.977          38.000    33536880.773   174635225.935       -1469.187          37.000  
C13  32312266.172   130108164.955         559.165          43.000    32312271.948   168258499.085         723.318          41.000  
C14  19652702.416    79133281.113       -1779.927          43.000    19652715.224   102336805.814       -2302.223          38.000  
C24                                                                  20468210.335   106583387.614        1334.719          38.000  
C27                                                                  16601048.630    86446050.247         910.738          47.000  
C28                                                                  16818744.650    87579597.458       -1941.478          47.000  
