     3.02           OBSERVATION DATA    M (MIXED)           RINEX VERSION / TYPE
NetR9 5.30          Receiver Operator   20180830 001654 UTC PGM / RUN BY / DATE
BREF0001                                                    MARKER NAME
_                                                           MARKER NUMBER
GEODETIC                                                    MARKER TYPE         
OBS                 AGENCY                                  OBSERVER / AGENCY   
5648R51043          TRIMBLE NETR9       5.30                REC # / TYPE / VERS
                    TRM57971.00     NONE                    ANT # / TYPE
 -3827556.0423  3524863.4962  3676873.6769                  APPROX POSITION XYZ
        1.4880        0.0000        0.0000                  ANTENNA: DELTA H/E/N
G   12 C1C L1C S1C C2W L2W S2W C2X L2X S2X C5X L5X S5X      SYS / # / OBS TYPES
R    9 C1C L1C S1C C1P L1P S1P C2C L2C S2C                  SYS / # / OBS TYPES
E   12 C1X L1X S1X C5X L5X S5X C7X L7X S7X C8X L8X S8X      SYS / # / OBS TYPES
J   18 C1C L1C S1C C1X L1X S1X C1Z L1Z S1Z C2X L2X S2X C5X  SYS / # / OBS TYPES
       L5X S5X C6X L6X S6X                                  SYS / # / OBS TYPES
C    9 C1I L1I S1I C7I L7I S7I C6I L6I S6I                  SYS / # / OBS TYPES
     1.000                                                  INTERVAL
  2018     8    30     2     3   32.0000000     GPS         TIME OF FIRST OBS
G L2X -0.25000                                              SYS / PHASE SHIFT   
R L1P  0.25000                                              SYS / PHASE SHIFT   
R L2C -0.25000                                              SYS / PHASE SHIFT   
J L2X -0.25000                                              SYS / PHASE SHIFT   
DBHZ                                                        SIGNAL STRENGTH UNIT
 12 R02 -4 R03  5 R04  6 R05  1 R09 -2 R10 -7 R15  0 R16 -1 GLONASS SLOT / FRQ #
    R17  4 R18 -3 R19  3 R20  2                             GLONASS SLOT / FRQ #
                                                            GLONASS COD/PHS/BIS 
                                                            END OF HEADER       
> 2018  8 30  2  3  0.0000000  0 32       0.000000000000
G08  24020509.219 6 126228599.813 6        39.200    24020512.629 3  98359949.280 3        20.100    24020513.016 6  98359950.318 6        38.300    24020511.605 7  94261612.208 7        43.200
G28  20782856.641 7 109214646.187 7        47.000    20782854.840 6  85102316.439 6        39.800
G18  22664403.227 6 119102231.081 6        41.100    22664402.766 4  92806928.358 4        26.300
G22  21162175.945 7 111207987.855 7        46.700    21162172.758 6  86655565.241 6        40.200
G01  21181730.359 8 111310739.629 8        48.500    21181732.590 6  86735647.228 6        40.300    21181732.586 8  86735648.238 8        48.800    21181730.496 8  83121655.028 8        53.500
G03  20424335.414 8 107330622.680 8        50.400    20424336.441 6  83634259.042 6        41.600    20424336.590 8  83634272.045 8        49.600    20424337.344 9  80149498.851 9        55.000
R10  23513384.961 7 125339586.997 7        43.300    23513385.375 7 125339575.003 7        43.300    23513385.684 6  97486334.820 6        37.900
G17  22528078.555 8 118385828.790 8        49.500    22528077.855 6  92248731.747 6        36.800    22528077.371 7  92248772.754 7        45.100
J01  36927768.109 7 194056736.978 7        43.000    36927768.477 7 194056751.968 7        47.200    36927765.207 7 194056737.883 7        43.200    36927766.621 7 151213056.478 7        45.000    36927770.012 8 144912508.791 8        49.300    36927760.883 7 157513554.331 7        46.200
R09  21585944.789 7 115267746.021 7        47.000    21585943.242 7 115267735.037 7        46.100    21585936.980 7  89652675.271 7        46.700
R19  20700751.523 7 110735067.623 7        45.100    20700749.285 7 110735060.641 7        43.700    20700742.320 7  86127281.100 7        44.200
G06  24429637.602 6 128378590.271 6        36.900    24429641.090 2 100035297.09612        16.900    24429640.336 5 100035308.218 5        35.000    24429640.207 6  95867163.009 6        39.100
R16  22645358.680 6 120967425.617 6        39.900    22645358.578 6 120967414.633 6        39.100    22645353.719 6  94085744.135 6        38.100
G19  24386039.734 6 128149516.556 6        37.800    24386039.910 4  99856757.782 4        25.900
G11  21455306.789 7 112748389.185 7        47.300    21455305.359 6  87855879.402 6        36.600
R18  20688814.242 8 110438289.229 8        49.900    20688813.238 8 110438289.236 8        48.700    20688807.621 7  85896410.036 7        46.300
R03  20451616.477 8 109479143.363 8        48.600    20451616.203 7 109479139.376 7        47.600    20451610.047 7  85150445.522 7        46.400
R04  21367684.039 7 114423011.635 7        47.700    21367683.813 7 114422980.649 7        46.300    21367675.512 7  88995655.095 7        43.200
R02  23133653.383 6 123445599.398 6        36.100    23133652.156 5 123445596.409 5        35.400    23133648.840 5  96013278.108 5        35.100
C13  38380670.922 6 199858227.132 6        41.400    38380668.855 7 154543047.758 7        42.600    38380658.867 7 162401128.123 7        44.300
C07  37367022.359 6 194579882.709 6        41.300    37367012.203 7 150461461.668 7        43.900    37367003.227 7 158112008.285 7        44.600
C10  37139442.344 7 193394818.852 7        42.700    37139434.988 7 149545104.660 7        44.700    37139425.156 7 157149055.984 7        44.900
C08  36758969.961 7 191413600.147 7        45.200    36758958.965 7 148013095.740 7        46.900    36758950.660 7 155539148.843 7        47.500
C04  37426145.367 6 194887757.503 6        39.000    37426134.086 7 150699529.905 7        43.200    37426128.844 7 158362196.480 7        44.300
C03  37879082.469 6 197246310.697 6        36.500    37879072.262 7 152523322.561 7        43.600    37879066.477 7 160278724.230 7        43.500
C01  37084875.352 6 193110675.706 6        39.900    37084861.461 7 149325364.495 7        45.200    37084856.609 7 156918157.098 7        44.100
E24  23700742.969 7 124548230.560 7        46.200    23700752.297 7  93006826.531 7        47.400    23700751.758 8  95433086.500 8        48.000    23700752.391 8  94219958.126 8        51.300
E04  25990266.375 6 136579790.997 6        41.500    25990264.871 7 101991405.499 7        44.700    25990264.832 7 104652039.751 7        47.100    25990264.938 8 103321727.720 8        49.400
E25  24700099.953 7 129799903.817 7        47.400    24700099.230 8  96928493.500 8        48.600    24700098.332 8  99457057.400 8        49.200    24700098.957 8  98192778.054 8        52.400
E19  25682215.164 6 134961069.660 6        41.900    25682213.164 7 100782520.859 7        42.800    25682211.684 7 103411629.531 7        42.400    25682212.492 7 102097075.302 7        46.200
E12  22786175.664 7 119742156.723 7        46.500    22786170.020 8  89417820.019 8        48.900    22786169.715 8  91750459.496 8        48.600    22786170.461 8  90584142.353 8        52.500
E11  23064228.344 7 121203341.739 7        45.900    23064223.063 7  90508970.792 7        47.500    23064222.125 7  92870069.708 7        47.000    23064222.813 8  91689522.356 8        49.800
> 2018  8 30  2  3  1.0000000  0 32       0.000000000000
G08  24021024.336 6 126231307.338 6        38.600    24021027.852 3  98362059.050 3        19.900    24021027.988 6  98362060.062 6        38.100    24021026.527 7  94263634.068 7        42.700
G28  20782854.016 7 109214632.186 7        47.100    20782852.117 6  85102305.524 6        39.300
G18  22664944.867 6 119105075.483 6        41.300    22664944.328 3  92809144.774 3        23.400
G22  21162375.984 7 111209039.071 7        46.900    21162372.703 6  86656384.371 6        40.300
G01  21182094.539 8 111312651.707 8        48.500    21182096.617 6  86737137.164 6        40.400    21182096.188 8  86737138.175 8        48.800    21182094.348 8  83123082.878 8        53.500
G03  20424186.375 8 107329838.730 8        50.300    20424187.180 6  83633648.169 6        41.900    20424187.469 8  83633661.173 8        49.800    20424188.199 9  80148913.443 9        54.800
R10  23512938.031 7 125337200.453 7        43.800    23512937.789 7 125337188.459 7        43.500    23512938.227 6  97484478.621 6        37.800
G17  22527627.633 8 118383460.744 8        49.300    22527627.660 6  92246886.515 6        36.500    22527626.941 7  92246927.524 7        44.900
J01  36927778.906 7 194056791.420 7        43.000    36927778.910 7 194056806.413 7        47.100    36927776.523 7 194056792.341 7        42.600    36927777.117 7 151213098.910 7        45.000    36927780.465 8 144912549.453 8        49.400    36927771.133 7 157513598.536 7        46.200
R09  21586081.078 7 115268474.636 7        47.500    21586079.625 7 115268463.657 7        46.400    21586073.758 7  89653241.962 7        46.700
R19  20700502.070 7 110733738.110 7        45.300    20700500.277 7 110733731.128 7        43.200    20700493.020 7  86126247.033 7        44.200
G06  24429135.555 6 128375950.555 6        36.500    24429139.203 2 100033240.222 2        16.900    24429137.746 5 100033251.277 5        34.700    24429137.926 6  95865191.772 6        39.000
R16  22646063.734 6 120971189.876 6        40.200    22646063.516 6 120971178.888 6        39.200    22646057.523 6  94088671.861 6        37.700
G19  24385450.094 6 128146416.761 6        38.300    24385449.348 4  99854342.352 4        24.800
G11  21455678.477 7 112750342.338 7        47.300    21455677.027 6  87857401.340 6        37.300
R18  20689005.875 8 110439312.817 8        50.200    20689004.918 8 110439312.808 8        48.600    20689000.102 7  85897206.156 7        46.100
R03  20451588.727 8 109478993.748 8        49.100    20451588.168 7 109478989.770 7        47.400    20451582.301 7  85150329.155 7        46.800
R04  21366982.813 7 114419255.632 7        47.100    21366982.563 7 114419224.651 7        45.900    21366974.180 7  88992733.767 7        43.000
R02  23134249.031 5 123448771.096 5        35.800    23134246.516 5 123448768.132 5        35.400    23134243.582 5  96015744.944 5        35.400
C13  38380631.930 6 199858023.413 6        41.200    38380629.871 7 154542890.222 7        42.700    38380619.898 7 162400962.587 7        44.300
C07  37367321.234 6 194581439.681 6        41.100    37367311.199 7 150462665.614 7        43.900    37367302.113 7 158113273.447 7        44.600
C10  37139659.172 7 193395944.190 7        43.200    37139651.293 7 149545974.835 7        45.100    37139641.180 7 157149970.409 7        44.900
C08  36758963.273 7 191413564.082 7        45.700    36758951.891 7 148013067.856 7        46.800    36758943.648 7 155539119.540 7        47.300
C04  37426145.797 6 194887760.965 6        39.100    37426135.266 7 150699532.579 7        43.500    37426129.801 7 158362199.291 7        44.300
C03  37879083.938 6 197246319.275 6        36.500    37879073.984 7 152523329.190 7        43.500    37879068.102 7 160278731.197 7        43.600
C01  37084880.758 6 193110703.191 6        39.800    37084866.563 7 149325385.744 7        45.000    37084861.453 7 156918179.435 7        44.100
E24  23701240.523 7 124550846.457 7        46.100    23701250.191 7  93008779.950 7        47.400    23701249.488 8  95435090.888 8        48.200    23701250.211 8  94221937.024 8        51.500
E04  25989773.344 6 136577200.185 6        41.400    25989771.555 7 101989470.807 7        44.600    25989771.926 7 104650054.591 7        47.000    25989771.887 8 103319767.795 8        49.300
E25  24700191.813 7 129800385.432 7        47.100    24700190.969 8  96928853.146 8        49.000    24700190.012 8  99457426.438 8        49.400    24700190.609 8  98193142.396 8        52.600
E19  25682142.641 6 134960690.989 6        41.600    25682141.348 7 100782238.066 7        42.800    25682139.402 7 103411339.368 7        42.300    25682140.434 7 102096788.825 7        46.400
E12  22786344.313 7 119743042.401 7        46.600    22786338.504 8  89418481.392 8        49.000    22786338.195 8  91751138.118 8        48.600    22786338.973 8  90584812.357 8        52.600
E11  23064049.898 7 121202403.999 7        45.900    23064044.688 7  90508270.525 7        47.300    23064043.688 7  92869351.179 7        47.000    23064044.355 8  91688812.960 8        49.700
> 2018  8 30  2  3  2.0000000  0 32       0.000000000000
G08  24021539.656 6 126234015.170 6        38.700    24021542.820 3  98364169.049 3        19.600    24021543.488 6  98364170.064 6        37.800    24021541.918 7  94265656.125 7        43.000
G28  20782851.109 7 109214618.855 7        46.900    20782849.465 6  85102295.144 6        39.700
G18  22665485.680 6 119107920.027 6        41.100    22665485.797 4  92811361.318 4        24.100
G22  21162576.180 7 111210090.918 7        46.700    21162573.371 6  86657203.993 6        40.300
G01  21182458.359 8 111314564.053 8        48.400    21182460.133 6  86738627.308 6        40.700    21182460.105 8  86738628.312 8        48.500    21182458.250 8  83124510.931 8        53.500
G03  20424037.406 8 107329055.509 8        49.700    20424038.461 6  83633037.869 6        41.500    20424038.387 8  83633050.873 8        49.600    20424039.129 9  80148328.573 9        54.900
R10  23512490.875 7 125334814.679 7        43.900    23512490.160 7 125334802.688 7        43.700    23512490.063 6  97482622.992 6        38.100
G17  22527177.258 8 118381092.851 8        49.300    22527177.137 6  92245041.407 6        36.500    22527176.504 7  92245082.407 7        44.600
J01  36927789.281 7 194056846.020 7        42.600    36927789.227 7 194056861.023 7        47.100    36927786.457 7 194056846.949 7        42.600    36927787.613 7 151213141.459 7        44.900    36927790.898 8 144912590.233 8        49.200    36927781.617 7 157513642.858 7        46.500
R09  21586217.617 7 115269204.161 7        47.900    21586216.188 7 115269193.160 7        46.500    21586210.758 7  89653809.360 7        46.700
R19  20700253.313 7 110732408.800 7        45.200    20700251.801 7 110732401.811 7        43.200    20700244.621 7  86125213.132 7        44.400
G06  24428632.852 5 128373311.028 5        35.900    24428636.766 2 100031183.428 2        16.900    24428635.586 5 100031194.510 5        35.100    24428635.922 6  95863220.717 6        38.900
R16  22646769.102 6 120974954.369 6        40.800    22646768.531 6 120974943.375 6        38.800    22646763.430 6  94091599.832 6        37.900
G19  24384860.414 6 128143317.037 6        38.300    24384859.762 4  99851926.993 4        24.700
G11  21456050.250 7 112752295.796 7        47.100    21456048.965 6  87858923.514 6        36.900
R18  20689197.367 8 110440336.681 8        50.200    20689196.598 8 110440336.681 8        48.900    20689191.191 7  85898002.492 7        46.200
R03  20451560.438 8 109478845.091 8        48.400    20451560.117 7 109478841.105 7        47.200    20451553.492 7  85150213.535 7        47.000
R04  21366281.531 7 114415500.130 7        46.800    21366281.352 7 114415469.143 7        46.100    21366272.836 7  88989812.821 7        42.600
R02  23134843.641 5 123451943.404 5        35.000    23134840.914 5 123451940.415 5        35.300    23134836.563 5  96018212.285 5        35.300
C13  38380592.445 6 199857819.721 6        41.400    38380590.902 7 154542732.721 7        42.900    38380580.746 7 162400797.076 7        44.200
C07  37367620.352 6 194582996.847 6        41.400    37367610.270 7 150463869.715 7        44.000    37367601.074 7 158114538.773 7        44.600
C10  37139875.172 7 193397069.763 7        43.400    37139867.434 7 149546845.201 7        45.100    37139857.484 7 157150885.031 7        44.700
C08  36758956.328 7 191413528.061 7        46.000    36758944.973 7 148013040.004 7        47.000    36758936.785 7 155539090.269 7        47.300
C04  37426146.672 6 194887764.480 6        38.900    37426135.605 7 150699535.303 7        43.200    37426130.316 7 158362202.148 7        44.100
C03  37879085.672 6 197246327.892 6        36.800    37879075.746 7 152523335.854 7        43.800    37879069.820 7 160278738.202 7        43.700
C01  37084886.281 6 193110730.723 6        39.900    37084872.141 7 149325407.034 7        45.300    37084867.293 7 156918201.807 7        44.000
E24  23701738.453 7 124553462.596 7        46.300    23701748.047 7  93010733.573 7        47.400    23701747.176 8  95437095.473 8        48.000    23701748.016 8  94223916.127 8        51.300
E04  25989280.516 6 136574609.618 6        41.500    25989278.879 7 101987536.286 7        44.800    25989278.797 7 104648069.612 7        47.300    25989278.922 8 103317808.053 8        49.400
E25  24700283.508 7 129800867.593 7        47.400    24700282.742 8  96929213.206 8        49.100    24700281.570 8  99457795.889 8        49.700    24700282.340 8  98193507.149 8        52.700
E19  25682071.133 6 134960312.807 6        41.800    25682069.199 7 100781955.676 7        43.100    25682067.332 7 103411049.608 7        42.400    25682068.434 7 102096502.748 7        46.600
E12  22786512.898 7 119743928.214 7        46.200    22786507.105 8  89419142.876 8        49.100    22786506.793 8  91751816.860 8        48.800    22786507.535 8  90585482.475 8        52.900
E11  23063871.664 7 121201466.369 7        46.100    23063866.219 7  90507570.363 7        47.200    23063865.113 7  92868632.752 7        47.000    23063865.922 8  91688103.661 8        49.600
> 2018  8 30  2  3  3.0000000  0 32       0.000000000000
G08  24022055.008 6 126236723.243 6        39.100    24022058.598 3  98366279.217 3        19.600    24022058.141 6  98366280.214 6        37.100    24022057.129 7  94267678.395 7        43.000
G28  20782848.797 7 109214606.211 7        46.700    20782847.328 6  85102285.291 6        40.200
G18  22666026.914 6 119110764.777 6        40.500    22666026.996 4  92813577.997 4        24.400
G22  21162776.617 7 111211143.394 7        47.000    21162772.957 6  86658024.104 6        40.300
G01  21182822.188 8 111316476.689 8        48.400    21182824.672 6  86740117.666 6        40.500    21182823.914 8  86740118.677 8        48.400    21182822.250 8  83125939.196 8        53.500
G03  20423888.258 8 107328273.013 8        50.100    20423889.273 6  83632428.134 6        41.600    20423889.590 8  83632441.138 8        49.500    20423890.199 9  80147744.245 9        54.900
R10  23512044.422 7 125332429.651 7        44.100    23512042.395 7 125332417.657 7        43.400    23512042.281 6  97480767.974 6        38.300
G17  22526726.563 8 118378725.092 8        49.300    22526726.348 6  92243196.395 6        36.400    22526726.078 7  92243237.414 7        45.000
J01  36927799.359 7 194056900.792 7        43.000    36927799.656 7 194056915.808 7        47.200    36927796.172 7 194056901.725 7        42.400    36927798.020 7 151213184.149 7        44.900    36927801.316 8 144912631.127 8        49.000    36927792.059 7 157513687.319 7        46.600
R09  21586353.984 7 115269934.552 7        47.700    21586352.906 7 115269923.559 7        46.400    21586347.449 7  89654377.441 7        46.300
R19  20700005.844 7 110731079.701 7        45.000    20700003.043 7 110731072.704 7        43.600    20699995.738 7  86124179.384 7        44.300
G06  24428130.836 5 128370671.749 5        35.500    24428134.789 2 100029126.868 2        17.400    24428134.027 5 100029137.919 5        35.900    24428133.395 6  95861249.815 6        39.000
R16  22647473.734 6 120978719.163 6        40.500    22647473.469 6 120978708.181 6        39.300    22647467.797 6  94094527.991 6        37.600
G19  24384270.102 6 128140217.361 6        38.400    24384269.887 4  99849511.678 4        26.300
G11  21456421.719 7 112754249.582 7        46.800    21456420.316 6  87860445.946 6        37.500
R18  20689389.219 8 110441360.809 8        50.500    20689388.473 8 110441360.816 8        48.300    20689382.965 7  85898799.043 7        46.200
R03  20451532.578 8 109478697.389 8        48.500    20451532.820 7 109478693.395 7        47.300    20451526.586 7  85150098.649 7        46.800
R04  21365581.234 7 114411745.121 7        47.400    21365580.160 7 114411714.119 7        46.000    21365571.395 7  88986892.247 7        42.900
R02  23135437.633 5 123455116.270 5        35.100    23135435.352 5 123455113.288 5        34.600    23135431.012 5  96020680.049 5        35.900
C13  38380553.273 6 199857616.127 6        41.300    38380551.398 7 154542575.291 7        42.900    38380541.391 7 162400631.639 7        44.100
C07  37367919.445 6 194584554.177 6        41.600    37367909.570 7 150465073.941 7        44.100    37367900.324 7 158115804.234 7        44.400
C10  37140091.203 7 193398195.571 7        43.200    37140083.621 7 149547715.737 7        45.000    37140073.629 7 157151799.840 7        45.100
C08  36758949.078 7 191413492.071 7        45.900    36758938.113 7 148013012.173 7        47.000    36758929.883 7 155539061.023 7        47.200
C04  37426147.367 6 194887768.087 6        38.800    37426136.219 7 150699538.090 7        43.700    37426130.930 7 158362205.079 7        43.600
C03  37879087.461 6 197246336.603 6        36.600    37879077.238 7 152523342.591 7        43.200    37879071.414 7 160278745.275 7        43.900
C01  37084891.281 6 193110758.354 6        39.700    37084877.254 7 149325428.403 7        45.300    37084872.445 7 156918224.262 7        43.900
E24  23702236.141 7 124556079.035 7        46.300    23702245.957 7  93012687.411 7        47.300    23702245.012 7  95439100.281 7        47.600    23702245.902 8  94225895.448 8        51.200
E04  25988787.656 6 136572019.277 6        41.900    25988785.703 7 101985601.936 7        45.200    25988786.008 7 104646084.801 7        46.800    25988786.023 8 103315848.466 8        49.000
E25  24700375.219 7 129801350.320 7        47.100    24700374.539 8  96929573.676 8        49.200    24700373.512 8  99458165.763 8        49.300    24700374.223 8  98193872.330 8        52.800
E19  25681999.203 6 134959935.191 6        41.800    25681997.418 7 100781673.684 7        43.400    25681995.473 7 103410760.254 7        42.400    25681996.594 7 102096217.075 7        46.600
E12  22786681.234 7 119744814.183 7        46.400    22786675.691 8  89419804.476 8        48.900    22786675.309 8  91752495.719 8        48.600    22786676.113 8  90586152.695 8        52.600
E11  23063693.289 7 121200528.908 7        46.200    23063687.859 7  90506870.305 7        47.400    23063686.719 7  92867914.430 7        47.200    23063687.520 8  91687394.473 8        49.700
> 2018  8 30  2  3  4.0000000  0 32       0.000000000000
G08  24022570.258 6 126239431.345 6        39.200    24022574.031 3  98368389.421 3        19.600    24022572.734 6  98368390.452 6        37.100    24022572.410 7  94269700.679 7        43.200
G28  20782846.453 7 109214594.003 7        46.600    20782845.352 6  85102275.776 6        40.200
G18  22666568.039 6 119113609.422 6        40.600    22666568.566 4  92815794.583 4        24.600
G22  21162976.781 7 111212196.261 7        46.700    21162973.660 6  86658844.517 6        40.300
G01  21183186.430 7 111318389.361 7        47.900    21183188.684 6  86741608.057 6        40.200    21183187.824 8  86741609.068 8        48.500    21183186.199 8  83127367.493 8        53.600
G03  20423739.445 8 107327491.011 8        49.900    20423740.445 6  83631818.780 6        41.400    20423740.563 8  83631831.777 8        49.400    20423741.398 9  80147160.275 9        55.000
R10  23511597.180 7 125330045.142 7        44.400    23511595.129 7 125330033.137 7        43.000    23511594.840 6  97478913.364 6        38.300
G17  22526276.117 8 118376357.253 8        49.500    22526275.508 6  92241351.328 6        36.400    22526275.141 7  92241392.337 7        45.200
J01  36927809.688 7 194056955.499 7        42.700    36927810.160 7 194056970.491 7        47.200    36927807.547 7 194056956.424 7        42.600    36927808.277 7 151213226.760 7        45.100    36927811.836 8 144912671.972 8        49.300    36927802.063 7 157513731.717 7        46.300
R09  21586491.344 7 115270665.585 7        47.600    21586489.961 7 115270654.607 7        46.300    21586484.414 7  89654946.039 7        46.700
R19  20699756.336 7 110729750.542 7        45.100    20699754.918 7 110729743.567 7        43.300    20699747.691 7  86123145.593 7        44.000
G06  24427628.180 5 128368032.414 5        35.500    24427632.324 2 100027070.297 2        16.900    24427631.570 5 100027081.288 5        35.700    24427631.266 6  95859278.883 6        39.700
R16  22648178.320 6 120982483.968 6        40.500    22648178.336 6 120982472.970 6        39.500    22648172.512 6  94097456.174 6        37.400
G19  24383680.828 6 128137117.523 6        38.400    24383680.199 4  99847096.220 4        24.600
G11  21456793.789 7 112756203.418 7        46.700    21456792.531 6  87861968.404 6        37.100
R18  20689581.211 8 110442384.938 8        50.500    20689580.113 8 110442384.944 8        48.500    20689574.555 7  85899595.585 7        46.000
R03  20451505.773 8 109478550.379 8        48.200    20451505.453 7 109478546.400 7        47.200    20451499.746 7  85149984.315 7        46.900
R04  21364879.375 7 114407990.308 7        47.500    21364879.102 7 114407959.313 7        46.100    21364870.766 7  88983971.850 7        42.900
R02  23136031.406 5 123458289.510 5        35.200    23136030.039 5 123458286.531 5        34.500    23136025.563 5  96023148.155 5        35.400
C13  38380514.180 6 199857412.345 6        41.200    38380512.715 7 154542417.710 7        42.500    38380502.566 7 162400466.048 7        44.400
C07  37368218.883 6 194586111.457 6        41.700    37368208.543 7 150466278.123 7        43.900    37368199.266 7 158117069.646 7        44.400
C10  37140307.414 7 193399321.330 7        43.100    37140300.012 7 149548586.247 7        44.700    37140289.891 7 157152714.608 7        45.200
C08  36758942.352 7 191413455.855 7        45.400    36758930.891 7 148012984.160 7        47.000    36758922.723 7 155539031.588 7        47.000
C04  37426147.875 6 194887771.536 6        39.000    37426136.867 7 150699540.757 7        43.500    37426131.625 7 158362207.881 7        44.000
C03  37879089.172 6 197246345.139 6        36.500    37879078.961 7 152523349.192 7        43.500    37879073.125 7 160278752.214 7        43.300
C01  37084896.648 6 193110785.797 6        39.900    37084882.277 7 149325449.622 7        45.200    37084877.496 7 156918246.558 7        44.000
E24  23702734.047 7 124558695.525 7        46.300    23702743.738 7  93014641.283 7        47.000    23702742.953 7  95441105.108 7        47.500    23702743.762 8  94227874.798 8        51.300
E04  25988294.578 6 136569428.913 6        41.400    25988292.801 7 101983667.586 7        44.900    25988293.176 7 104644099.973 7        47.100    25988293.109 8 103313888.877 8        49.100
E25  24700467.336 7 129801833.348 7        46.800    24700466.617 8  96929934.380 8        49.000    24700465.504 8  99458535.873 8        49.300    24700466.141 8  98194237.731 8        52.900
E19  25681927.430 6 134959557.835 6        41.900    25681925.582 7 100781391.889 7        43.500    25681923.742 7 103410471.118 7        42.400    25681924.793 7 102095931.604 7        46.400
E12  22786849.727 7 119745700.047 7        46.400    22786844.223 8  89420465.991 8        48.500    22786843.926 8  91753174.496 8        48.500    22786844.695 8  90586822.847 8        52.300
E11  23063514.695 7 121199591.363 7        46.500    23063509.367 7  90506170.180 7        47.500    23063508.375 7  92867196.052 7        46.700    23063509.121 8  91686685.224 8        49.800
> 2018  8 30  2  3  5.0000000  0 32       0.000000000000
G08  24023085.320 6 126242139.759 6        39.100    24023088.984 3  98370499.902 3        19.900    24023088.461 6  98370500.902 6        36.700    24023087.820 7  94271723.182 7        43.000
G28  20782843.977 7 109214582.549 7        46.700    20782842.953 6  85102266.853 6        40.100
G18  22667109.344 6 119116454.285 6        40.600    22667109.813 4  92818011.374 4        25.400
G22  21163177.148 7 111213249.814 7        47.000    21163173.629 6  86659665.468 6        40.400
G01  21183550.398 8 111320302.369 8        48.100    21183552.770 6  86743098.719 6        40.600    21183551.707 8  86743099.716 8        48.700    21183550.238 8  83128796.029 8        53.700
G03  20423590.992 8 107326709.787 8        50.000    20423591.953 6  83631210.035 6        41.400    20423592.262 8  83631223.031 8        49.600    20423592.762 9  80146576.895 9        54.800
R10  23511149.398 7 125327661.445 7        44.200    23511148.262 7 125327649.450 7        43.600    23511148.082 6  97477059.373 6        38.200
G17  22525825.422 8 118373989.608 8        49.400    22525825.176 6  92239506.414 6        36.800    22525824.832 7  92239547.421 7        44.900
J01  36927819.922 7 194057010.429 7        42.800    36927820.488 7 194057025.416 7        47.100    36927818.023 7 194057011.324 7        42.500    36927819.125 7 151213269.559 7        44.900    36927822.219 8 144912712.982 8        49.600    36927812.973 7 157513776.296 7        46.000
R09  21586627.398 7 115271397.625 7        47.500    21586627.258 7 115271386.639 7        46.300    21586621.227 7  89655515.398 7        46.800
R19  20699507.867 7 110728421.670 7        45.300    20699506.426 7 110728414.688 7        43.500    20699499.324 7  86122112.015 7        44.300
G06  24427126.023 6 128365393.382 6        36.000    24427130.098 2 100025013.911 2        16.900    24427129.484 6 100025024.928 6        36.000    24427129.309 6  95857308.164 6        39.700
R16  22648883.875 6 120986249.129 6        40.700    22648882.695 6 120986238.136 6        39.600    22648876.645 6  94100384.620 6        37.400
G19  24383090.867 6 128134017.782 6        38.600    24383089.902 4  99844680.843 4        25.500
G11  21457165.688 7 112758157.641 7        46.600    21457164.422 6  87863491.177 6        36.700
R18  20689773.008 8 110443409.412 8        50.400    20689772.168 8 110443409.426 8        48.900    20689766.684 7  85900392.410 7        45.800
R03  20451477.922 8 109478404.395 8        48.600    20451478.164 7 109478400.415 7        46.700    20451472.445 7  85149870.754 7        46.800
R04  21364177.758 7 114404236.046 7        47.200    21364177.836 7 114404205.045 7        46.100    21364168.852 7  88981051.853 7        43.100
R02  23136626.141 5 123461463.429 5        35.400    23136624.258 5 123461460.449 5        34.700    23136622.301 5  96025616.765 5        35.600
C13  38380475.328 6 199857208.668 6        41.300    38380473.629 7 154542260.223 7        42.500    38380463.480 7 162400300.548 7        44.300
C07  37368517.430 6 194587668.982 6        41.600    37368507.465 7 150467482.499 7        44.100    37368498.207 7 158118335.256 7        44.800
C10  37140523.766 7 193400447.412 7        42.800    37140515.973 7 149549457.008 7        44.900    37140506.078 7 157153629.644 7        45.600
C08  36758935.227 7 191413419.739 7        45.800    36758924.121 7 148012956.240 7        47.200    36758916.098 7 155539002.244 7        46.900
C04  37426148.453 6 194887775.097 6        38.900    37426137.582 7 150699543.509 7        43.500    37426132.457 7 158362210.771 7        43.900
C03  37879090.367 6 197246353.812 6        36.500    37879080.645 7 152523355.894 7        43.400    37879074.844 7 160278759.261 7        43.500
C01  37084901.797 6 193110813.391 6        39.800    37084888.063 7 149325470.954 7        45.300    37084883.098 7 156918268.980 7        44.100
E24  23703231.930 7 124561312.335 7        46.600    23703241.660 7  93016595.380 7        47.300    23703240.969 7  95443110.200 7        47.300    23703241.781 8  94229854.397 8        51.500
E04  25987801.945 6 136566838.827 6        41.200    25987799.672 7 101981733.425 7        44.400    25987800.145 7 104642115.375 7        47.300    25987800.219 8 103311929.502 8        49.400
E25  24700559.172 7 129802316.987 7        47.100    24700558.566 8  96930295.542 8        48.900    24700557.711 8  99458906.458 8        49.400    24700558.188 8  98194603.602 8        53.200
E19  25681855.555 7 134959181.077 7        42.100    25681854.051 7 100781110.557 7        43.200    25681852.207 7 103410182.420 7        42.100    25681853.137 7 102095646.596 7        46.200
E12  22787018.563 7 119746586.110 7        46.600    22787012.797 8  89421127.672 8        48.500    22787012.676 8  91753853.425 8        48.500    22787013.313 8  90587493.157 8        52.100
E11  23063336.352 7 121198654.006 7        46.200    23063331.152 7  90505470.223 7        47.400    23063330.012 7  92866477.822 7        46.900    23063330.762 8  91685976.125 8        49.900
> 2018  8 30  2  3  6.0000000  0 32       0.000000000000
G08  24023601.117 6 126244848.384 6        38.900    24023604.480 3  98372610.531 3        19.900    24023603.715 6  98372611.535 6        36.400    24023603.367 7  94273745.879 7        43.200
G28  20782842.063 7 109214571.718 7        46.600    20782840.949 6  85102258.404 6        40.100
G18  22667650.961 6 119119299.299 6        40.500    22667651.082 4  92820228.276 4        24.500
G22  21163377.844 7 111214303.981 7        47.600    21163374.715 6  86660486.892 6        40.600
G01  21183914.234 7 111322215.590 7        47.900    21183916.383 6  86744589.535 6        40.700    21183916.195 8  86744590.546 8        48.700    21183914.383 8  83130224.742 8        53.800
G03  20423442.070 8 107325929.260 8        50.200    20423443.398 6  83630601.830 6        41.300    20423443.535 8  83630614.841 8        49.800    20423444.207 9  80145994.036 9        55.000
R10  23510701.914 7 125325278.492 7        44.500    23510701.414 7 125325266.490 7        43.400    23510701.785 6  97475205.981 6        38.000
G17  22525374.969 8 118371622.082 8        49.600    22525374.418 6  92237661.589 6        36.800    22525374.230 7  92237702.603 7        45.000
J01  36927830.875 7 194057065.456 7        42.900    36927830.902 7 194057080.458 7        47.000    36927827.336 7 194057066.373 7        42.300    36927829.191 7 151213312.448 7        45.000    36927832.691 8 144912754.085 8        49.100    36927823.188 7 157513820.967 7        46.100
R09  21586764.992 7 115272130.514 7        47.500    21586764.523 7 115272119.522 7        46.100    21586758.434 7  89656085.423 7        46.600
R19  20699259.461 7 110727092.967 7        45.000    20699258.465 7 110727085.971 7        43.400    20699250.219 7  86121078.585 7        44.200
G06  24426623.922 5 128362754.533 5        35.000    24426628.094 2 100022957.661 2        16.900    24426627.074 6 100022968.687 6        36.100    24426626.988 6  95855337.603 6        39.900
R16  22649588.047 6 120990014.533 6        40.900    22649587.781 6 120990003.541 6        39.900    22649582.711 6  94103313.265 6        37.500
G19  24382500.516 6 128130918.070 6        38.300    24382500.172 4  99842265.479 4        25.400
G11  21457537.227 7 112760112.159 7        47.000    21457536.367 6  87865014.179 6        36.800
R18  20689965.242 8 110444434.138 8        50.300    20689964.332 8 110444434.145 8        48.800    20689959.051 7  85901189.421 7        45.800
R03  20451451.742 8 109478259.348 8        48.600    20451451.324 7 109478255.360 7        47.200    20451444.746 7  85149757.938 7        46.700
R04  21363477.117 7 114400482.239 7        47.800    21363477.008 7 114400451.230 7        46.500    21363468.473 7  88978132.221 7        43.000
R02  23137219.953 5 123464637.963 5        35.000    23137219.266 5 123464635.005 5        34.900    23137216.824 5  96028085.831 5        35.600
C13  38380435.984 6 199857004.999 6        41.300    38380434.297 7 154542102.735 7        42.300    38380424.262 7 162400135.051 7        44.500
C07  37368817.180 6 194589226.658 6        41.700    37368806.832 7 150468686.992 7        44.700    37368797.504 7 158119601.000 7        45.000
C10  37140739.648 7 193401573.687 7        42.900    37140732.352 7 149550327.915 7        44.500    37140722.398 7 157154544.837 7        45.000
C08  36758928.711 7 191413383.633 7        45.800    36758917.152 7 148012928.319 7        47.200    36758908.949 7 155538972.906 7        46.800
C04  37426149.336 6 194887778.708 6        38.800    37426138.113 7 150699546.302 7        43.600    37426132.969 7 158362213.706 7        44.100
C03  37879092.172 6 197246362.510 6        36.700    37879082.098 7 152523362.627 7        43.300    37879076.355 7 160278766.331 7        43.700
C01  37084907.242 6 193110841.016 6        39.800    37084893.215 7 149325492.317 7        45.300    37084888.234 7 156918291.424 7        44.300
E24  23703730.180 7 124563929.387 7        46.600    23703739.688 7  93018549.677 7        47.400    23703738.805 7  95445115.485 7        47.500    23703739.785 8  94231834.191 8        51.300
E04  25987308.938 6 136564248.946 6        41.300    25987306.969 7 101979799.420 7        44.700    25987307.309 7 104640130.918 7        46.800    25987307.418 8 103309970.269 8        49.000
E25  24700651.219 7 129802801.138 7        47.000    24700650.820 8  96930657.086 8        48.900    24700649.688 8  99459277.435 8        49.300    24700650.324 8  98194969.866 8        53.100
E19  25681784.383 6 134958804.800 6        41.500    25681782.336 7 100780829.561 7        43.200    25681780.695 7 103409894.106 7        42.000    25681781.508 7 102095361.942 7        46.100
E12  22787187.094 7 119747472.290 7        46.800    22787181.477 8  89421789.426 8        48.800    22787181.250 8  91754532.448 8        48.400    22787181.957 8  90588163.543 8        52.000
E11  23063158.211 7 121197716.772 7        46.100    23063152.723 7  90504770.332 7        47.300    23063151.691 7  92865759.677 7        47.000    23063152.430 8  91685267.107 8        49.800
> 2018  8 30  2  3  7.0000000  0 32       0.000000000000
G08  24024116.961 6 126247557.178 6        39.300    24024119.965 3  98374721.289 3        19.600    24024119.301 6  98374722.274 6        36.300    24024119.035 7  94275768.665 7        42.900
G28  20782840.031 7 109214561.426 7        46.500    20782838.789 6  85102250.389 6        39.500
G18  22668192.000 6 119122144.276 6        40.200    22668192.867 4  92822445.126 4        24.400
G22  21163578.406 7 111215358.600 7        47.200    21163575.012 6  86661308.671 6        40.200
G01  21184278.547 8 111324128.955 8        48.100    21184280.504 6  86746080.472 6        40.500    21184280.023 8  86746081.483 8        48.600    21184278.469 8  83131653.557 8        53.500
G03  20423293.734 8 107325149.301 8        50.200    20423294.945 6  83629994.074 6        41.400    20423295.258 8  83630007.083 8        49.200    20423295.723 9  80145411.605 9        54.900
R10  23510255.508 7 125322896.133 7        44.500    23510254.816 7 125322884.142 7        43.200    23510255.199 6  97473352.994 6        37.600
G17  22524924.008 8 118369254.541 8        49.100    22524923.875 6  92235816.754 6        36.600    22524924.156 7  92235857.759 7        45.000
J01  36927841.344 7 194057120.511 7        42.900    36927841.652 7 194057135.505 7        47.000    36927838.125 7 194057121.428 7        42.500    36927839.734 7 151213355.340 7        44.600    36927843.152 8 144912795.200 8        49.300    36927833.590 7 157513865.655 7        46.500
R09  21586901.938 7 115272864.153 7        47.600    21586901.773 7 115272853.160 7        46.600    21586896.445 7  89656656.024 7        46.400
R19  20699011.180 7 110725764.297 7        44.900    20699009.949 7 110725757.315 7        43.600    20699002.777 7  86120045.172 7        44.300
G06  24426122.336 5 128360115.725 5        35.000    24426125.816 2 100020901.467 2        16.300    24426124.820 6 100020912.465 6        36.700    24426125.109 6  95853367.062 6        39.900
R16  22650294.070 6 120993780.038 6        40.300    22650292.797 6 120993769.051 6        39.500    22650287.227 6  94106241.988 6        37.300
G19  24381911.438 6 128127818.269 6        38.300    24381910.684 4  99839850.048 4        26.300
G11  21457909.617 7 112762066.816 7        46.800    21457908.156 6  87866537.288 6        36.700
R18  20690157.461 8 110445458.979 8        50.100    20690156.219 8 110445458.971 8        48.900    20690150.988 7  85901986.499 7        46.100
R03  20451424.219 8 109478115.106 8        48.600    20451424.344 7 109478111.127 7        47.000    20451417.824 7  85149645.762 7        46.800
R04  21362776.992 7 114396728.741 7        47.500    21362775.848 7 114396697.747 7        46.100    21362767.531 7  88975212.860 7        43.000
R02  23137816.367 5 123467812.958 5        34.700    23137814.555 5 123467809.986 5        34.900    23137812.867 5  96030555.269 5        35.700
C13  38380396.875 6 199856801.272 6        41.200    38380395.250 7 154541945.197 7        42.300    38380385.055 7 162399969.509 7        44.300
C07  37369115.922 6 194590784.390 6        41.800    37369105.672 7 150469891.530 7        44.400    37369096.457 7 158120866.787 7        44.800
C10  37140955.789 7 193402700.046 7        43.100    37140948.441 7 149551198.885 7        44.500    37140938.496 7 157155460.094 7        44.700
C08  36758921.227 7 191413347.413 7        45.300    36758910.234 7 148012900.316 7        47.100    36758902.113 7 155538943.478 7        47.000
C04  37426149.859 6 194887782.251 6        39.200    37426138.910 7 150699549.044 7        43.100    37426133.590 7 158362216.586 7        44.400
C03  37879094.117 6 197246371.148 6        36.500    37879083.836 7 152523369.307 7        43.300    37879078.031 7 160278773.344 7        43.700
C01  37084912.563 6 193110868.573 6        39.900    37084898.258 7 149325513.625 7        44.900    37084893.563 7 156918313.817 7        44.100
E24  23704228.109 7 124566546.579 7        46.600    23704237.754 7  93020504.079 7        47.400    23704236.832 7  95447120.865 7        47.600    23704237.793 8  94233814.074 8        51.200
E04  25986816.328 6 136561659.137 6        41.500    25986814.051 7 101977865.467 7        44.700    25986814.363 7 104638146.506 7        46.700    25986814.586 8 103308011.090 8        49.300
E25  24700743.438 7 129803285.684 7        47.300    24700743.113 8  96931018.930 8        49.000    24700741.805 8  99459648.713 8        49.200    24700742.504 8  98195336.430 8        52.800
E19  25681712.484 6 134958428.900 6        41.200    25681710.797 7 100780548.860 7        43.200    25681708.813 6 103409606.086 6        41.900    25681709.961 7 102095077.579 7        46.000
E12  22787355.742 7 119748358.453 7        46.600    22787350.180 8  89422451.181 8        48.800    22787349.781 8  91755211.456 8        48.800    22787350.570 8  90588833.922 8        52.200
E11  23062979.664 7 121196779.531 7        46.400    23062974.531 7  90504070.444 7        47.300    23062973.324 7  92865041.537 7        47.100    23062974.023 8  91684558.099 8        49.800
> 2018  8 30  2  3  8.0000000  0 32       0.000000000000
G08  24024632.148 6 126250266.063 6        39.000    24024635.543 3  98376832.086 3        19.300    24024635.246 6  98376833.098 6        36.200    24024634.477 7  94277791.539 7        43.000
G28  20782838.289 7 109214551.680 7        46.500    20782836.820 6  85102242.800 6        39.800
G18  22668733.953 6 119124989.262 6        39.400    22668734.207 4  92824662.004 4        24.400
G22  21163779.383 7 111216413.713 7        47.300    21163776.133 6  86662130.837 6        40.400
G01  21184642.875 8 111326042.464 8        48.000    21184644.957 6  86747571.522 6        40.800    21184643.988 8  86747572.518 8        48.600    21184642.500 8  83133082.468 8        53.800
G03  20423145.500 8 107324369.927 8        50.100    20423146.664 6  83629386.774 6        41.300    20423146.727 8  83629399.777 8        49.100    20423147.367 9  80144829.597 9        54.800
R10  23509808.852 7 125320514.371 7        45.000    23509807.832 7 125320502.385 7        43.600    23509808.137 6  97471500.556 6        37.500
G17  22524473.758 8 118366886.991 8        48.900    22524473.371 6  92233971.911 6        36.900    22524473.371 7  92234012.918 7        45.000
J01  36927851.688 7 194057175.561 7        43.200    36927851.957 7 194057190.573 7        47.200    36927848.742 7 194057176.496 7        42.300    36927850.262 7 151213398.259 7        44.500    36927853.762 8 144912836.320 8        49.300    36927844.375 7 157513910.349 7        46.500
R09  21587040.258 7 115273598.536 7        47.500    21587039.016 7 115273587.544 7        46.200    21587033.496 7  89657227.205 7        46.600
R19  20698762.961 7 110724435.686 7        44.600    20698761.707 7 110724428.704 7        43.600    20698754.055 7  86119011.812 7        44.000
G06  24425619.766 5 128357476.985 5        35.100    24425623.344 2 100018845.331 2        16.300    24425622.465 6 100018856.321 6        36.100    24425622.895 6  95851396.597 6        39.800
R16  22650998.789 6 120997545.654 6        40.900    22650997.539 6 120997534.675 6        39.600    22650992.191 6  94109170.843 6        36.900
G19  24381321.703 6 128124718.364 6        38.700    24381320.531 4  99837434.548 4        25.600
G11  21458281.453 7 112764021.661 7        46.800    21458280.191 6  87868060.540 6        36.600
R18  20690348.523 8 110446483.932 8        50.100    20690348.152 8 110446483.916 8        48.900    20690342.977 7  85902783.683 7        46.300
R03  20451398.055 8 109477971.744 8        48.200    20451397.520 7 109477967.743 7        46.900    20451391.043 7  85149534.244 7        46.700
R04  21362076.117 7 114392975.590 7        47.600    21362075.184 7 114392944.597 7        46.000    21362066.281 7  88972293.721 7        43.000
R02  23138408.352 5 123470988.440 5        34.400    23138409.660 5 123470985.458 5        35.000    23138405.723 5  96033025.065 5        35.700
C13  38380357.969 6 199856597.439 6        40.900    38380355.852 7 154541787.582 7        42.400    38380345.777 7 162399803.876 7        44.100
C07  37369414.891 6 194592342.151 6        41.700    37369404.539 7 150471096.098 7        44.300    37369395.621 7 158122132.600 7        44.900
C10  37141172.586 7 193403826.508 7        43.500    37141164.957 7 149552069.939 7        43.900    37141154.953 7 157156375.443 7        44.900
C08  36758914.180 7 191413311.089 7        45.500    36758903.148 7 148012872.230 7        46.900    36758894.988 7 155538913.965 7        46.800
C04  37426150.836 6 194887785.721 6        38.900    37426139.668 7 150699551.725 7        43.100    37426134.332 7 158362219.404 7        44.500
C03  37879095.422 6 197246379.704 6        36.400    37879085.449 7 152523375.923 7        43.600    37879079.688 7 160278780.292 7        43.500
C01  37084917.820 6 193110896.050 6        39.900    37084904.086 7 149325534.875 7        45.000    37084899.117 7 156918336.146 7        44.100
E24  23704726.414 7 124569163.902 7        46.500    23704735.836 7  93022458.576 7        47.500    23704734.805 7  95449126.342 7        47.500    23704735.859 8  94235794.064 8        51.100
E04  25986323.344 6 136559069.409 6        41.200    25986321.344 7 101975931.590 7        44.900    25986321.594 7 104636162.179 7        47.000    25986321.801 8 103306051.992 8        49.200
E25  24700835.852 7 129803770.655 7        47.300    24700835.418 8  96931381.069 8        49.100    24700834.188 8  99460020.307 8        49.200    24700834.816 8  98195703.293 8        52.700
E19  25681641.117 6 134958053.395 6        41.500    25681639.383 7 100780268.441 7        43.700    25681637.246 7 103409318.354 7        42.200    25681638.527 7 102094793.507 7        46.200
E12  22787524.391 7 119749244.623 7        46.600    22787518.832 8  89423112.925 8        49.000    22787518.617 8  91755890.479 8        48.600    22787519.211 8  90589504.302 8        52.300
E11  23062801.289 7 121195842.297 7        46.400    23062795.930 7  90503370.565 7        47.400    23062795.098 7  92864323.390 7        47.300    23062795.680 8  91683849.085 8        49.800
> 2018  8 30  2  3  9.0000000  0 32       0.000000000000
G08  24025147.602 6 126252975.332 6        38.600    24025151.434 3  98378943.187 3        19.000    24025150.695 6  98378944.232 6        36.300    24025149.957 7  94279814.685 7        43.000
G28  20782836.430 7 109214542.691 7        46.600    20782835.176 6  85102235.795 6        39.800
G18  22669274.664 6 119127834.483 6        39.600    22669275.773 3  92826879.062 3        22.800
G22  21163980.188 7 111217469.546 7        47.800    21163977.301 6  86662953.565 6        40.500
G01  21185006.695 8 111327956.328 8        48.200    21185008.633 6  86749062.843 6        40.500    21185008.227 8  86749063.854 8        48.700    21185006.820 8  83134511.655 8        53.500
G03  20422997.008 8 107323591.361 8        49.800    20422998.234 6  83628780.095 6        41.400    20422998.680 8  83628793.098 8        49.000    20422999.230 9  80144248.208 9        54.800
R10  23509362.664 7 125318133.456 7        44.900    23509361.105 7 125318121.473 7        43.200    23509360.574 6  97469648.716 6        37.300
G17  22524023.727 8 118364519.693 8        49.100    22524022.754 6  92232127.266 6        36.500    22524023.238 7  92232168.252 7        45.000
J01  36927862.016 7 194057230.898 7        43.400    36927862.555 7 194057245.910 7        47.000    36927859.344 7 194057231.806 7        42.400    36927860.516 7 151213441.363 7        44.700    36927864.258 8 144912877.632 8        49.400    36927854.738 7 157513955.254 7        46.400
R09  21587178.703 7 115274333.913 7        47.500    21587176.641 7 115274322.935 7        45.600    21587171.578 7  89657799.172 7        46.400
R19  20698514.383 7 110723107.393 7        44.700    20698513.316 7 110723100.405 7        43.700    20698505.492 7  86117978.692 7        44.100
G06  24425116.891 5 128354838.528 5        34.800    24425120.969 2 100016789.329 2        15.600    24425120.289 6 100016800.413 6        36.000    24425121.188 6  95849426.333 6        39.800
R16  22651702.883 6 121001311.630 6        40.800    22651702.547 6 121001300.636 6        39.500    22651696.734 6  94112099.933 6        36.600
G19  24380732.055 6 128121618.602 6        39.000    24380730.855 4  99835019.159 4        25.800
G11  21458653.492 7 112765976.905 7        47.300    21458652.250 6  87869584.106 6        36.700
R18  20690540.938 8 110447509.255 8        50.100    20690540.402 8 110447509.254 8        48.500    20690534.270 7  85903581.168 7        46.200
R03  20451371.766 8 109477829.437 8        48.300    20451371.230 7 109477825.444 7        47.000    20451364.363 7  85149423.563 7        46.700
R04  21361375.125 7 114389223.020 7        47.600    21361374.684 7 114389192.033 7        46.300    21361365.488 7  88969375.062 7        43.000
R02  23139004.852 5 123474164.639 5        34.400    23139005.246 5 123474161.627 5        34.400    23139000.355 5  96035495.414 5        35.400
C13  38380319.086 6 199856393.758 6        41.300    38380316.770 7 154541630.079 7        42.500    38380306.918 7 162399638.373 7        44.100
C07  37369714.234 6 194593900.161 6        41.300    37369703.887 7 150472300.848 7        44.400    37369694.586 7 158123398.608 7        45.100
C10  37141389.086 7 193404953.249 7        43.400    37141380.977 7 149552941.212 7        44.000    37141370.973 7 157157291.008 7        45.000
C08  36758907.430 7 191413274.864 7        45.400    36758896.227 7 148012844.217 7        46.800    36758887.957 7 155538884.530 7        47.000
C04  37426151.164 6 194887789.330 6        38.900    37426140.414 7 150699554.515 7        43.400    37426134.922 7 158362222.334 7        44.600
C03  37879097.141 6 197246388.414 6        36.400    37879087.109 7 152523382.658 7        43.400    37879081.363 7 160278787.372 7        43.500
C01  37084923.070 6 193110923.723 6        40.000    37084909.223 7 149325556.275 7        44.700    37084904.066 7 156918358.635 7        44.300
E24  23705224.625 7 124571781.577 7        46.600    23705234.004 7  93024413.331 7        47.200    23705232.980 7  95451132.109 7        47.400    23705233.992 8  94237774.327 8        50.800
E04  25985830.539 6 136556480.016 6        41.200    25985828.461 7 101973997.937 7        44.800    25985828.883 7 104634178.086 7        47.200    25985829.039 8 103304093.112 8        49.100
E25  24700928.078 7 129804256.259 7        47.600    24700927.820 8  96931743.695 8        49.300    24700926.617 8  99460392.385 8        49.000    24700927.223 8  98196070.646 8        52.700
E19  25681569.719 6 134957678.511 6        41.500    25681568.023 7 100779988.490 7        43.300    25681566.039 7 103409031.104 7        42.400    25681567.207 7 102094509.900 7        46.200
E12  22787692.797 7 119750131.036 7        46.900    22787687.531 8  89423774.853 8        48.500    22787687.191 8  91756569.662 8        48.700    22787687.887 8  90590174.865 8        52.400
E11  23062623.047 7 121194905.273 7        46.700    23062617.664 7  90502670.846 7        47.300    23062616.863 7  92863605.427 7        47.300    23062617.402 8  91683140.239 8        50.000
> 2018  8 30  2  3 10.0000000  0 32       0.000000000000
G08  24025662.977 6 126255684.625 6        38.200    24025666.691 3  98381054.315 3        19.900    24025666.082 6  98381055.383 6        36.700    24025665.363 7  94281837.870 7        42.600
G28  20782834.773 7 109214534.151 7        47.000    20782833.695 6  85102229.137 6        39.700
G18  22669816.383 6 119130679.664 6        39.600    22669817.207 3  92829096.066 3        22.800
G22  21164180.867 7 111218525.789 7        47.300    21164178.492 6  86663776.611 6        40.300
G01  21185370.820 8 111329870.246 8        48.300    21185372.719 6  86750554.199 6        40.500    21185372.320 8  86750555.210 8        48.600    21185370.914 8  83135940.879 8        53.500
G03  20422848.938 8 107322813.311 8        49.800    20422850.035 6  83628173.822 6        41.200    20422850.375 8  83628186.825 8        49.100    20422851.152 9  80143667.185 9        54.900
R10  23508916.609 7 125315753.070 7        45.000    23508914.816 7 125315741.088 7        43.800    23508913.215 6  97467797.339 6        37.300
G17  22523573.117 8 118362152.292 8        49.100    22523572.426 6  92230282.538 6        36.400    22523572.488 7  92230323.527 7        45.000
J01  36927872.766 7 194057286.152 7        43.200    36927873.133 7 194057301.147 7        47.000    36927869.391 7 194057287.068 7        42.000    36927870.988 7 151213484.427 7        45.000    36927874.820 8 144912918.895 8        49.200    36927864.797 7 157514000.103 7        46.600
R09  21587315.789 7 115275069.947 7        47.700    21587314.688 7 115275058.939 7        45.800    21587308.668 7  89658371.633 7        46.300
R19  20698266.266 7 110721779.122 7        44.500    20698265.223 7 110721772.127 7        43.600    20698257.652 7  86116945.577 7        44.300
G06  24424614.047 5 128352200.095 5        34.900    24424619.047 2 100014733.433 2        15.600    24424618.211 5 100014744.498 5        35.900    24424619.023 6  95847456.082 6        40.500
R16  22652408.914 6 121005077.664 6        40.700    22652407.266 6 121005066.675 6        39.800    22652401.770 6  94115029.027 6        36.800
G19  24380142.102 6 128118518.679 6        38.800    24380140.930 4  99832603.635 4        25.800
G11  21459025.578 7 112767932.240 7        46.400    21459024.391 6  87871107.737 6        36.200
R18  20690732.836 8 110448534.585 8        50.300    20690732.441 8 110448534.592 8        48.700    20690727.395 7  85904378.649 7        46.100
R03  20451345.320 8 109477687.883 8        48.900    20451344.645 7 109477683.896 7        46.900    20451338.047 7  85149313.466 7        47.200
R04  21360675.117 7 114385470.695 7        47.500    21360673.855 7 114385439.701 7        46.200    21360665.035 7  88966456.571 7        43.200
R02  23139600.336 5 123477341.165 5        34.200    23139600.520 5 123477338.178 5        34.700    23139595.559 5  96037966.055 5        35.900
C13  38380279.586 6 199856189.916 6        41.600    38380277.566 7 154541472.456 7        42.600    38380267.488 7 162399472.732 7        44.200
C07  37370013.102 6 194595458.127 6        41.300    37370003.262 7 150473505.563 7        44.100    37369994.063 7 158124664.578 7        45.000
C10  37141605.656 7 193406080.027 7        43.300    37141597.680 7 149553812.506 7        44.100    37141587.793 7 157158206.609 7        45.000
C08  36758900.188 7 191413238.469 7        45.300    36758889.270 7 148012816.080 7        46.700    36758881.137 7 155538854.956 7        46.800
C04  37426151.500 6 194887792.807 6        38.900    37426140.813 7 150699557.205 7        42.600    37426135.566 7 158362225.160 7        44.300
C03  37879098.555 6 197246396.968 6        36.600    37879089.195 7 152523389.276 7        44.000    37879083.277 7 160278794.333 7        43.700
C01  37084928.539 6 193110951.219 6        39.700    37084914.563 7 149325577.532 7        44.600    37084909.410 7 156918380.978 7        44.300
E24  23705722.656 7 124574399.333 7        46.400    23705732.270 7  93026368.149 7        47.200    23705731.270 7  95453137.908 7        47.000    23705732.133 8  94239754.640 8        50.700
E04  25985337.750 6 136553890.577 6        41.000    25985335.945 7 101972064.276 7        45.200    25985336.012 7 104632193.986 7        46.900    25985336.273 8 103302134.237 8        49.300
E25  24701020.477 7 129804742.187 7        47.300    24701020.363 8  96932106.565 8        49.100    24701019.008 8  99460764.713 8        48.500    24701019.668 8  98196438.248 8        52.600
E19  25681498.563 6 134957303.891 6        41.500    25681496.879 7 100779708.757 7        43.100    25681494.906 7 103408744.066 7        42.600    25681495.891 7 102094226.521 7        46.300
E12  22787861.484 7 119751017.350 7        46.600    22787856.254 8  89424436.713 8        48.800    22787855.855 8  91757248.783 8        48.500    22787856.547 8  90590845.351 8        52.400
E11  23062444.625 7 121193968.190 7        46.900    23062439.363 7  90501971.074 7        47.300    23062438.383 7  92862887.392 7        47.400    23062439.074 8  91682431.335 8        49.700
> 2018  8 30  2  3 11.0000000  0 32       0.000000000000
G08  24026178.258 6 126258394.106 6        37.700    24026182.340 3  98383165.603 3        18.600    24026181.648 6  98383166.642 6        36.900    24026180.941 7  94283861.174 7        42.600
G28  20782833.539 7 109214526.198 7        47.300    20782832.172 6  85102222.936 6        39.800
G18  22670358.055 6 119133524.912 6        40.000    22670358.523 4  92831313.141 4        25.600
G22  21164382.250 7 111219582.539 7        46.700    21164379.289 6  86664600.047 6        40.200
G01  21185735.172 8 111331784.341 8        48.700    21185737.328 6  86752045.706 6        40.100    21185736.957 8  86752046.710 8        48.500    21185735.129 8  83137370.234 8        53.500
G03  20422701.328 8 107322035.870 8        50.000    20422702.164 6  83627568.021 6        41.400    20422702.418 8  83627581.025 8        49.400    20422703.230 9  80143086.635 9        54.800
R10  23508470.602 7 125313373.346 7        45.200    23508468.738 7 125313361.352 7        43.700    23508466.707 6  97465946.425 6        37.500
G17  22523122.883 8 118359784.941 8        49.300    22523121.785 6  92228437.845 6        36.700    22523122.234 7  92228478.845 7        44.800
J01  36927883.266 7 194057341.469 7        43.500    36927883.316 7 194057356.464 7        46.900    36927879.809 6 194057342.389 6        41.900    36927881.859 7 151213527.527 7        44.600    36927885.273 8 144912960.200 8        49.300    36927875.613 7 157514045.009 7        46.400
R09  21587453.445 7 115275806.755 7        47.900    21587452.578 7 115275795.747 7        45.600    21587446.258 7  89658944.701 7        45.700
R19  20698017.891 7 110720450.947 7        45.000    20698017.250 7 110720443.966 7        43.200    20698009.395 7  86115912.568 7        44.300
G06  24424112.906 5 128349561.785 5        35.000    24424117.316 2 100012677.648 2        16.900    24424116.293 6 100012688.673 6        36.300    24424117.324 6  95845485.913 6        40.500
R16  22653115.102 6 121008843.834 6        41.000    22653112.535 6 121008832.842 6        39.400    22653106.727 6  94117958.304 6        36.700
G19  24379552.641 6 128115418.714 6        39.400    24379551.188 4  99830188.074 4        27.400
G11  21459397.883 7 112769887.805 7        46.800    21459396.391 6  87872631.557 6        36.200
R18  20690925.469 8 110449560.085 8        50.300    20690924.629 8 110449560.091 8        48.500    20690919.223 7  85905176.259 7        46.500
R03  20451319.133 8 109477547.221 8        48.800    20451318.859 7 109477543.234 7        46.700    20451311.707 7  85149204.072 7        47.200
R04  21359973.648 7 114381718.777 7        47.300    21359973.230 7 114381687.770 7        46.200    21359963.922 7  88963538.424 7        43.500
R02  23140196.953 5 123480518.215 5        34.300    23140196.336 5 123480515.209 5        34.700    23140191.402 5  96040437.094 5        35.200
C13  38380240.563 6 199855986.028 6        41.100    38380238.672 7 154541314.792 7        42.400    38380228.492 7 162399307.054 7        44.000
C07  37370312.203 6 194597016.195 6        40.900    37370302.383 7 150474710.355 7        44.400    37370293.266 7 158125930.632 7        44.600
C10  37141821.578 7 193407206.939 7        43.100    37141813.973 7 149554683.901 7        44.500    37141804.051 7 157159122.314 7        44.900
C08  36758893.313 7 191413202.007 7        45.000    36758882.098 7 148012787.881 7        46.500    36758874.047 7 155538825.328 7        46.700
C04  37426152.797 6 194887796.244 6        39.000    37426141.547 7 150699559.855 7        42.900    37426136.125 7 158362227.951 7        44.100
C03  37879100.758 6 197246405.549 6        36.900    37879090.836 7 152523395.908 7        43.900    37879084.516 7 160278801.302 7        43.700
C01  37084933.961 6 193110978.665 6        39.800    37084919.801 7 149325598.757 7        44.700    37084914.637 7 156918403.274 7        44.400
E24  23706220.773 7 124577017.256 7        46.800    23706230.309 7  93028323.088 7        47.200    23706229.289 7  95455143.846 7        47.200    23706230.316 8  94241735.073 8        50.400
E04  25984844.945 6 136551301.303 6        41.200    25984843.211 7 101970130.723 7        45.000    25984843.516 7 104630209.990 7        47.000    25984843.594 8 103300175.458 8        48.800
E25  24701113.227 7 129805228.549 7        47.300    24701112.926 8  96932469.761 8        49.300    24701111.582 8  99461137.391 8        48.800    24701112.254 8  98196806.180 8        53.000
E19  25681427.523 6 134956929.751 6        40.700    25681425.594 7 100779429.352 7        43.400    25681423.734 7 103408457.367 7        42.400    25681424.688 7 102093943.471 7        46.700
E12  22788030.234 7 119751903.711 7        46.500    22788024.926 8  89425098.606 8        48.800    22788024.527 8  91757927.954 8        48.600    22788025.230 8  90591515.887 8        52.200
E11  23062266.195 7 121193031.161 7        46.900    23062261.027 7  90501271.335 7        47.200    23062260.250 7  92862169.406 7        47.300    23062260.781 8  91681722.477 8        49.700
> 2018  8 30  2  3 12.0000000  0 32       0.000000000000
G08  24026693.719 6 126261103.953 6        37.400    24026697.676 3  98385277.198 3        18.600    24026697.891 6  98385278.228 6        37.800    24026696.676 7  94285884.762 7        42.700
G28  20782831.938 7 109214519.023 7        47.000    20782830.727 6  85102217.348 6        39.500
G18  22670899.680 6 119136370.406 6        40.600    22670900.043 4  92833530.417 4        24.500
G22  21164583.398 7 111220640.042 7        47.100    21164580.277 6  86665424.080 6        40.100
G01  21186099.539 8 111333698.804 8        48.800    21186101.082 6  86753537.498 6        40.400    21186100.969 8  86753538.502 8        48.400    21186099.375 8  83138799.876 8        53.700
G03  20422553.656 8 107321259.253 8        50.300    20422554.480 6  83626962.870 6        41.700    20422554.691 8  83626975.874 8        49.300    20422555.406 9  80142506.694 9        54.900
R10  23508023.836 7 125310994.483 7        45.300    23508022.277 7 125310982.504 7        43.800    23508019.805 6  97464096.220 6        36.900
G17  22522671.805 8 118357417.837 8        49.000    22522671.012 6  92226593.355 6        36.400    22522671.430 7  92226634.347 7        45.100
J01  36927893.844 7 194057397.053 7        43.600    36927893.875 7 194057412.047 7        46.900    36927890.176 7 194057397.956 7        42.000    36927892.422 7 151213570.835 7        44.800    36927895.887 8 144913001.710 8        49.100    36927886.406 7 157514090.119 7        46.000
R09  21587591.906 7 115276544.573 7        47.500    21587590.828 7 115276533.573 7        45.900    21587584.758 7  89659518.578 7        45.800
R19  20697769.648 7 110719123.082 7        45.000    20697768.652 7 110719116.116 7        42.900    20697761.098 7  86114879.800 7        44.300
G06  24423611.219 5 128346923.767 5        34.400    24423615.160 2 100010622.003 2        16.900    24423614.012 6 100010633.098 6        36.200    24423615.578 6  95843515.975 6        40.300
R16  22653818.375 6 121012610.412 6        41.200    22653817.688 6 121012599.433 6        39.800    22653811.637 6  94120887.856 6        36.500
G19  24378962.789 6 128112318.897 6        39.400    24378961.719 4  99827772.634 4        26.100
G11  21459770.242 7 112771843.782 7        47.000    21459768.418 6  87874155.707 6        37.000
R18  20691117.469 8 110450585.992 8        50.400    20691116.840 8 110450585.992 8        48.500    20691111.621 7  85905974.192 7        46.700
R03  20451293.414 8 109477407.638 8        48.900    20451292.715 7 109477403.652 7        47.000    20451285.672 7  85149095.494 7        47.100
R04  21359273.734 7 114377967.447 7        47.500    21359272.449 7 114377936.446 7        46.200    21359263.570 7  88960620.728 7        43.700
R02  23140791.602 5 123483696.003 5        34.900    23140791.715 5 123483693.003 5        34.800    23140787.172 5  96042908.682 5        35.000
C13  38380201.305 6 199855782.304 6        41.000    38380199.406 7 154541157.268 7        42.100    38380189.406 7 162399141.523 7        43.800
C07  37370611.898 6 194598574.528 6        41.400    37370601.629 7 150475915.358 7        44.500    37370592.676 7 158127196.911 7        44.700
C10  37142038.633 7 193408334.170 7        43.200    37142030.395 7 149555555.545 7        44.100    37142020.449 7 157160038.278 7        44.900
C08  36758886.406 7 191413165.649 7        45.400    36758875.457 7 148012759.763 7        46.800    36758867.270 7 155538795.780 7        46.700
C04  37426153.438 6 194887799.842 6        38.900    37426142.242 7 150699562.644 7        43.000    37426136.984 7 158362230.877 7        44.300
C03  37879102.367 6 197246414.253 6        36.700    37879092.953 7 152523402.640 7        43.800    37879086.664 7 160278808.374 7        43.300
C01  37084939.508 6 193111006.320 6        39.900    37084924.910 7 149325620.144 7        44.900    37084919.805 7 156918425.751 7        44.400
E24  23706718.820 7 124579635.558 7        46.500    23706728.734 7  93030278.309 7        47.100    23706727.383 7  95457150.080 7        47.400    23706728.563 8  94243715.798 8        50.400
E04  25984352.578 6 136548712.339 6        40.900    25984350.488 7 101968197.414 7        45.300    25984350.664 7 104628226.242 7        47.000    25984350.945 8 103298216.928 8        49.200
E25  24701205.680 7 129805715.582 7        46.900    24701205.746 8  96932833.452 8        49.300    24701204.191 8  99461510.576 8        48.900    24701204.902 8  98197174.619 8        53.000
E19  25681356.195 6 134956556.194 6        40.900    25681354.480 7 100779150.395 7        43.600    25681352.668 7 103408171.152 7        42.400    25681353.641 7 102093660.879 7        46.800
E12  22788198.992 7 119752790.322 7        46.100    22788193.570 8  89425760.689 8        48.900    22788193.148 8  91758607.301 8        49.000    22788193.922 8  90592186.604 8        52.400
E11  23062087.930 7 121192094.362 7        47.200    23062082.797 7  90500571.787 7        47.400    23062081.887 7  92861451.604 7        47.600    23062082.492 8  91681013.801 8        49.800
> 2018  8 30  2  3 13.0000000  0 32       0.000000000000
G08  24027209.703 6 126263813.824 6        37.700    24027213.563 3  98387388.801 3        18.300    24027214.070 6  98387389.798 6        38.100    24027212.387 7  94287908.344 7        42.600
G28  20782830.719 7 109214512.245 7        46.400    20782829.418 6  85102212.067 6        39.900
G18  22671441.070 6 119139215.792 6        40.600    22671441.297 3  92835747.591 3        23.900
G22  21164784.945 7 111221697.900 7        47.200    21164781.629 6  86666248.383 6        40.400
G01  21186463.742 8 111335613.299 8        48.400    21186465.906 6  86755029.307 6        40.900    21186465.621 8  86755030.317 8        48.600    21186463.742 8  83140229.524 8        53.800
G03  20422405.797 8 107320483.113 8        49.900    20422406.844 6  83626358.087 6        41.400    20422407.070 8  83626371.083 8        49.300    20422407.629 9  80141927.107 9        54.800
R10  23507577.461 7 125308616.116 7        45.200    23507576.207 7 125308604.137 7        43.700    23507573.684 6  97462246.373 6        36.900
G17  22522221.469 8 118355050.608 8        49.500    22522221.078 6  92224748.761 6        36.900    22522221.148 7  92224789.759 7        45.100
J01  36927904.609 7 194057452.537 7        43.100    36927904.539 7 194057467.539 7        46.900    36927901.434 7 194057453.447 7        42.100    36927902.898 7 151213614.077 7        44.800    36927906.355 8 144913043.144 8        49.200    36927896.770 7 157514135.157 7        45.900
R09  21587730.195 7 115277283.041 7        47.100    21587729.398 7 115277272.032 7        45.800    21587723.551 7  89660092.930 7        45.900
R19  20697521.750 7 110717795.181 7        45.000    20697520.074 7 110717788.199 7        43.300    20697512.648 7  86113846.980 7        44.700
G06  24423109.125 5 128344285.734 5        34.300    24423113.410 2 100008566.481 2        15.600    24423112.012 5 100008577.479 5        35.800    24423113.551 6  95841546.003 6        40.300
R16  22654523.641 6 121016377.012 6        40.800    22654523.094 6 121016366.037 6        39.500    22654515.715 6  94123817.426 6        36.300
G19  24378372.719 6 128109218.845 6        39.400    24378371.816 4  99825357.028 4        26.600
G11  21460142.133 7 112773799.814 7        47.200    21460140.547 6  87875679.888 6        36.500
R18  20691310.047 8 110451611.908 8        50.200    20691308.949 8 110451611.914 8        48.500    20691304.242 7  85906772.134 7        46.400
R03  20451267.578 8 109477268.754 8        49.200    20451266.738 7 109477264.783 7        47.400    20451259.590 7  85148987.466 7        46.700
R04  21358573.016 7 114374216.333 7        47.900    21358572.387 7 114374185.339 7        46.400    21358563.754 7  88957703.197 7        43.400
R02  23141387.656 5 123486874.096 5        34.800    23141387.180 5 123486871.077 5        34.500    23141381.973 5  96045380.534 5        34.900
C13  38380161.789 6 199855578.362 6        41.800    38380159.934 7 154540999.561 7        42.300    38380150.047 7 162398975.798 7        43.900
C07  37370911.234 6 194600132.786 6        41.300    37370900.973 7 150477120.301 7        43.800    37370891.984 7 158128463.125 7        45.000
C10  37142254.695 7 193409461.368 7        43.600    37142247.227 7 149556427.164 7        44.300    37142237.023 7 157160954.223 7        44.700
C08  36758879.320 7 191413129.086 7        45.600    36758867.957 7 148012731.497 7        46.500    36758860.113 7 155538766.070 7        46.800
C04  37426154.266 6 194887803.282 6        39.000    37426143.035 7 150699565.300 7        43.100    37426137.828 7 158362233.673 7        44.300
C03  37879104.109 6 197246422.778 6        36.500    37879094.098 7 152523409.227 7        43.900    37879087.895 7 160278815.301 7        43.400
C01  37084944.523 6 193111033.757 6        39.900    37084929.996 7 149325641.355 7        45.100    37084925.008 7 156918448.040 7        44.500
E24  23707217.211 7 124582253.867 7        46.600    23707226.883 7  93032233.558 7        47.300    23707225.691 7  95459156.319 7        47.000    23707226.809 8  94245696.550 8        50.500
E04  25983859.914 6 136546123.369 6        41.900    25983857.953 7 101966264.079 7        45.200    25983858.121 7 104626242.488 7        47.200    25983858.320 8 103296258.387 8        49.100
E25  24701298.539 7 129806202.907 7        47.100    24701298.496 8  96933197.358 8        49.400    24701297.016 8  99461883.976 8        49.000    24701297.629 8  98197543.270 8        52.300
E19  25681285.305 6 134956182.924 6        40.900    25681283.422 7 100778871.662 7        43.500    25681281.598 7 103407885.141 7        42.600    25681282.582 7 102093378.510 7        46.700
E12  22788367.727 7 119753676.816 7        46.300    22788362.324 8  89426422.680 8        48.900    22788361.801 8  91759286.570 8        49.200    22788362.633 8  90592857.233 8        52.100
E11  23061909.727 7 121191157.456 7        46.800    23061904.617 7  90499872.147 7        47.400    23061903.695 7  92860733.714 7        47.300    23061904.199 8  91680305.040 8        49.700
> 2018  8 30  2  3 14.0000000  0 32       0.000000000000
G08  24027725.688 6 126266524.116 6        37.700    24027729.184 3  98389500.707 3        18.300    24027729.207 6  98389501.669 6        38.300    24027728.008 7  94289932.272 7        43.000
G28  20782829.297 7 109214506.344 7        46.800    20782828.340 6  85102207.469 6        40.000
G18  22671982.750 6 119142061.479 6        40.600    22671983.184 4  92837965.015 4        25.100
G22  21164986.469 7 111222756.551 7        47.100    21164983.027 6  86667073.308 6        40.100
G01  21186828.375 8 111337528.224 8        48.600    21186830.203 6  86756521.453 6        40.800    21186830.023 8  86756522.464 8        48.300    21186828.051 8  83141659.495 8        53.600
G03  20422258.227 8 107319707.844 8        49.500    20422259.188 6  83625753.979 6        41.600    20422259.637 8  83625766.990 8        49.300    20422260.102 9  80141348.173 9        54.900
R10  23507131.648 7 125306238.683 7        45.400    23507130.371 7 125306226.693 7        43.800    23507128.723 6  97460397.228 6        37.000
G17  22521771.641 8 118352683.704 8        49.500    22521770.699 6  92222904.424 6        36.700    22521770.602 7  92222945.410 7        44.900
J01  36927915.469 7 194057508.352 7        43.000    36927915.117 7 194057523.341 7        47.000    36927912.297 7 194057509.250 7        42.000    36927913.199 7 151213657.564 7        45.000    36927917.094 8 144913084.819 8        49.300    36927907.203 7 157514180.454 7        46.300
R09  21587868.516 7 115278022.552 7        46.900    21587867.813 7 115278011.552 7        45.800    21587861.723 7  89660668.102 7        45.700
R19  20697272.883 7 110716467.617 7        45.300    20697271.770 7 110716460.635 7        43.400    20697265.043 7  86112814.422 7        44.700
G06  24422606.898 5 128341648.049 5        34.900    24422611.254 2 100006511.140 2        16.300    24422610.594 5 100006522.161 5        35.300    24422611.652 6  95839576.329 6        40.400
R16  22655228.875 6 121020144.057 6        41.000    22655227.742 6 121020133.036 6        39.200    22655221.379 6  94126747.346 6        36.300
G19  24377782.844 6 128106119.037 6        39.300    24377782.039 4  99822941.604 4        26.700
G11  21460514.609 7 112775756.328 7        47.100    21460512.910 6  87877204.445 6        36.600
R18  20691502.547 8 110452638.219 8        50.700    20691501.281 8 110452638.226 8        48.700    20691496.059 7  85907570.357 7        46.200
R03  20451241.445 8 109477130.985 8        49.000    20451240.770 7 109477127.005 7        47.100    20451233.484 7  85148880.319 7        46.400
R04  21357872.273 7 114370465.855 7        47.800    21357872.234 7 114370434.838 7        45.900    21357862.801 7  88954786.156 7        42.800
R02  23141983.133 5 123490052.930 5        34.600    23141983.691 5 123490049.961 5        34.700    23141978.664 5  96047852.965 5        35.600
C13  38380122.813 6 199855374.653 6        41.600    38380120.938 7 154540842.042 7        42.700    38380111.055 7 162398810.269 7        44.100
C07  37371210.445 6 194601691.376 6        41.400    37371200.129 7 150478325.495 7        44.600    37371191.340 7 158129729.603 7        44.700
C10  37142470.953 7 193410588.947 7        43.500    37142463.469 7 149557299.080 7        44.300    37142453.523 7 157161870.478 7        44.900
C08  36758872.609 7 191413092.700 7        45.200    36758861.398 7 148012703.362 7        46.900    36758853.410 7 155538736.504 7        46.600
C04  37426155.070 6 194887806.926 6        39.000    37426143.836 7 150699568.121 7        43.500    37426138.629 7 158362236.629 7        44.500
C03  37879105.273 6 197246431.562 6        36.500    37879096.063 7 152523416.024 7        43.900    37879089.883 7 160278822.442 7        43.200
C01  37084949.641 6 193111061.475 6        39.900    37084935.457 7 149325662.790 7        45.100    37084930.582 7 156918470.568 7        44.500
E24  23707715.688 7 124584872.640 7        46.700    23707725.234 7  93034189.120 7        47.200    23707723.988 7  95461162.910 7        47.200    23707725.152 8  94247677.617 8        50.500
E04  25983367.313 7 136543534.758 7        42.000    25983365.445 7 101964331.017 7        44.800    25983365.422 7 104624258.998 7        47.100    25983365.742 8 103294300.113 8        48.600
E25  24701391.344 7 129806690.927 7        47.300    24701391.410 8  96933561.795 8        49.000    24701389.801 8  99462257.913 8        49.000    24701390.484 8  98197912.459 8        52.300
E19  25681214.023 6 134955810.347 6        40.900    25681212.629 7 100778593.442 7        43.600    25681210.789 7 103407599.647 7        42.600    25681211.645 7 102093096.650 7        46.700
E12  22788536.281 7 119754563.605 7        46.300    22788531.059 8  89427084.899 8        49.000    22788530.469 8  91759966.061 8        48.900    22788531.352 8  90593528.088 8        52.300
E11  23061731.297 7 121190220.871 7        46.700    23061726.313 7  90499172.747 7        47.100    23061725.473 7  92860016.072 7        47.000    23061725.961 8  91679596.514 8        49.700
> 2018  8 30  2  3 15.0000000  0 32       0.000000000000
G08  24028241.586 6 126269234.442 6        38.400    24028244.938 3  98391612.611 3        18.600    24028244.531 6  98391613.623 6        38.100    24028243.707 7  94291956.225 7        42.800
G28  20782828.664 7 109214500.881 7        46.400    20782827.777 6  85102203.212 6        39.800
G18  22672523.570 6 119144907.092 6        40.000    22672524.367 3  92840182.372 3        23.400
G22  21165188.180 7 111223815.605 7        47.300    21165184.910 6  86667898.546 6        40.400
G01  21187192.563 8 111339443.207 8        48.200    21187194.734 6  86758013.653 6        40.900    21187194.164 8  86758014.656 8        48.200    21187192.543 8  83143089.512 8        53.500
G03  20422110.789 8 107318933.088 8        49.800    20422111.930 6  83625150.271 6        41.300    20422112.402 8  83625163.274 8        49.200    20422112.637 9  80140769.625 9        54.900
R10  23506685.422 7 125303861.777 7        45.000    23506684.121 7 125303849.779 7        43.500    23506682.688 6  97458548.548 6        36.900
G17  22521320.609 8 118350316.693 8        49.500    22521319.699 6  92221059.996 6        36.300    22521320.215 7  92221101.001 7        44.900
J01  36927925.406 7 194057564.091 7        42.500    36927925.824 7 194057579.081 7        46.800    36927922.539 7 194057564.999 7        42.000    36927923.828 7 151213700.993 7        44.600    36927927.652 8 144913126.442 8        49.000    36927917.746 7 157514225.697 7        46.300
R09  21588007.125 7 115278762.729 7        47.000    21588006.281 7 115278751.730 7        45.900    21588000.770 7  89661243.801 7        45.800
R19  20697025.383 7 110715140.024 7        45.300    20697023.871 7 110715133.043 7        43.400    20697016.270 7  86111781.845 7        44.700
G06  24422105.133 5 128339010.363 5        35.000    24422109.168 2 100004455.797 2        15.600    24422108.840 5 100004466.831 5        35.900    24422109.645 6  95837606.631 6        40.400
R16  22655935.141 6 121023911.081 6        40.900    22655932.879 6 121023900.105 6        39.000    22655925.590 6  94129677.255 6        36.600
G19  24377192.492 6 128103019.068 6        39.400    24377191.977 4  99820526.038 4        26.500
G11  21460886.633 7 112777712.916 7        47.200    21460885.031 6  87878729.062 6        36.600
R18  20691694.344 8 110453664.563 8        50.700    20691693.363 8 110453664.578 8        49.100    20691688.902 7  85908368.637 7        45.800
R03  20451215.602 8 109476993.945 8        49.000    20451215.656 7 109476989.958 7        47.300    20451208.398 7  85148773.725 7        46.200
R04  21357171.859 7 114366715.587 7        47.600    21357171.586 7 114366684.577 7        46.200    21357162.941 7  88951869.291 7        43.000
R02  23142580.109 5 123493232.251 5        34.800    23142578.742 5 123493229.247 5        34.400    23142574.801 5  96050325.757 5        35.400
C13  38380083.406 6 199855170.759 6        41.500    38380081.902 7 154540684.377 7        42.600    38380071.969 7 162398644.585 7        44.000
C07  37371510.063 6 194603249.957 6        41.600    37371499.344 7 150479530.694 7        44.300    37371490.719 7 158130996.081 7        45.100
C10  37142687.461 7 193411716.535 7        43.400    37142680.125 7 149558171.005 7        44.500    37142669.922 7 157162786.734 7        44.700
C08  36758865.680 7 191413056.128 7        45.600    36758854.020 7 148012675.080 7        47.000    36758846.137 7 155538706.783 7        46.800
C04  37426155.984 6 194887810.457 6        38.900    37426144.145 7 150699570.853 7        43.500    37426138.988 7 158362239.501 7        44.600
C03  37879107.305 6 197246440.163 6        36.400    37879097.379 7 152523422.671 7        43.400    37879091.293 7 160278829.429 7        43.600
C01  37084954.609 6 193111088.995 6        39.900    37084940.578 7 149325684.071 7        45.200    37084935.660 7 156918492.930 7        44.500
E24  23708214.195 7 124587491.446 7        46.600    23708223.512 7  93036144.727 7        47.200    23708222.383 7  95463169.525 7        47.200    23708223.496 8  94249658.727 8        50.700
E04  25982874.820 6 136540946.135 6        41.600    25982872.918 7 101962397.961 7        45.500    25982872.785 7 104622275.521 7        47.300    25982873.156 8 103292341.845 8        49.300
E25  24701484.336 7 129807179.280 7        47.100    24701484.258 8  96933926.471 8        49.200    24701482.820 8  99462632.102 8        49.400    24701483.441 8  98198281.896 8        52.400
E19  25681143.164 6 134955438.049 6        40.400    25681141.855 7 100778315.427 7        43.600    25681139.977 7 103407314.390 7        42.800    25681140.801 7 102092815.017 7        46.700
E12  22788705.055 7 119755450.328 7        46.500    22788699.914 8  89427747.059 8        48.600    22788699.352 8  91760645.485 8        49.000    22788700.102 8  90594198.876 8        52.400
E11  23061553.344 7 121189284.191 7        46.800    23061548.027 7  90498473.276 7        47.400    23061547.160 7  92859298.338 7        47.200    23061547.715 8  91678887.916 8        49.700
> 2018  8 30  2  3 16.0000000  0 32       0.000000000000
G08  24028757.281 6 126271944.974 6        38.900    24028760.672 3  98393724.708 3        18.600    24028760.633 6  98393725.705 6        37.300    24028759.508 7  94293980.313 7        42.700
G28  20782827.938 7 109214496.013 7        46.400    20782826.637 6  85102199.422 6        39.900
G18  22673065.234 6 119147752.776 6        39.600    22673066.086 4  92842399.795 4        24.000
G22  21165389.359 7 111224875.177 7        46.700    21165386.469 6  86668724.185 6        40.600
G01  21187556.844 7 111341358.346 7        47.600    21187559.359 6  86759505.970 6        40.500    21187558.758 8  86759506.974 8        48.500    21187557.043 8  83144519.657 8        53.600
G03  20421963.617 8 107318158.956 8        49.900    20421964.863 6  83624547.054 6        41.400    20421965.066 8  83624560.065 8        49.200    20421965.289 9  80140191.542 9        55.200
R10  23506240.078 7 125301485.512 7        45.200    23506238.379 7 125301473.532 7        43.700    23506237.324 6  97456700.341 6        36.700
G17  22520870.305 8 118347949.751 8        49.100    22520869.547 6  92219215.629 6        36.700    22520869.781 7  92219256.626 7        44.800
J01  36927936.625 7 194057619.893 7        43.000    36927936.355 7 194057634.895 7        46.900    36927933.281 7 194057620.808 7        42.100    36927934.539 7 151213744.491 7        44.900    36927938.191 8 144913168.120 8        49.400    36927928.676 7 157514271.007 7        46.700
R09  21588146.227 7 115279503.708 7        47.200    21588145.242 7 115279492.706 7        45.900    21588139.527 7  89661820.113 7        45.800
R19  20696776.914 7 110713812.555 7        45.200    20696775.637 7 110713805.559 7        43.400    20696768.930 7  86110749.361 7        44.600
G06  24421602.992 5 128336372.806 5        34.600    24421607.734 2 100002400.608 2        16.300    24421606.828 6 100002411.603 6        36.000    24421607.848 6  95835637.030 6        40.400
R16  22656639.359 6 121027678.334 6        41.300    22656638.414 6 121027667.316 6        38.900    22656631.914 6  94132607.320 6        36.200
G19  24376603.102 6 128099919.035 6        39.200    24376602.109 4  99818110.438 4        26.800
G11  21461259.078 7 112779669.740 7        47.200    21461257.809 6  87880253.856 6        36.500
R18  20691886.438 8 110454691.120 8        51.100    20691885.715 8 110454691.120 8        49.100    20691880.266 7  85909167.064 7        45.900
R03  20451190.117 8 109476857.752 8        48.700    20451189.961 7 109476853.773 7        47.600    20451183.156 7  85148667.814 7        46.300
R04  21356471.594 7 114362965.688 7        47.800    21356471.270 7 114362934.701 7        46.400    21356462.543 7  88948952.714 7        42.600
R02  23143176.258 5 123496412.051 5        35.700    23143174.305 5 123496409.067 5        34.900    23143171.621 5  96052798.995 5        35.400
C13  38380044.906 6 199854966.842 6        41.200    38380043.000 7 154540526.696 7        42.400    38380033.008 7 162398478.895 7        43.800
C07  37371808.953 6 194604808.626 6        41.800    37371798.777 7 150480735.949 7        44.200    37371790.031 7 158132262.623 7        44.700
C10  37142904.063 7 193412844.270 7        42.900    37142896.730 7 149559043.043 7        44.500    37142886.570 7 157163703.117 7        44.900
C08  36758858.469 7 191413019.526 7        45.200    36758847.051 7 148012646.777 7        47.000    36758839.082 7 155538677.049 7        47.100
C04  37426156.094 6 194887813.948 6        39.100    37426144.844 7 150699573.554 7        43.500    37426139.789 7 158362242.339 7        44.200
C03  37879109.000 6 197246448.749 6        36.900    37879099.051 7 152523429.311 7        43.500    37879093.051 7 160278836.411 7        43.800
C01  37084959.977 6 193111116.532 6        39.800    37084945.695 7 149325705.363 7        45.300    37084940.859 7 156918515.302 7        44.200
E24  23708712.359 7 124590110.433 7        46.500    23708722.027 7  93038100.470 7        46.900    23708720.598 7  95465176.291 7        47.200    23708721.879 8  94251639.990 8        50.900
E04  25982381.914 6 136538357.667 6        41.900    25982380.273 7 101960465.014 7        45.100    25982380.230 7 104620292.158 7        47.300    25982380.570 8 103290383.688 8        49.300
E25  24701577.031 7 129807668.087 7        47.400    24701577.336 8  96934291.490 8        49.100    24701575.652 8  99463006.643 8        49.100    24701576.430 8  98198651.669 8        52.200
E19  25681072.563 6 134955066.203 6        40.700    25681071.066 7 100778037.754 7        43.700    25681069.254 7 103407029.484 7        42.600    25681070.066 7 102092533.726 7        47.000
E12  22788873.859 7 119756337.085 7        46.400    22788868.578 8  89428409.252 8        48.900    22788868.133 8  91761324.973 8        48.900    22788868.871 8  90594869.715 8        52.300
E11  23061375.023 7 121188347.554 7        47.100    23061369.816 7  90497773.846 7        47.300    23061369.090 7  92858580.667 7        47.000    23061369.477 8  91678179.358 8        49.700
> 2018  8 30  2  3 17.0000000  0 32       0.000000000000
G08  24029273.508 6 126274655.695 6        39.000    24029276.648 2  98395836.944 2        17.800    24029276.988 6  98395837.963 6        36.800    24029275.137 7  94296004.565 7        42.400
G28  20782826.742 7 109214491.778 7        46.600    20782825.461 6  85102196.122 6        39.400
G18  22673607.102 6 119150598.574 6        39.800    22673607.555 4  92844617.296 4        24.500
G22  21165591.281 7 111225935.344 7        47.000    21165587.926 6  86669550.289 6        41.100
G01  21187921.375 7 111343273.744 7        47.900    21187923.480 6  86760998.485 6        40.700    21187923.262 8  86760999.488 8        48.400    21187921.516 8  83145949.996 8        53.500
G03  20421816.414 8 107317385.515 8        50.000    20421817.410 6  83623944.370 6        41.400    20421817.980 8  83623957.373 8        49.100    20421818.137 9  80139613.967 9        54.900
R10  23505793.781 7 125299110.000 7        44.300    23505792.715 7 125299098.014 7        43.200    23505791.020 6  97454852.726 6        37.300
G17  22520420.227 8 118345582.919 8        49.400    22520419.543 6  92217371.348 6        36.300    22520419.531 7  92217412.333 7        44.600
J01  36927947.172 7 194057675.827 7        42.900    36927947.234 7 194057690.817 7        46.800    36927944.211 7 194057676.760 7        42.100    36927945.313 7 151213788.065 7        45.000    36927948.852 8 144913209.884 8        49.400    36927939.031 7 157514316.405 7        46.700
R09  21588285.109 7 115280245.542 7        47.300    21588284.055 7 115280234.556 7        46.200    21588277.898 7  89662397.109 7        46.000
R19  20696528.508 7 110712485.272 7        44.800    20696527.184 7 110712478.269 7        43.600    20696520.273 7  86109717.032 7        44.900
G06  24421102.055 5 128333735.389 5        35.200    24421106.035 2 100000345.466 2        14.800    24421105.156 5 100000356.498 5        35.400    24421105.801 6  95833667.560 6        40.700
R16  22657344.656 6 121031445.755 6        40.500    22657343.617 6 121031434.765 6        39.200    22657337.172 6  94135537.550 6        36.300
G19  24376012.727 6 128096819.057 6        39.200    24376012.031 4  99815694.881 4        26.400
G11  21461631.773 7 112781626.837 7        47.000    21461629.809 5  87881778.861 5        35.900
R18  20692078.836 8 110455717.893 8        50.900    20692078.043 8 110455717.900 8        48.800    20692072.949 7  85909965.674 7        45.800
R03  20451165.047 8 109476722.476 8        48.000    20451164.914 7 109476718.504 7        47.400    20451157.316 7  85148562.595 7        46.000
R04  21355771.617 7 114359216.286 7        47.600    21355770.777 7 114359185.285 7        46.500    21355761.941 7  88946036.513 7        42.600
R02  23143771.891 5 123499592.468 5        35.200    23143770.617 5 123499589.468 5        34.900    23143766.320 5  96055272.598 5        35.700
C13  38380006.156 6 199854762.952 6        41.400    38380003.813 7 154540369.040 7        42.800    38379993.590 7 162398313.213 7        43.900
C07  37372108.516 6 194606367.412 6        41.700    37372097.895 7 150481941.304 7        44.500    37372089.270 7 158133529.259 7        45.100
C10  37143121.039 7 193413972.196 7        43.000    37143113.086 7 149559915.229 7        44.600    37143102.879 7 157164619.646 7        44.900
C08  36758851.383 7 191412982.893 7        45.300    36758840.156 7 148012618.446 7        47.000    36758832.184 7 155538647.277 7        47.200
C04  37426156.852 6 194887817.460 6        39.100    37426145.727 7 150699576.263 7        43.000    37426140.551 7 158362245.197 7        44.300
C03  37879110.883 6 197246457.380 6        37.600    37879100.672 7 152523435.988 7        42.800    37879094.668 7 160278843.426 7        43.700
C01  37084965.516 6 193111144.080 6        39.900    37084951.477 7 149325726.664 7        45.000    37084946.531 7 156918537.695 7        44.000
E24  23709210.703 7 124592729.674 7        46.500    23709220.484 7  93040056.390 7        47.000    23709218.887 7  95467183.230 7        47.300    23709220.301 8  94253621.416 8        50.900
E04  25981889.367 6 136535769.370 6        41.900    25981887.871 7 101958532.216 7        44.700    25981887.750 7 104618308.913 7        47.000    25981888.023 8 103288425.664 8        49.200
E25  24701670.125 7 129808157.407 7        47.700    24701670.410 8  96934656.881 8        49.100    24701668.742 8  99463381.580 8        48.900    24701669.566 8  98199021.839 8        52.500
E19  25681001.461 6 134954694.853 6        40.200    25681000.418 7 100777760.440 7        44.200    25680998.453 7 103406744.914 7        42.200    25680999.438 7 102092252.785 7        47.000
E12  22789042.461 7 119757223.960 7        46.400    22789037.328 8  89429071.525 8        48.700    22789036.777 8  91762004.514 8        48.700    22789037.648 8  90595540.622 8        52.400
E11  23061196.875 7 121187411.047 7        46.900    23061191.707 7  90497074.497 7        47.300    23061190.719 7  92857863.078 7        47.200    23061191.293 8  91677470.897 8        49.700
> 2018  8 30  2  3 18.0000000  0 32       0.000000000000
G08  24029789.109 6 126277366.623 6        39.000    24029792.637 3  98397949.335 3        18.300    24029792.816 6  98397950.361 6        36.200    24029791.309 7  94298028.943 7        42.600
G28  20782826.281 7 109214488.101 7        46.400    20782824.801 6  85102193.253 6        39.600
G18  22674149.367 6 119153444.433 6        40.400    22674149.086 4  92846834.825 4        24.200
G22  21165793.055 7 111226996.013 7        47.500    21165789.551 6  86670376.789 6        40.900
G01  21188286.172 7 111345189.299 7        47.300    21188287.938 6  86762491.125 6        40.900    21188287.730 8  86762492.121 8        48.400    21188285.961 8  83147380.430 8        53.600
G03  20421668.859 8 107316612.672 8        50.300    20421670.363 6  83623342.154 6        41.400    20421670.492 8  83623355.157 8        49.600    20421670.988 9  80139036.856 9        54.600
R10  23505348.055 7 125296735.105 7        44.400    23505347.340 7 125296723.115 7        43.600    23505345.996 6  97453005.592 6        37.500
G17  22519969.805 8 118343216.101 8        48.800    22519969.082 5  92215527.070 5        35.900    22519968.816 7  92215568.069 7        45.100
J01  36927957.813 7 194057731.795 7        43.500    36927957.938 7 194057746.786 7        47.100    36927954.543 7 194057732.719 7        42.100    36927956.086 7 151213831.687 7        44.900    36927959.605 8 144913251.688 8        49.700    36927949.691 7 157514361.831 7        46.600
R09  21588423.813 7 115280988.152 7        47.500    21588422.875 7 115280977.167 7        45.600    21588417.910 7  89662974.691 7        45.900
R19  20696280.766 7 110711158.093 7        45.300    20696279.301 7 110711151.097 7        43.600    20696271.816 7  86108684.788 7        45.000
G06  24420599.641 5 128331098.107 5        34.600    24420604.316 2  99998290.440 2        15.600    24420603.520 5  99998301.499 5        35.600    24420604.234 6  95831698.185 6        40.700
R16  22658050.000 6 121035213.361 6        40.500    22658048.680 6 121035202.372 6        39.200    22658042.586 6  94138467.902 6        36.100
G19  24375422.789 6 128093718.977 6        39.000    24375422.367 4  99813279.228 4        25.800
G11  21462004.766 7 112783584.133 7        47.300    21462002.520 6  87883304.024 6        36.200
R18  20692271.719 8 110456744.814 8        50.900    20692270.523 8 110456744.828 8        48.900    20692265.316 7  85910764.393 7        46.100
R03  20451139.789 8 109476588.078 8        48.300    20451139.609 7 109476584.092 7        47.200    20451132.141 7  85148458.064 7        46.000
R04  21355071.164 7 114355467.267 7        47.700    21355071.008 7 114355436.279 7        46.400    21355061.738 7  88943120.608 7        42.600
R02  23144368.172 5 123502773.349 5        35.500    23144366.359 5 123502770.359 5        34.500    23144362.172 6  96057746.614 6        36.200
C13  38379966.258 6 199854559.014 6        41.300    38379964.773 7 154540211.341 7        42.700    38379954.738 7 162398147.494 7        44.100
C07  37372408.125 6 194607926.286 6        41.300    37372397.727 7 150483146.723 7        44.300    37372388.926 7 158134795.972 7        44.900
C10  37143337.906 7 193415100.248 7        43.200    37143329.969 7 149560787.510 7        44.500    37143320.031 7 157165536.281 7        44.500
C08  36758844.438 7 191412946.195 7        45.300    36758833.137 7 148012590.071 7        46.900    36758825.102 7 155538617.455 7        46.900
C04  37426157.453 6 194887820.930 6        39.000    37426146.441 7 150699578.959 7        43.200    37426141.301 7 158362248.025 7        44.300
C03  37879112.344 6 197246465.964 6        37.300    37879102.563 7 152523442.621 7        43.300    37879096.449 7 160278850.400 7        43.500
C01  37084970.523 6 193111171.593 6        39.800    37084956.566 7 149325747.934 7        45.400    37084951.508 7 156918560.052 7        43.800
E24  23709709.297 7 124595349.086 7        46.800    23709718.957 7  93042012.431 7        47.000    23709717.629 7  95469190.303 7        47.300    23709718.773 8  94255602.973 8        51.000
E04  25981397.102 6 136533181.194 6        41.900    25981395.375 7 101956599.465 7        44.900    25981395.367 7 104616325.770 7        47.400    25981395.547 8 103286467.723 8        49.600
E25  24701763.578 7 129808647.171 7        47.400    24701763.559 8  96935022.618 8        48.900    24701761.973 8  99463756.838 8        48.900    24701762.758 8  98199392.334 8        52.300
E19  25680931.008 6 134954323.884 6        40.300    25680929.762 7 100777483.428 7        44.000    25680928.098 7 103406460.694 7        42.100    25680928.805 7 102091972.168 7        47.300
E12  22789211.273 7 119758110.860 7        46.900    22789206.215 8  89429733.820 8        49.000    22789205.570 8  91762684.088 8        48.800    22789206.398 8  90596211.558 8        52.800
E11  23061018.648 7 121186474.551 7        46.900    23061013.461 7  90496375.178 7        47.200    23061012.758 7  92857145.516 7        47.000    23061013.086 8  91676762.451 8        49.800
> 2018  8 30  2  3 19.0000000  0 32       0.000000000000
G08  24030304.180 6 126280077.800 6        38.500    24030308.789 2  98400061.973 2        17.800    24030308.035 5  98400063.015 5        35.600    24030307.227 7  94300053.551 7        42.400
G28  20782825.656 7 109214485.130 7        46.500    20782824.254 6  85102190.937 6        39.700
G18  22674690.492 6 119156290.478 6        40.300    22674691.109 4  92849052.534 4        24.400
G22  21165995.117 7 111228057.363 7        47.800    21165991.820 6  86671203.817 6        41.000
G01  21188650.461 7 111347105.165 7        47.500    21188652.730 6  86763984.006 6        40.700    21188652.344 8  86763985.002 8        48.700    21188650.516 8  83148811.107 8        53.800
G03  20421522.242 8 107315840.622 8        50.300    20421523.188 6  83622740.559 6        41.500    20421523.734 8  83622753.561 8        49.900    20421524.043 9  80138460.305 9        54.800
R10  23504903.789 7 125294361.010 7        43.900    23504901.645 7 125294349.028 7        43.600    23504901.961 6  97451159.089 6        37.300
G17  22519519.430 8 118340849.475 8        48.800    22519518.645 6  92213682.954 6        36.200    22519518.441 7  92213723.940 7        45.100
J01  36927968.453 7 194057787.980 7        43.800    36927968.750 7 194057802.969 7        47.100    36927965.566 7 194057788.877 7        42.300    36927966.801 7 151213875.462 7        44.900    36927970.277 8 144913293.635 8        49.800    36927960.434 7 157514407.430 7        46.400
R09  21588562.906 7 115281731.675 7        47.200    21588561.969 7 115281720.690 7        45.700    21588556.992 7  89663553.007 7        46.100
R19  20696032.297 7 110709831.158 7        45.300    20696030.926 7 110709824.169 7        43.400    20696024.828 7  86107652.720 7        45.200
G06  24420098.586 5 128328461.082 5        34.300    24420102.180 2  99996235.640 2        15.600    24420101.102 5  99996246.672 5        35.700    24420102.340 6  95829728.954 6        40.900
R16  22658754.531 6 121038981.244 6        40.300    22658754.008 6 121038970.235 6        39.200    22658748.625 6  94141398.487 6        36.200
G19  24374833.570 6 128090619.015 6        38.400    24374831.980 4  99810863.673 4        25.500
G11  21462376.977 7 112785541.778 7        47.500    21462375.188 6  87884829.463 6        36.200
R18  20692464.203 8 110457772.061 8        50.800    20692462.844 8 110457772.060 8        49.000    20692456.895 7  85911563.346 7        45.800
R03  20451115.266 8 109476454.713 8        48.300    20451114.754 7 109476450.734 7        47.200    20451107.402 7  85148354.342 7        46.500
R04  21354371.367 7 114351718.758 7        47.900    21354370.996 7 114351687.771 7        46.300    21354361.535 7  88940205.108 7        42.800
R02  23144966.250 5 123505954.847 5        35.900    23144962.746 5 123505951.824 5        34.600    23144959.578 6  96060221.128 6        36.000
C13  38379927.258 6 199854355.130 6        41.400    38379925.520 7 154540053.681 7        42.500    38379915.496 7 162397981.819 7        44.400
C07  37372707.148 6 194609485.388 6        41.400    37372696.957 7 150484352.319 7        44.500    37372688.188 7 158136062.871 7        44.500
C10  37143553.836 7 193416228.544 7        43.300    37143546.508 7 149561659.975 7        45.100    37143536.504 7 157166453.114 7        44.900
C08  36758837.344 7 191412909.569 7        45.400    36758825.957 7 148012561.751 7        46.700    36758817.813 7 155538587.693 7        47.000
C04  37426157.961 6 194887824.516 6        38.900    37426147.098 7 150699581.731 7        43.100    37426141.516 7 158362250.936 7        44.300
C03  37879113.906 6 197246474.663 6        37.100    37879103.988 7 152523449.351 7        43.900    37879098.098 7 160278857.468 7        43.500
C01  37084976.539 6 193111199.199 6        39.900    37084962.031 7 149325769.280 7        45.300    37084956.977 7 156918582.481 7        43.800
E24  23710207.672 7 124597968.786 7        46.300    23710217.520 7  93043968.695 7        47.100    23710216.063 7  95471197.613 7        47.300    23710217.285 8  94257584.762 8        51.300
E04  25980904.227 7 136530593.301 7        42.200    25980902.836 7 101954666.951 7        44.900    25980902.641 7 104614342.822 7        47.600    25980903.070 8 103284509.992 8        49.600
E25  24701856.945 7 129809137.490 7        47.700    24701856.953 8  96935388.767 8        49.200    24701855.289 8  99464132.545 8        49.200    24701856.059 8  98199763.266 8        52.600
E19  25680860.367 6 134953953.523 6        39.500    25680859.289 7 100777206.843 7        43.900    25680857.660 7 103406176.891 7        42.000    25680858.324 7 102091691.970 7        47.300
E12  22789380.211 7 119758997.933 7        46.800    22789375.070 8  89430396.249 8        48.800    22789374.461 8  91763363.790 8        48.800    22789375.191 8  90596882.624 8        52.700
E11  23060840.305 7 121185538.246 7        47.300    23060835.219 7  90495675.978 7        47.300    23060834.480 7  92856428.079 7        46.800    23060834.887 8  91676054.133 8        49.700
> 2018  8 30  2  3 20.0000000  0 32       0.000000000000
G08  24030820.516 6 126282789.155 6        37.900    24030824.547 3  98402174.745 3        18.600    24030823.883 5  98402175.712 5        35.600    24030823.059 7  94302078.220 7        42.200
G28  20782825.609 7 109214482.696 7        46.500    20782824.102 6  85102189.041 6        39.900
G18  22675231.570 6 119159136.513 6        40.200    22675232.328 4  92851270.232 4        24.900
G22  21166197.234 7 111229119.178 7        47.500    21166194.129 6  86672031.200 6        40.800
G01  21189015.438 8 111349021.136 8        48.000    21189017.137 6  86765476.971 6        40.400    21189016.828 8  86765477.974 8        49.100    21189015.109 8  83150241.864 8        53.900
G03  20421375.680 8 107315069.096 8        50.300    20421376.746 6  83622139.369 6        40.900    20421376.918 8  83622152.379 8        49.500    20421377.313 9  80137884.182 9        54.800
R10  23504458.508 7 125291987.523 7        44.100    23504456.574 7 125291975.529 7        43.700    23504455.477 6  97449313.037 6        37.300
G17  22519068.734 8 118338482.830 8        49.000    22519068.160 6  92211838.812 6        36.600    22519068.313 7  92211879.790 7        44.900
J01  36927979.266 7 194057844.131 7        43.600    36927979.465 7 194057859.130 7        47.100    36927975.875 7 194057845.058 7        42.300    36927977.137 7 151213919.224 7        44.900    36927981.082 8 144913335.577 8        49.500    36927971.012 7 157514453.021 7        46.300
R09  21588701.703 7 115282475.953 7        46.900    21588701.211 7 115282464.959 7        45.600    21588695.965 7  89664131.874 7        46.400
R19  20695784.031 7 110708504.261 7        44.900    20695782.895 7 110708497.279 7        43.300    20695775.465 7  86106620.699 7        45.100
G06  24419594.922 5 128325824.096 5        34.100    24419600.258 2  99994180.850 2        16.300    24419599.059 5  99994191.865 5        35.600    24419600.313 6  95827759.796 6        40.900
R16  22659460.977 6 121042749.254 6        40.400    22659459.328 6 121042738.259 6        39.000    22659453.746 6  94144329.144 6        36.300
G19  24374243.430 6 128087518.921 6        38.400    24374242.637 4  99808448.028 4        25.800
G11  21462749.602 7 112787499.592 7        47.500    21462747.664 6  87886355.039 6        36.400
R18  20692656.461 8 110458799.399 8        50.800    20692655.363 8 110458799.398 8        49.400    20692650.176 7  85912362.383 7        46.200
R03  20451090.344 8 109476322.169 8        48.500    20451089.645 7 109476318.183 7        46.700    20451083.117 7  85148251.249 7        46.400
R04  21353671.711 7 114347970.533 7        47.800    21353670.754 7 114347939.553 7        46.700    21353661.898 7  88937289.842 7        42.700
R02  23145560.828 5 123509136.790 5        35.600    23145558.992 5 123509133.793 5        34.200    23145555.512 6  96062695.966 6        36.300
C13  38379888.859 6 199854151.189 6        41.800    38379886.168 7 154539895.978 7        42.700    38379876.133 7 162397816.099 7        44.000
C07  37373006.703 6 194611044.482 6        41.300    37372996.023 7 150485557.904 7        44.100    37372987.563 7 158137329.766 7        44.400
C10  37143770.781 7 193417356.903 7        43.200    37143763.164 7 149562532.496 7        45.300    37143753.285 7 157167369.996 7        44.700
C08  36758830.266 7 191412872.819 7        45.600    36758819.180 7 148012533.327 7        46.800    36758811.035 7 155538557.827 7        47.000
C04  37426158.898 6 194887828.029 6        38.900    37426147.707 7 150699584.440 7        43.600    37426142.152 7 158362253.786 7        44.500
C03  37879115.398 6 197246483.252 6        37.000    37879105.867 7 152523455.994 7        43.700    37879099.785 7 160278864.441 7        43.800
C01  37084981.711 6 193111226.718 6        40.000    37084967.398 7 149325790.563 7        45.300    37084962.344 7 156918604.842 7        43.800
E24  23710706.305 7 124600588.608 7        46.100    23710716.047 7  93045925.062 7        47.300    23710714.453 7  95473205.005 7        47.400    23710715.836 8  94259566.641 8        51.500
E04  25980412.078 7 136528005.442 7        42.400    25980410.766 7 101952734.467 7        45.000    25980410.227 7 104612359.929 7        47.600    25980410.602 8 103282552.302 8        49.600
E25  24701950.227 7 129809628.232 7        47.400    24701950.172 8  96935755.213 8        49.200    24701948.543 8  99464508.556 8        49.100    24701949.430 8  98200134.493 8        52.300
E19  25680789.875 6 134953583.493 6        40.200    25680788.836 7 100776930.528 7        43.800    25680787.172 7 103405893.365 7        42.300    25680787.898 7 102091412.054 7        46.900
E12  22789548.977 7 119759885.000 7        46.300    22789543.938 8  89431058.659 8        48.500    22789543.250 8  91764043.481 8        48.700    22789544.000 8  90597553.674 8        52.400
E11  23060662.242 7 121184601.919 7        47.100    23060657.012 7  90494976.776 7        47.200    23060656.406 7  92855710.643 7        47.100    23060656.703 8  91675345.818 8        49.700
> 2018  8 30  2  3 21.0000000  0 32       0.000000000000
G08  24031335.586 6 126285500.701 6        37.000    24031340.523 3  98404287.634 3        18.300    24031340.051 5  98404288.653 5        35.300    24031339.230 7  94304103.073 7        42.100
G28  20782824.984 7 109214480.902 7        46.500    20782823.344 6  85102187.645 6        39.400
G18  22675773.586 6 119161982.687 6        40.000    22675774.078 4  92853488.029 4        25.600
G22  21166399.445 7 111230181.586 7        47.600    21166396.129 6  86672859.054 6        40.900
G01  21189380.180 8 111350937.352 8        48.000    21189381.621 6  86766970.125 6        40.600    21189381.625 8  86766971.121 8        48.700    21189379.727 8  83151672.811 8        53.500
G03  20421228.828 8 107314298.284 8        50.300    20421229.773 6  83621538.730 6        41.100    20421230.039 8  83621551.741 8        49.400    20421230.512 9  80137308.567 9        54.600
R10  23504013.297 7 125289614.752 7        44.400    23504011.832 7 125289602.754 7        43.600    23504010.117 6  97447467.538 6        37.100
G17  22518618.672 8 118336116.306 8        49.100    22518617.750 6  92209994.770 6        36.800    22518618.063 7  92210035.757 7        45.200
J01  36927990.500 7 194057900.426 7        44.100    36927990.188 7 194057915.432 7        47.200    36927986.984 7 194057901.348 7        42.500    36927988.043 7 151213963.085 7        44.300    36927991.754 8 144913377.614 8        49.600    36927982.051 7 157514498.704 7        46.000
R09  21588841.227 7 115283221.070 7        46.900    21588840.688 7 115283210.084 7        45.800    21588835.766 7  89664711.415 7        46.600
R19  20695536.211 7 110707177.547 7        44.700    20695535.496 7 110707170.551 7        43.300    20695528.105 7  86105588.812 7        45.500
G06  24419094.047 5 128323187.320 5        34.400    24419098.551 2  99992126.253 2        16.300    24419096.781 5  99992137.245 5        35.300    24419098.441 6  95825790.754 6        40.400
R16  22660165.398 6 121046517.480 6        39.800    22660164.734 6 121046506.501 6        38.900    22660158.645 6  94147259.987 6        36.000
G19  24373653.195 6 128084418.872 6        38.600    24373652.598 4  99806032.396 4        25.900
G11  21463121.813 7 112789457.680 7        47.500    21463120.305 6  87887880.826 6        37.100
R18  20692849.023 8 110459826.971 8        50.800    20692847.805 8 110459826.978 8        49.200    20692842.238 7  85913161.615 7        46.000
R03  20451065.961 8 109476190.561 8        48.700    20451065.332 7 109476186.567 7        46.900    20451057.895 7  85148148.884 7        46.600
R04  21352972.313 8 114344222.753 8        48.000    21352971.168 7 114344191.766 7        46.400    21352962.535 7  88934374.890 7        42.700
R02  23146157.609 5 123512319.305 5        35.600    23146154.789 5 123512316.332 5        33.700    23146152.629 6  96065171.256 6        36.500
C13  38379849.063 7 199853947.239 7        42.100    38379846.539 7 154539738.277 7        42.400    38379836.828 7 162397650.380 7        43.900
C07  37373305.992 6 194612603.725 6        41.600    37373295.344 7 150486763.613 7        44.100    37373286.895 7 158138596.778 7        44.500
C10  37143987.844 7 193418485.489 7        43.400    37143979.906 7 149563405.188 7        44.900    37143969.949 7 157168287.063 7        44.800
C08  36758823.438 7 191412836.053 7        45.100    36758812.383 7 148012504.899 7        46.600    36758804.219 7 155538527.955 7        46.800
C04  37426159.031 6 194887831.570 6        39.000    37426148.379 7 150699587.180 7        43.600    37426142.898 7 158362256.664 7        44.200
C03  37879117.195 6 197246491.905 6        36.700    37879107.250 7 152523462.684 7        43.900    37879101.098 7 160278871.471 7        43.800
C01  37084986.570 6 193111254.294 6        39.800    37084972.559 7 149325811.891 7        45.200    37084967.352 7 156918627.250 7        43.500
E24  23711204.688 7 124603208.687 7        47.000    23711214.566 7  93047881.608 7        46.900    23711213.043 7  95475212.591 7        47.400    23711214.402 8  94261548.704 8        51.200
E04  25979919.508 7 136525417.810 7        42.600    25979918.188 7 101950802.112 7        44.900    25979917.996 7 104610377.179 7        47.500    25979918.199 8 103280594.746 8        49.500
E25  24702043.734 7 129810119.458 7        47.000    24702043.754 8  96936122.052 8        49.500    24702042.066 8  99464884.965 8        48.900    24702042.934 8  98200506.114 8        52.400
E19  25680719.859 6 134953213.978 6        40.000    25680718.691 7 100776654.596 7        43.600    25680716.848 7 103405610.234 7        42.100    25680717.609 7 102091132.520 7        46.700
E12  22789717.766 7 119760772.159 7        46.500    22789712.809 8  89431721.154 8        48.400    22789712.133 8  91764723.254 8        48.600    22789712.840 8  90598224.815 8        52.200
E11  23060483.875 7 121183665.724 7        46.600    23060478.809 7  90494277.668 7        47.200    23060478.211 7  92854993.292 7        47.000    23060478.598 8  91674637.583 8        49.800
> 2018  8 30  2  3 22.0000000  0 32       0.000000000000
G08  24031851.984 6 126288212.437 6        37.000    24031856.348 3  98406400.647 3        18.600    24031856.539 5  98406401.689 5        35.700    24031855.430 7  94306128.079 7        42.000
G28  20782824.672 7 109214479.674 7        47.000    20782823.262 6  85102186.683 6        39.900
G18  22676314.828 6 119164828.867 6        40.400    22676315.898 4  92855705.828 4        26.000
G22  21166601.609 7 111231244.516 7        47.200    21166598.707 6  86673687.311 6        40.800
G01  21189744.781 7 111352853.738 7        47.800    21189746.535 6  86768463.414 6        40.500    21189746.250 8  86768464.410 8        48.500    21189744.395 8  83153103.866 8        53.700
G03  20421082.156 8 107313528.075 8        50.200    20421083.402 6  83620938.572 6        41.100    20421083.641 8  83620951.582 8        49.100    20421083.906 9  80136733.415 9        54.600
R10  23503567.953 7 125287242.646 7        45.000    23503566.887 7 125287230.652 7        43.200    23503565.680 6  97445622.528 6        37.000
G17  22518168.328 8 118333749.788 8        49.400    22518167.473 6  92208150.731 6        36.700    22518167.695 7  92208191.728 7        45.100
J01  36928000.906 7 194057956.788 7        43.900    36928000.766 7 194057971.783 7        47.000    36927997.254 7 194057957.708 7        42.400    36927998.547 7 151214006.999 7        44.600    36928002.461 8 144913419.696 8        49.900    36927992.250 7 157514544.452 7        46.100
R09  21588980.500 7 115283967.004 7        46.800    21588980.289 7 115283956.018 7        45.800    21588975.176 7  89665291.581 7        46.800
R19  20695289.164 7 110705850.899 7        44.500    20695287.582 7 110705843.924 7        43.100    20695279.859 7  86104556.986 7        45.700
G06  24418592.195 5 128320550.598 5        34.100    24418597.359 2  99990071.612 2        16.300    24418595.332 5  99990082.657 5        35.100    24418596.875 6  95823821.813 6        40.100
R16  22660870.781 6 121050285.870 6        39.400    22660870.586 6 121050274.891 6        39.200    22660864.000 6  94150190.998 6        36.200
G19  24373063.305 6 128081318.766 6        38.600    24373062.574 4  99803616.735 4        26.700
G11  21463494.703 7 112791415.968 7        47.700    21463492.637 6  87889406.763 6        36.500
R18  20693041.133 8 110460854.706 8        50.800    20693040.293 8 110460854.720 8        49.100    20693035.383 7  85913960.960 7        46.400
R03  20451041.664 8 109476059.815 8        48.200    20451040.801 7 109476055.829 7        46.700    20451033.547 7  85148047.193 7        46.700
R04  21352271.977 7 114340475.387 7        47.800    21352271.465 7 114340444.399 7        46.500    21352262.691 7  88931460.273 7        42.900
R02  23146753.227 6 123515502.354 6        36.100    23146751.836 5 123515499.386 5        33.600    23146747.969 6  96067646.954 6        36.500
C13  38379809.750 6 199853743.254 6        41.700    38379807.527 7 154539580.542 7        42.200    38379797.918 7 162397484.622 7        44.300
C07  37373605.609 6 194614163.040 6        41.200    37373595.039 7 150487969.372 7        43.800    37373586.441 7 158139863.843 7        44.700
C10  37144204.734 7 193419614.196 7        43.100    37144196.680 7 149564277.981 7        44.600    37144186.551 7 157169204.225 7        44.500
C08  36758816.359 7 191412799.229 7        45.700    36758804.949 7 148012476.425 7        46.400    36758796.863 7 155538498.034 7        46.700
C04  37426159.977 6 194887835.082 6        39.200    37426149.207 7 150699589.894 7        43.200    37426143.824 7 158362259.513 7        44.500
C03  37879119.023 6 197246500.501 6        36.600    37879109.063 7 152523469.329 7        43.900    37879102.801 7 160278878.457 7        43.800
C01  37084992.164 6 193111281.821 6        39.800    37084977.785 7 149325833.173 7        45.300    37084972.852 7 156918649.620 7        43.800
E24  23711703.195 7 124605828.920 7        47.000    23711713.273 7  93049838.282 7        46.900    23711711.582 7  95477220.305 7        47.700    23711713.008 8  94263530.896 8        51.100
E04  25979427.273 7 136522830.262 7        42.600    25979425.922 7 101948869.871 7        45.100    25979425.484 7 104608394.525 7        47.600    25979425.816 8 103278637.305 8        49.600
E25  24702137.305 7 129810611.144 7        47.000    24702137.207 8  96936489.218 8        49.400    24702135.555 8  99465261.709 8        49.000    24702136.496 8  98200878.070 8        52.300
E19  25680649.898 6 134952844.852 6        40.200    25680648.285 7 100776378.956 7        43.400    25680646.832 7 103405327.399 7        42.300    25680647.352 7 102090853.284 7        46.500
E12  22789886.688 7 119761659.360 7        46.200    22789881.648 8  89432383.675 8        48.600    22789881.012 8  91765403.064 8        49.000    22789881.676 8  90598895.976 8        52.400
E11  23060305.445 7 121182729.530 7        46.600    23060300.633 7  90493578.566 7        47.400    23060300.070 7  92854275.953 7        46.800    23060300.422 8  91673929.365 8        49.700
> 2018  8 30  2  3 23.0000000  0 32       0.000000000000
G08  24032368.852 6 126290924.329 6        36.900    24032372.008 3  98408513.754 3        19.300    24032373.055 6  98408514.858 6        36.600    24032371.398 6  94308153.192 6        41.900
G28  20782824.406 7 109214479.052 7        47.000    20782823.133 6  85102186.205 6        39.900
G18  22676857.156 6 119167675.158 6        41.300    22676857.652 4  92857923.707 4        25.000
G22  21166803.875 7 111232307.978 7        47.800    21166800.695 6  86674515.978 6        40.600
G01  21190109.453 7 111354770.314 7        47.800    21190111.289 6  86769956.851 6        39.800    21190110.785 8  86769957.847 8        48.500    21190109.043 8  83154535.068 8        53.700
G03  20420935.836 8 107312758.509 8        50.200    20420936.551 6  83620338.911 6        41.000    20420937.465 8  83620351.915 8        49.500    20420937.586 9  80136158.743 9        54.900
R10  23503123.125 7 125284871.192 7        44.900    23503121.754 7 125284859.217 7        43.000    23503119.922 6  97443778.103 6        37.000
G17  22517718.102 8 118331383.344 8        49.400    22517717.512 6  92206306.752 6        37.100    22517717.188 7  92206347.747 7        45.200
J01  36928012.000 7 194058013.221 7        44.400    36928011.898 7 194058028.212 7        47.100    36928009.582 7 194058014.141 7        42.500    36928009.570 7 151214050.969 7        44.700    36928013.266 8 144913461.831 8        49.600    36928003.160 7 157514590.251 7        46.200
R09  21589121.586 7 115284713.725 7        47.000    21589120.227 7 115284702.738 7        45.800    21589115.266 7  89665872.367 7        47.300
R19  20695040.797 7 110704524.381 7        44.600    20695039.051 7 110704517.391 7        42.800    20695032.668 7  86103525.234 7        45.700
G06  24418090.781 5 128317914.067 5        34.600    24418095.238 2  99988017.175 2        16.900    24418093.742 5  99988028.188 5        35.100    24418095.047 6  95821852.945 6        40.200
R16  22661577.039 6 121054054.451 6        39.500    22661575.813 6 121054043.454 6        38.700    22661570.020 6  94153122.073 6        36.600
G19  24372473.930 6 128078218.648 6        38.700    24372472.926 4  99801201.057 4        24.600
G11  21463867.016 7 112793374.483 7        47.700    21463865.543 6  87890932.879 6        36.700
R18  20693233.609 8 110461882.632 8        50.500    20693232.816 8 110461882.639 8        49.500    20693228.371 7  85914760.453 7        46.600
R03  20451016.867 8 109475929.930 8        48.500    20451016.523 7 109475925.943 7        46.900    20451009.941 7  85147946.170 7        46.700
R04  21351571.344 7 114336728.450 7        47.800    21351571.398 7 114336697.471 7        46.200    21351563.195 7  88928545.984 7        42.800
R02  23147349.438 5 123518685.978 5        35.400    23147347.648 5 123518682.972 5        33.300    23147345.637 6  96070123.113 6        36.900
C13  38379770.664 7 199853539.218 7        42.100    38379768.527 7 154539422.770 7        42.200    38379758.629 7 162397318.830 7        44.300
C07  37373905.227 6 194615722.451 6        41.400    37373894.680 7 150489175.205 7        43.700    37373886.152 7 158141130.998 7        44.600
C10  37144421.039 7 193420743.016 7        43.200    37144413.684 7 149565150.854 7        44.600    37144403.672 7 157170121.491 7        44.700
C08  36758808.867 7 191412762.329 7        45.100    36758797.836 7 148012447.889 7        46.600    36758789.719 7 155538468.050 7        47.000
C04  37426160.938 6 194887838.566 6        39.000    37426149.938 7 150699592.584 7        43.200    37426144.449 7 158362262.349 7        44.700
C03  37879120.273 6 197246509.101 6        36.900    37879110.523 7 152523475.977 7        44.300    37879104.566 7 160278885.441 7        43.400
C01  37084997.266 6 193111309.342 6        40.100    37084983.316 7 149325854.453 7        45.300    37084978.160 7 156918671.977 7        43.900
E24  23712201.734 7 124608449.345 7        46.700    23712211.906 7  93051795.092 7        47.100    23712210.254 7  95479228.159 7        47.700    23712211.672 8  94265513.229 8        51.000
E04  25978934.773 7 136520242.868 7        42.900    25978933.500 7 101946937.732 7        44.700    25978933.137 7 104606411.976 7        47.600    25978933.445 8 103276679.958 8        49.700
E25  24702230.641 7 129811103.296 7        46.800    24702230.840 8  96936856.729 8        49.300    24702229.188 8  99465638.808 8        49.200    24702230.141 8  98201250.377 8        52.500
E19  25680579.758 6 134952476.193 6        40.300    25680578.121 7 100776103.659 7        43.600    25680576.496 7 103405044.922 7        42.400    25680577.176 7 102090574.399 7        46.800
E12  22790055.555 7 119762546.629 7        46.200    22790050.422 8  89433046.246 8        48.700    22790049.770 8  91766082.926 8        48.800    22790050.492 8  90599567.192 8        52.100
E11  23060127.555 7 121181793.438 7        46.900    23060122.559 7  90492879.522 7        47.200    23060121.875 7  92853558.672 7        46.400    23060122.270 8  91673221.207 8        49.600
> 2018  8 30  2  3 24.0000000  0 32       0.000000000000
G08  24032884.898 6 126293636.472 6        36.400    24032888.387 3  98410627.137 3        18.600    24032888.617 6  98410628.197 6        36.700    24032887.316 6  94310178.507 6        41.900
G28  20782824.570 7 109214479.084 7        47.000    20782823.129 6  85102186.221 6        40.100
G18  22677398.914 6 119170521.580 6        41.000    22677399.219 4  92860141.696 4        24.700
G22  21167006.594 7 111233372.055 7        47.600    21167003.555 6  86675345.131 6        40.600
G01  21190473.773 7 111356687.134 7        47.300    21190475.828 6  86771450.477 6        40.100    21190475.414 8  86771451.473 8        48.200    21190473.898 8  83155966.478 8        53.700
G03  20420789.586 8 107311989.657 8        49.800    20420790.465 6  83619739.805 6        41.000    20420790.793 8  83619752.808 8        49.100    20420791.254 9  80135584.593 9        54.800
R10  23502678.492 7 125282500.521 7        44.900    23502676.793 7 125282488.519 7        43.000    23502676.473 6  97441934.268 6        36.800
G17  22517268.297 8 118329017.036 8        49.200    22517267.188 6  92204462.872 6        36.900    22517267.094 7  92204503.869 7        45.500
J01  36928022.094 7 194058069.798 7        43.600    36928022.391 7 194058084.785 7        47.000    36928019.176 7 194058070.713 7        42.600    36928020.254 7 151214095.055 7        44.800    36928024.145 8 144913504.080 8        49.800    36928014.254 7 157514636.167 7        45.900
R09  21589261.633 7 115285461.338 7        47.000    21589260.531 7 115285450.352 7        45.800    21589255.102 7  89666453.833 7        46.800
R19  20694792.789 7 110703198.033 7        44.500    20694791.090 7 110703191.060 7        42.700    20694784.559 7  86102493.634 7        45.300
G06  24417589.547 5 128315277.681 5        34.000    24417593.215 2  99985962.908 2        16.900    24417592.000 5  99985973.901 5        34.700    24417593.105 6  95819884.233 6        40.000
R16  22662282.711 6 121057823.262 6        39.200    22662281.672 6 121057812.282 6        38.800    22662276.137 6  94156053.367 6        36.500
G19  24371883.609 6 128075118.554 6        38.500    24371882.965 4  99798785.389 4        26.400
G11  21464240.078 7 112795333.316 7        47.900    21464238.008 6  87892459.243 6        37.200
R18  20693425.836 8 110462910.795 8        50.300    20693425.371 8 110462910.802 8        49.300    20693420.836 7  85915560.151 7        47.000
R03  20450992.531 8 109475800.984 8        48.800    20450991.902 7 109475797.005 7        46.800    20450985.883 7  85147845.890 7        46.700
R04  21350871.805 7 114332981.967 7        47.300    21350871.648 7 114332950.988 7        46.500    21350863.852 7  88925632.078 7        42.700
R02  23147945.586 5 123521870.239 5        35.900    23147944.313 5 123521867.212 5        33.700    23147942.848 6  96072599.727 6        36.800
C13  38379731.695 7 199853335.231 7        42.000    38379729.184 7 154539265.034 7        42.200    38379719.160 7 162397153.076 7        44.300
C07  37374204.609 6 194617282.054 6        40.700    37374194.168 7 150490381.195 7        43.600    37374185.723 7 158142398.310 7        45.000
C10  37144637.727 7 193421872.053 7        43.300    37144630.148 7 149566023.901 7        44.500    37144620.145 7 157171038.928 7        44.400
C08  36758802.242 7 191412725.470 7        45.200    36758791.078 7 148012419.392 7        46.600    36758782.879 7 155538438.101 7        47.000
C04  37426161.617 6 194887842.103 6        39.100    37426150.238 7 150699595.327 7        42.800    37426145.082 7 158362265.227 7        44.800
C03  37879122.422 6 197246517.749 6        37.000    37879112.031 7 152523482.670 7        44.200    37879106.199 7 160278892.470 7        43.400
C01  37085002.375 6 193111336.933 6        39.900    37084988.238 7 149325875.785 7        45.400    37084983.285 7 156918694.395 7        43.900
E24  23712700.680 7 124611070.041 7        46.700    23712710.715 7  93053752.097 7        47.100    23712708.867 7  95481236.226 7        47.500    23712710.363 8  94267495.769 8        50.800
E04  25978442.891 7 136517655.688 7        42.600    25978441.395 7 101945005.733 7        44.800    25978440.570 7 104604429.590 7        47.200    25978441.113 8 103274722.763 8        49.300
E25  24702324.594 7 129811595.982 7        47.000    24702324.691 8  96937224.641 8        49.300    24702322.938 8  99466016.319 8        49.200    24702323.883 8  98201623.085 8        52.700
E19  25680509.672 6 134952108.032 6        40.000    25680507.949 7 100775828.737 7        43.800    25680506.512 7 103404762.830 7        42.100    25680507.137 7 102090295.887 7        46.600
E12  22790224.328 7 119763434.020 7        46.100    22790219.457 8  89433708.905 8        49.000    22790218.695 8  91766762.867 8        49.100    22790219.344 8  90600238.485 8        52.400
E11  23059949.227 7 121180857.458 7        47.000    23059944.367 7  90492180.580 7        47.300    23059943.867 7  92852841.499 7        46.600    23059944.156 8  91672513.143 8        49.800
> 2018  8 30  2  3 25.0000000  0 32       0.000000000000
G08  24033400.938 6 126296348.730 6        36.700    24033404.609 3  98412740.622 3        18.300    24033404.699 6  98412741.668 6        37.100    24033403.520 6  94312203.872 6        41.800
G28  20782824.547 7 109214479.607 7        47.000    20782822.918 6  85102186.633 6        40.000
G18  22677940.836 6 119173367.945 6        41.300    22677941.266 4  92862359.634 4        25.400
G22  21167209.500 7 111234436.596 7        47.500    21167205.984 6  86676174.642 6        40.500
G01  21190838.688 7 111358604.087 7        47.300    21190840.609 6  86772944.201 6        40.200    21190840.297 8  86772945.197 8        48.600    21190838.633 8  83157397.949 8        53.400
G03  20420643.172 8 107311221.371 8        49.600    20420644.379 6  83619141.138 6        41.100    20420644.473 8  83619154.134 8        49.400    20420645.004 9  80135010.867 9        54.700
R10  23502234.828 7 125280130.408 7        44.400    23502232.285 7 125280118.417 7        42.900    23502231.914 6  97440090.846 6        36.800
G17  22516817.891 8 118326650.689 8        49.300    22516816.699 6  92202618.967 6        37.100    22516816.996 7  92202659.964 7        45.500
J01  36928032.781 7 194058126.360 7        43.200    36928033.129 7 194058141.341 7        47.000    36928030.449 7 194058127.272 7        42.800    36928031.063 7 151214139.122 7        44.600    36928034.859 8 144913546.311 8        49.600    36928024.906 7 157514682.083 7        45.800
R09  21589401.891 7 115286209.679 7        47.100    21589400.508 7 115286198.691 7        45.600    21589396.301 7  89667035.877 7        46.400
R19  20694544.789 7 110701871.742 7        44.700    20694543.605 7 110701864.768 7        42.600    20694536.633 7  86101462.070 7        45.000
G06  24417087.625 5 128312641.391 5        34.000    24417092.105 2  99983908.636 2        16.900    24417090.406 5  99983919.657 5        34.500    24417091.156 6  95817915.563 6        39.900
R16  22662986.766 6 121061592.181 6        39.200    22662986.875 6 121061581.178 6        38.100    22662981.246 6  94158984.727 6        36.800
G19  24371293.367 6 128072018.303 6        38.300    24371292.938 4  99796369.624 4        25.900
G11  21464612.766 7 112797292.283 7        47.600    21464611.129 6  87893985.711 6        37.100
R18  20693618.555 8 110463939.067 8        50.400    20693617.902 8 110463939.066 8        49.300    20693613.512 7  85916359.900 7        47.200
R03  20450969.242 8 109475672.838 8        49.000    20450968.285 7 109475668.866 7        46.600    20450961.594 7  85147746.233 7        46.400
R04  21350171.984 7 114329235.771 7        47.400    21350171.781 7 114329204.791 7        46.300    21350163.828 7  88922718.363 7        43.000
R02  23148541.383 5 123525054.914 5        35.300    23148541.168 5 123525051.906 5        34.200    23148539.840 6  96075076.665 6        36.900
C13  38379692.305 6 199853131.144 6        41.700    38379690.137 6 154539107.222 6        41.700    38379680.047 7 162396987.238 7        44.100
C07  37374504.156 6 194618841.630 6        41.100    37374493.672 7 150491587.156 7        43.800    37374485.086 7 158143665.584 7        45.300
C10  37144854.992 7 193423001.165 7        43.400    37144846.988 7 149566896.994 7        44.500    37144836.941 7 157171956.420 7        44.200
C08  36758794.898 7 191412688.468 7        45.100    36758784.035 7 148012390.780 7        46.600    36758775.719 7 155538408.031 7        47.100
C04  37426162.258 6 194887845.564 6        38.900    37426151.223 7 150699597.998 7        43.400    37426145.957 7 158362268.036 7        44.600
C03  37879123.461 6 197246526.327 6        36.600    37879113.934 7 152523489.298 7        44.000    37879107.949 7 160278899.437 7        43.400
C01  37085007.859 6 193111364.394 6        39.900    37084993.672 7 149325897.023 7        45.400    37084988.738 7 156918716.714 7        44.100
E24  23713199.492 7 124613690.841 7        46.600    23713209.402 7  93055709.181 7        47.300    23713207.648 7  95483244.367 7        47.400    23713209.117 8  94269478.383 8        50.600
E04  25977950.281 7 136515068.553 7        42.300    25977949.000 7 101943073.789 7        45.000    25977948.625 7 104602447.235 7        47.100    25977948.816 8 103272765.617 8        49.200
E25  24702418.477 7 129812089.037 7        46.800    24702418.469 8  96937592.843 8        49.200    24702416.785 8  99466394.116 8        49.000    24702417.746 8  98201996.084 8        52.500
E19  25680439.781 6 134951740.241 6        40.000    25680438.254 7 100775554.086 7        43.900    25680436.523 7 103404481.011 7        42.100    25680437.160 7 102090017.649 7        46.800
E12  22790393.219 7 119764321.390 7        46.200    22790388.145 8  89434371.542 8        48.900    22790387.680 8  91767442.797 8        49.100    22790388.242 8  90600909.769 8        52.400
E11  23059771.188 7 121179921.444 7        47.000    23059766.230 7  90491481.615 7        47.400    23059765.723 7  92852124.297 7        46.500    23059766.047 8  91671805.062 8        49.800
> 2018  8 30  2  3 26.0000000  0 32       0.000000000000
G08  24033917.180 6 126299061.302 6        36.900    24033920.559 3  98414854.312 3        18.600    24033920.934 6  98414855.334 6        37.100    24033919.500 7  94314229.509 7        42.300
G28  20782825.156 7 109214480.887 7        46.900    20782823.008 6  85102187.625 6        40.300
G18  22678482.680 6 119176214.547 6        41.600    22678482.477 4  92864577.767 4        25.300
G22  21167411.766 7 111235501.832 7        47.400    21167408.590 6  86677004.697 6        40.800
G01  21191203.375 7 111360521.343 7        47.400    21191205.508 6  86774438.169 6        40.100    21191205.301 8  86774439.173 8        48.300    21191203.484 8  83158829.676 8        53.400
G03  20420497.281 8 107310453.849 8        49.500    20420498.359 6  83618543.067 6        40.900    20420498.648 8  83618556.070 8        49.400    20420498.922 9  80134437.718 9        54.600
R10  23501788.383 7 125277761.123 7        44.200    23501787.457 7 125277749.133 7        42.900    23501786.082 6  97438248.062 6        36.800
G17  22516367.609 8 118324284.553 8        49.600    22516366.484 6  92200775.229 6        37.200    22516366.445 7  92200816.221 7        45.700
J01  36928043.984 7 194058183.141 7        42.900    36928043.859 7 194058198.133 7        47.200    36928041.164 7 194058184.037 7        42.600    36928041.809 7 151214183.367 7        44.700    36928045.680 8 144913588.718 8        49.700    36928035.645 7 157514728.176 7        46.000
R09  21589541.313 7 115286958.941 7        46.900    21589540.680 7 115286947.963 7        45.600    21589535.480 7  89667618.633 7        46.300
R19  20694296.477 7 110700545.725 7        44.700    20694295.387 7 110700538.750 7        42.700    20694288.215 7  86100430.737 7        45.200
G06  24416586.289 5 128310005.312 5        33.300    24416590.000 2  99981854.569 2        16.300    24416588.305 5  99981865.570 5        34.300    24416589.203 6  95815947.090 6        39.600
R16  22663692.961 6 121065361.392 6        38.800    22663692.273 6 121065350.387 6        37.900    22663686.266 6  94161916.357 6        36.400
G19  24370703.477 6 128068918.228 6        38.400    24370702.832 4  99793953.976 4        25.000
G11  21464985.648 7 112799251.620 7        47.600    21464984.000 6  87895512.462 6        36.800
R18  20693811.156 8 110464967.663 8        49.800    20693810.434 8 110464967.678 8        48.700    20693805.672 7  85917159.931 7        47.100
R03  20450944.453 8 109475545.718 8        49.100    20450944.461 7 109475541.746 7        46.600    20450937.918 7  85147647.359 7        46.700
R04  21349472.883 7 114325490.116 7        47.500    21349472.090 7 114325459.123 7        46.400    21349464.781 7  88919805.061 7        42.600
R02  23149139.461 5 123528240.261 5        34.800    23149137.672 5 123528237.249 5        34.100    23149136.766 6  96077554.198 6        36.900
C13  38379653.391 6 199852927.170 6        41.400    38379651.113 7 154538949.496 7        42.000    38379641.105 7 162396821.490 7        44.300
C07  37374803.813 6 194620401.477 6        41.500    37374792.996 7 150492793.329 7        43.800    37374784.594 7 158144933.092 7        44.800
C10  37145071.594 7 193424130.564 7        43.000    37145063.863 7 149567770.319 7        44.500    37145054.051 7 157172874.153 7        44.600
C08  36758787.719 7 191412651.565 7        45.300    36758776.855 7 148012362.247 7        46.300    36758768.551 7 155538378.044 7        47.100
C04  37426162.891 6 194887849.135 6        39.000    37426151.520 7 150699600.761 7        43.200    37426146.383 7 158362270.936 7        44.200
C03  37879125.430 6 197246534.997 6        36.800    37879115.008 7 152523496.004 7        43.900    37879109.227 7 160278906.489 7        43.900
C01  37085012.938 6 193111392.006 6        39.600    37084998.891 7 149325918.373 7        45.300    37084994.047 7 156918739.151 7        43.900
E24  23713698.008 7 124616311.965 7        46.700    23713708.199 7  93057666.520 7        47.400    23713706.430 7  95485252.766 7        47.000    23713707.891 8  94271461.250 8        50.900
E04  25977457.836 7 136512481.707 7        42.400    25977456.508 7 101941142.065 7        45.300    25977456.199 7 104600465.116 7        46.900    25977456.539 8 103270808.693 8        49.500
E25  24702512.266 7 129812582.706 7        47.000    24702512.250 8  96937961.483 8        49.000    24702510.719 8  99466772.388 8        49.300    24702511.688 8  98202369.542 8        52.400
E19  25680370.078 6 134951373.022 6        40.000    25680368.094 7 100775279.863 7        43.700    25680366.801 6 103404199.645 6        41.800    25680367.273 7 102089739.855 7        46.400
E12  22790562.219 7 119765208.953 7        46.200    22790557.230 8  89435034.338 8        48.700    22790556.551 8  91768122.881 8        49.000    22790557.133 8  90601581.213 8        52.700
E11  23059593.109 7 121178985.644 7        47.200    23059587.969 7  90490782.807 7        47.300    23059587.742 7  92851407.251 7        46.800    23059587.969 8  91671097.138 8        49.700
> 2018  8 30  2  3 27.0000000  0 32       0.000000000000
G08  24034433.367 6 126301773.990 6        36.500    24034436.770 2  98416968.078 2        17.800    24034437.336 6  98416969.076 6        36.900    24034435.574 7  94316255.199 7        42.300
G28  20782825.281 7 109214482.662 7        47.000    20782823.621 6  85102189.015 6        39.900
G18  22679023.188 6 119179061.119 6        41.500    22679024.340 4  92866795.878 4        25.300
G22  21167614.664 7 111236567.483 7        47.200    21167611.770 6  86677835.075 6        40.800
G01  21191568.164 7 111362438.693 7        47.400    21191570.109 6  86775932.209 6        40.000    21191570.043 8  86775933.220 8        48.100    21191568.332 8  83160261.472 8        53.400
G03  20420351.406 8 107309686.860 8        49.400    20420352.344 6  83617945.409 6        40.900    20420352.770 8  83617958.426 8        49.500    20420352.945 9  80133864.974 9        54.700
R10  23501344.695 7 125275392.401 7        44.300    23501343.348 7 125275380.426 7        42.900    23501341.953 6  97436405.716 6        36.500
G17  22515917.008 8 118321918.373 8        49.500    22515916.621 6  92198931.448 6        36.800    22515916.457 7  92198972.443 7        45.600
J01  36928054.469 7 194058239.881 7        43.000    36928054.566 7 194058254.879 7        47.200    36928051.863 7 194058240.797 7        42.500    36928052.664 7 151214227.591 7        44.700    36928056.438 8 144913631.096 8        49.600    36928046.547 7 157514774.238 7        46.100
R09  21589681.594 7 115287708.924 7        46.500    21589681.617 7 115287697.931 7        45.500    21589675.895 7  89668201.971 7        46.000
R19  20694048.281 7 110699219.748 7        44.700    20694047.191 7 110699212.752 7        42.200    20694040.824 7  86099399.408 7        45.200
G06  24416085.023 5 128307369.292 5        32.500    24416088.445 2  99979800.545 2        16.300    24416087.121 5  99979811.575 5        34.400    24416087.203 6  95813978.635 6        38.900
R16  22664399.641 6 121069130.681 6        39.400    22664397.922 6 121069119.700 6        37.900    22664392.695 6  94164848.041 6        36.200
G19  24370113.664 6 128065817.994 6        37.900    24370113.160 4  99791538.213 4        26.400
G11  21465358.531 7 112801211.102 7        47.400    21465356.707 6  87897039.335 6        36.600
R18  20694004.211 8 110465996.339 8        49.700    20694003.277 8 110465996.346 8        48.600    20693998.262 7  85917960.003 7        46.900
R03  20450921.766 8 109475419.400 8        48.500    20450920.738 7 109475415.406 7        46.600    20450914.773 7  85147549.106 7        47.000
R04  21348772.406 7 114321744.706 7        47.100    21348772.602 7 114321713.728 7        46.300    21348764.270 7  88916891.998 7        42.700
R02  23149735.945 5 123531425.981 5        35.400    23149735.375 5 123531422.985 5        34.500    23149733.324 6  96080031.972 6        36.700
C13  38379613.789 6 199852723.020 6        41.400    38379612.020 6 154538791.639 6        41.800    38379602.016 7 162396655.605 7        44.200
C07  37375103.102 6 194621961.306 6        41.700    37375092.852 7 150493999.487 7        43.700    37375084.434 7 158146200.580 7        44.900
C10  37145288.672 7 193425260.046 7        43.400    37145280.770 7 149568643.704 7        44.400    37145271.000 7 157173791.947 7        44.500
C08  36758780.656 7 191412614.503 7        45.100    36758769.488 7 148012333.582 7        46.300    36758761.469 7 155538347.930 7        47.200
C04  37426163.391 6 194887852.614 6        39.000    37426152.652 7 150699603.449 7        43.000    37426147.324 7 158362273.761 7        44.400
C03  37879127.102 6 197246543.562 6        36.800    37879117.066 7 152523502.625 7        43.800    37879111.047 7 160278913.446 7        43.700
C01  37085018.336 6 193111419.512 6        39.800    37085004.422 7 149325939.643 7        45.100    37084999.391 7 156918761.500 7        44.100
E24  23714196.883 7 124618933.181 7        46.300    23714207.027 7  93059623.936 7        47.500    23714205.336 7  95487261.228 7        47.300    23714206.688 8  94273444.191 8        50.900
E04  25976965.758 7 136509894.918 7        42.300    25976964.324 7 101939210.355 7        45.400    25976964.008 7 104598483.020 7        47.000    25976964.297 8 103268851.798 8        49.400
E25  24702606.438 7 129813076.737 7        47.000    24702606.309 8  96938330.409 8        48.800    24702604.852 8  99467150.923 8        49.300    24702605.684 8  98202743.272 8        52.300
E19  25680300.117 6 134951006.136 6        40.400    25680298.250 7 100775005.895 7        43.300    25680297.059 6 103403918.515 6        41.800    25680297.430 7 102089462.314 7        46.400
E12  22790730.961 7 119766096.471 7        46.300    22790726.098 8  89435697.101 8        48.600    22790725.426 8  91768802.924 8        48.600    22790726.016 8  90602252.616 8        52.300
E11  23059415.281 7 121178049.807 7        46.700    23059410.098 7  90490083.969 7        47.500    23059409.461 7  92850690.181 7        46.700    23059409.883 8  91670389.178 8        49.700
> 2018  8 30  2  3 28.0000000  0 32       0.000000000000
G08  24034950.078 6 126304486.904 6        36.500    24034952.770 3  98419082.071 3        18.300    24034953.828 6  98419083.049 6        37.100    24034951.512 7  94318281.067 7        42.400
G28  20782825.531 7 109214485.095 7        47.100    20782824.891 6  85102190.906 6        39.900
G18  22679564.875 6 119181907.846 6        40.900    22679565.563 3  92869014.105 3        23.800
G22  21167817.320 7 111237633.761 7        47.400    21167813.715 6  86678665.947 6        40.900
G01  21191932.875 7 111364356.319 7        47.300    21191935.270 6  86777426.466 6        40.100    21191934.828 8  86777427.476 8        48.000    21191933.230 8  83161693.458 8        53.500
G03  20420205.508 8 107308920.602 8        49.300    20420206.234 6  83617348.326 6        41.100    20420207.023 8  83617361.344 8        49.500    20420207.164 9  80133292.770 9        54.600
R10  23500900.219 7 125273024.446 7        44.400    23500899.270 7 125273012.462 7        42.700    23500897.941 6  97434563.973 6        36.400
G17  22515466.609 8 118319552.319 8        49.800    22515466.098 6  92197087.772 6        37.300    22515466.066 7  92197128.756 7        45.600
J01  36928064.703 7 194058296.799 7        43.200    36928065.461 7 194058311.793 7        47.300    36928063.000 7 194058297.709 7        42.600    36928063.625 7 151214271.935 7        44.600    36928067.234 8 144913673.596 8        49.400    36928056.930 7 157514820.429 7        46.100
R09  21589822.234 7 115288459.793 7        46.600    21589822.164 7 115288448.815 7        45.600    21589816.250 7  89668785.967 7        46.300
R19  20693800.617 7 110697893.945 7        44.900    20693799.645 7 110697886.948 7        42.200    20693792.688 7  86098368.229 7        45.600
G06  24415582.898 5 128304733.508 5        33.100    24415586.570 2  99977746.658 2        15.600    24415585.457 5  99977757.673 5        34.300    24415585.125 6  95812010.348 6        38.800
R16  22665106.344 6 121072900.249 6        39.400    22665103.473 6 121072889.255 6        38.100    22665098.129 6  94167779.903 6        36.200
G19  24369523.352 6 128062717.840 6        38.300    24369523.223 4  99789122.502 4        26.200
G11  21465731.719 7 112803170.868 7        47.900    21465729.754 6  87898566.426 6        37.100
R18  20694196.930 8 110467025.269 8        49.600    20694196.254 8 110467025.262 8        48.800    20694191.230 7  85918760.278 7        47.000
R03  20450896.930 8 109475294.013 8        48.700    20450897.500 7 109475290.035 7        46.700    20450890.945 7  85147451.586 7        47.400
R04  21348073.477 7 114317999.803 7        47.000    21348073.320 7 114317968.830 7        46.000    21348065.340 7  88913979.303 7        42.400
R02  23150333.984 5 123534612.306 5        34.600    23150333.344 5 123534609.251 5        34.100    23150329.867 6  96082510.219 6        36.200
C13  38379574.945 6 199852518.940 6        41.400    38379572.973 7 154538633.821 7        42.100    38379562.805 7 162396489.765 7        44.100
C07  37375402.797 6 194623521.306 6        41.600    37375391.984 7 150495205.779 7        43.900    37375383.660 7 158147468.207 7        45.000
C10  37145505.391 7 193426389.723 7        43.200    37145497.863 7 149569517.240 7        44.500    37145487.859 7 157174709.897 7        44.300
C08  36758773.227 7 191412577.450 7        45.500    36758762.258 7 148012304.928 7        46.600    36758754.117 7 155538317.817 7        47.300
C04  37426164.023 6 194887856.146 6        38.900    37426153.086 7 150699606.181 7        42.800    37426147.809 7 158362276.636 7        44.500
C03  37879129.109 6 197246552.206 6        37.000    37879118.551 7 152523509.311 7        43.700    37879112.582 7 160278920.470 7        43.400
C01  37085023.844 6 193111447.076 6        39.700    37085009.441 7 149325960.957 7        45.300    37085004.441 7 156918783.898 7        44.200
E24  23714695.633 7 124621554.676 7        46.500    23714705.930 7  93061581.535 7        47.700    23714704.152 7  95489269.905 7        47.500    23714705.543 8  94275427.329 8        51.100
E04  25976473.391 6 136507308.320 6        41.700    25976472.043 7 101937278.810 7        45.400    25976471.660 7 104596501.093 7        47.000    25976472.094 8 103266895.052 8        49.100
E25  24702700.547 7 129813571.299 7        47.100    24702700.410 8  96938699.722 8        48.800    24702699.051 8  99467529.878 8        49.100    24702699.828 8  98203117.405 8        52.500
E19  25680230.438 6 134950639.786 6        40.400    25680228.461 7 100774732.323 7        43.200    25680227.117 6 103403637.817 6        41.800    25680227.707 7 102089185.173 7        46.300
E12  22790899.734 7 119766984.113 7        46.600    22790895.113 8  89436359.956 8        48.500    22790894.410 8  91769483.080 8        48.200    22790894.926 8  90602924.124 8        52.100
E11  23059237.164 7 121177114.096 7        46.800    23059232.051 7  90489385.215 7        47.400    23059231.539 7  92849973.212 7        46.300    23059231.855 8  91669681.315 8        49.600
> 2018  8 30  2  3 29.0000000  0 32       0.000000000000
G08  24035466.781 6 126307200.017 6        36.600    24035469.230 2  98421196.149 2        17.800    24035469.969 6  98421197.169 6        36.900    24035467.773 7  94320307.113 7        42.400
G28  20782826.266 7 109214488.167 7        47.200    20782824.730 6  85102193.296 6        39.600
G18  22680106.641 6 119184754.691 6        41.300    22680107.738 4  92871232.425 4        26.100
G22  21168020.547 7 111238700.618 7        47.600    21168017.645 6  86679497.259 6        40.600
G01  21192298.219 7 111366274.175 7        47.300    21192300.426 6  86778920.894 6        40.100    21192299.992 8  86778921.897 8        48.200    21192298.203 8  83163125.619 8        53.500
G03  20420060.031 8 107308155.020 8        49.000    20420060.766 6  83616751.772 6        41.300    20420061.148 8  83616764.783 8        49.200    20420061.414 9  80132721.061 9        54.600
R10  23500456.133 7 125270657.216 7        43.900    23500454.855 7 125270645.221 7        42.400    23500453.992 6  97432722.807 6        36.300
G17  22515016.273 8 118317186.358 8        49.800    22515015.863 6  92195244.162 6        37.100    22515016.254 7  92195285.152 7        45.500
J01  36928076.234 7 194058353.833 7        43.300    36928076.477 7 194058368.821 7        47.300    36928073.863 7 194058354.731 7        42.800    36928074.477 7 151214316.368 7        44.600    36928078.023 8 144913716.177 8        49.600    36928068.262 7 157514866.711 7        46.000
R09  21589963.156 7 115289211.518 7        46.700    21589963.086 7 115289200.540 7        45.800    21589957.496 7  89669370.627 7        46.200
R19  20693552.867 7 110696568.335 7        44.900    20693551.707 7 110696561.331 7        42.700    20693545.176 7  86097337.193 7        45.500
G06  24415080.625 5 128302097.875 5        33.300    24415084.750 2  99975692.964 2        16.300    24415083.902 5  99975703.928 5        34.300    24415083.246 6  95810042.180 6        38.500
R16  22665810.742 6 121076670.019 6        39.400    22665809.281 6 121076659.045 6        38.200    22665802.840 5  94170711.952 5        35.800
G19  24368933.719 6 128059617.652 6        37.800    24368932.855 4  99786706.781 4        24.800
G11  21466104.703 7 112805130.922 7        47.700    21466102.898 6  87900093.741 6        36.600
R18  20694389.938 8 110468054.423 8        49.900    20694388.910 8 110468054.423 8        48.800    20694383.613 7  85919560.726 7        47.100
R03  20450874.328 8 109475169.552 8        48.600    20450873.840 7 109475165.558 7        46.300    20450868.285 7  85147354.775 7        47.200
R04  21347374.352 7 114314255.368 7        47.300    21347373.746 7 114314224.389 7        46.000    21347366.965 7  88911066.944 7        42.400
R02  23150930.586 5 123537799.071 5        33.500    23150930.887 5 123537796.062 5        34.700    23150927.066 6  96084988.786 6        36.300
C13  38379535.563 6 199852314.886 6        41.800    38379533.586 7 154538476.039 7        42.500    38379523.648 7 162396323.958 7        44.100
C07  37375702.945 6 194625081.447 6        41.600    37375691.902 7 150496412.185 7        43.700    37375683.391 7 158148735.943 7        44.900
C10  37145722.773 7 193427519.549 7        43.100    37145714.617 7 149570390.888 7        44.700    37145704.805 7 157175627.973 7        44.500
C08  36758766.125 7 191412540.421 7        45.500    36758755.406 7 148012276.300 7        46.500    36758747.195 7 155538287.736 7        47.300
C04  37426164.977 6 194887859.698 6        38.900    37426153.863 7 150699608.931 7        43.200    37426148.652 7 158362279.519 7        44.500
C03  37879130.484 6 197246560.879 6        36.500    37879120.500 7 152523516.019 7        43.900    37879114.590 7 160278927.514 7        43.500
C01  37085029.242 6 193111474.676 6        39.800    37085014.723 7 149325982.303 7        45.000    37085009.852 7 156918806.330 7        44.100
E24  23715194.492 7 124624176.399 7        46.400    23715204.832 7  93063539.312 7        47.800    23715202.914 7  95491278.753 7        47.600    23715204.418 8  94277410.643 8        51.000
E04  25975981.625 6 136504721.928 6        41.700    25975979.992 7 101935347.405 7        45.200    25975979.348 7 104594519.293 7        47.100    25975979.918 8 103264938.450 8        49.400
E25  24702794.625 7 129814066.373 7        47.400    24702794.590 8  96939069.419 8        49.000    24702793.125 8  99467909.220 8        49.000    24702794.016 8  98203491.924 8        52.600
E19  25680161.047 6 134950273.917 6        40.200    25680158.934 7 100774459.104 7        43.600    25680157.734 6 103403357.456 6        41.800    25680158.086 7 102088908.380 7        46.500
E12  22791068.688 7 119767871.873 7        46.400    22791063.965 8  89437022.890 8        48.800    22791063.371 8  91770163.303 8        48.400    22791063.859 8  90603595.705 8        52.000
E11  23059059.102 7 121176178.488 7        46.600    23059053.883 7  90488686.547 7        47.100    23059053.371 7  92849256.311 7        46.500    23059053.770 8  91668973.534 8        49.600
> 2018  8 30  2  3 30.0000000  0 32       0.000000000000
G08  24035982.555 6 126309913.290 6        36.700    24035985.156 2  98423310.420 2        17.400    24035985.652 6  98423311.401 6        36.300    24035983.711 7  94322333.254 7        42.600
G28  20782827.297 7 109214491.802 7        47.500    20782825.473 6  85102196.132 6        39.500
G18  22680648.461 7 119187601.541 7        42.000    22680649.125 4  92873450.743 4        25.900
G22  21168223.445 8 111239767.993 8        48.000    21168220.469 6  86680328.978 6        40.500
G01  21192662.703 7 111368192.176 7        47.000    21192664.938 6  86780415.440 6        39.900    21192664.953 8  86780416.451 8        48.600    21192663.113 8  83164557.899 8        53.500
G03  20419914.039 8 107307390.047 8        49.100    20419915.484 6  83616155.687 6        41.100    20419915.898 8  83616168.698 8        49.500    20419915.859 9  80132149.821 9        54.700
R10  23500013.094 7 125268290.618 7        43.800    23500010.832 7 125268278.612 7        42.000    23500008.828 6  97430882.084 6        36.400
G17  22514566.266 8 118314820.428 8        50.100    22514565.594 6  92193400.588 6        37.300    22514565.777 7  92193441.580 7        45.300
J01  36928086.484 7 194058410.905 7        43.100    36928087.152 7 194058425.892 7        47.200    36928085.145 7 194058411.806 7        42.700    36928085.238 7 151214360.837 7        45.200    36928088.910 8 144913758.797 8        49.600    36928079.203 7 157514913.044 7        45.900
R09  21590104.172 7 115289964.017 7        46.900    21590104.293 7 115289953.031 7        45.800    21590098.504 7  89669955.918 7        46.300
R19  20693305.383 7 110695242.788 7        44.600    20693303.848 7 110695235.806 7        42.400    20693296.973 7  86096306.222 7        45.500
G06  24414579.469 5 128299462.329 5        33.400    24414583.348 2  99973639.195 2        15.600    24414582.152 5  99973650.261 5        34.200    24414581.340 6  95808074.049 6        38.300
R16  22666515.789 6 121080439.949 6        39.200    22666514.750 6 121080428.956 6        37.700    22666508.988 5  94173644.121 5        35.800
G19  24368343.500 6 128056517.410 6        38.400    24368342.875 4  99784291.007 4        25.900
G11  21466477.695 7 112807091.170 7        47.700    21466476.230 6  87901621.206 6        37.100
R18  20694582.750 8 110469083.722 8        50.200    20694581.746 8 110469083.729 8        48.500    20694576.426 7  85920361.298 7        47.100
R03  20450851.320 8 109475045.927 8        48.700    20450850.902 7 109475041.941 7        46.700    20450844.984 7  85147258.625 7        47.100
R04  21346674.391 7 114310511.266 7        46.900    21346674.516 7 114310480.302 7        46.000    21346667.219 7  88908154.882 7        42.700
R02  23151527.844 5 123540986.313 5        33.900    23151528.191 5 123540983.322 5        34.600    23151526.121 6  96087467.779 6        36.000
C13  38379496.242 7 199852110.770 7        42.100    38379494.199 7 154538318.205 7        42.400    38379484.293 7 162396158.096 7        44.300
C07  37376002.203 6 194626641.650 6        41.600    37375991.789 7 150497618.633 7        43.200    37375983.324 7 158150003.739 7        44.900
C10  37145939.508 7 193428649.519 7        43.000    37145931.707 7 149571264.661 7        44.500    37145922.082 7 157176546.179 7        44.500
C08  36758758.992 7 191412503.285 7        45.500    36758748.293 7 148012247.584 7        46.000    36758740.055 7 155538257.554 7        47.500
C04  37426165.555 6 194887863.215 6        38.900    37426154.266 7 150699611.650 7        42.900    37426149.070 7 158362282.379 7        44.500
C03  37879132.164 6 197246569.493 6        36.700    37879122.078 7 152523522.678 7        43.400    37879116.184 7 160278934.513 7        43.500
C01  37085034.359 6 193111502.215 6        39.800    37085020.227 7 149326003.596 7        45.100    37085015.109 7 156918828.707 7        44.100
E24  23715693.492 7 124626798.287 7        46.600    23715703.742 7  93065497.200 7        47.700    23715701.758 7  95493287.725 7        47.200    23715703.391 8  94279394.069 8        50.800
E04  25975489.383 6 136502135.630 6        41.700    25975487.746 7 101933416.083 7        45.600    25975487.262 7 104592537.586 7        47.100    25975487.773 8 103262981.942 8        49.800
E25  24702889.063 7 129814561.891 7        47.400    24702888.875 8  96939439.441 8        49.100    24702887.531 8  99468288.899 8        48.800    24702888.289 8  98203866.778 8        52.900
E19  25680091.156 6 134949908.442 6        40.700    25680089.488 7 100774186.190 7        44.100    25680088.242 7 103403077.434 7        42.100    25680088.590 7 102088631.927 7        46.900
E12  22791237.609 7 119768759.653 7        46.500    22791232.914 8  89437685.840 8        48.800    22791232.309 8  91770843.546 8        48.200    22791232.809 8  90604267.294 8        52.200
E11  23058881.070 7 121175242.918 7        46.700    23058875.961 7  90487987.911 7        47.400    23058875.352 7  92848539.444 7        46.500    23058875.758 8  91668265.784 8        49.700
> 2018  8 30  2  3 31.0000000  0 32       0.000000000000
G08  24036498.695 6 126312626.991 6        36.900    24036502.047 2  98425424.984 2        16.900    24036501.758 5  98425425.980 5        35.300    24036500.254 7  94324359.723 7        42.200
G28  20782827.883 7 109214496.261 7        47.500    20782826.211 6  85102199.608 6        39.700
G18  22681190.719 6 119190448.729 6        41.700    22681191.164 4  92875669.318 4        25.700
G22  21168426.906 8 111240836.126 8        48.000    21168424.043 6  86681161.293 6        40.400
G01  21193028.047 7 111370110.598 7        47.200    21193030.070 6  86781910.320 6        39.700    21193030.164 8  86781911.331 8        48.800    21193028.270 8  83165990.483 8        53.300
G03  20419768.742 8 107306625.935 8        49.400    20419770.172 6  83615560.279 6        41.300    20419770.543 8  83615573.289 8        49.700    20419770.465 9  80131579.221 9        54.800
R10  23499567.422 7 125265924.901 7        44.300    23499566.496 7 125265912.921 7        42.400    23499566.629 6  97429042.103 6        36.200
G17  22514116.125 8 118312454.788 8        49.700    22514115.621 6  92191557.230 6        37.200    22514115.504 7  92191598.227 7        45.600
J01  36928097.828 7 194058468.264 7        43.000    36928097.934 7 194058483.255 7        47.200    36928095.672 7 194058469.189 7        42.900    36928096.539 7 151214405.545 7        45.100    36928099.902 8 144913801.641 8        49.700    36928089.988 7 157514959.605 7        45.700
R09  21590245.719 7 115290717.557 7        46.700    21590245.508 7 115290706.564 7        46.200    21590239.406 7  89670542.001 7        46.000
R19  20693058.000 7 110693917.615 7        44.200    20693055.996 7 110693910.641 7        42.100    20693049.551 7  86095275.536 7        45.600
G06  24414077.883 5 128296827.153 5        33.500    24414081.363 2  99971585.816 2        14.800    24414080.379 5  99971596.848 5        34.100    24414079.426 6  95806106.226 6        37.700
R16  22667222.070 6 121084210.264 6        38.900    22667220.445 6 121084199.299 6        37.500    22667213.754 5  94176576.600 5        35.600
G19  24367754.492 6 128053417.359 6        37.600    24367753.469 4  99781875.391 4        25.200
G11  21466850.789 7 112809051.881 7        46.700    21466849.273 6  87903149.031 6        36.800
R18  20694776.141 8 110470113.447 8        50.600    20694774.758 8 110470113.438 8        48.800    20694769.973 7  85921162.193 7        47.100
R03  20450828.273 8 109474923.424 8        48.400    20450827.809 7 109474919.444 7        46.700    20450822.047 7  85147163.348 7        47.200
R04  21345975.563 7 114306767.813 7        47.400    21345975.477 7 114306736.848 7        45.800    21345968.395 7  88905243.306 7        43.000
R02  23152126.117 5 123544174.355 5        33.900    23152125.902 5 123544171.361 5        34.300    23152123.121 5  96089947.398 5        35.900
C13  38379456.852 6 199851906.866 6        41.700    38379455.113 7 154538160.544 7        42.100    38379445.320 7 162395992.411 7        44.300
C07  37376301.477 6 194628202.164 6        41.400    37376291.402 7 150498825.325 7        43.000    37376282.926 7 158151271.786 7        44.500
C10  37146157.258 7 193429779.851 7        43.000    37146148.617 7 149572138.708 7        44.500    37146138.969 7 157177464.664 7        44.500
C08  36758751.969 7 191412466.321 7        45.500    36758740.938 7 148012219.005 7        46.200    36758732.855 7 155538227.524 7        47.800
C04  37426166.430 6 194887866.943 6        39.000    37426155.164 7 150699614.541 7        43.000    37426150.098 7 158362285.411 7        44.400
C03  37879133.648 6 197246578.320 6        36.500    37879123.590 7 152523529.509 7        43.700    37879117.797 7 160278941.684 7        43.600
C01  37085039.820 6 193111529.963 6        39.900    37085025.609 7 149326025.048 7        44.700    37085020.473 7 156918851.251 7        43.700
E24  23716192.664 7 124629420.586 7        46.400    23716202.711 7  93067455.413 7        47.600    23716200.789 7  95495297.011 7        47.000    23716202.402 8  94281377.817 8        50.500
E04  25974996.836 6 136499549.689 6        41.900    25974995.617 7 101931485.034 7        45.400    25974995.012 7 104590556.168 7        47.000    25974995.668 8 103261025.701 8        49.900
E25  24702983.711 7 129815058.080 7        47.400    24702983.191 8  96939809.978 8        48.500    24702981.922 8  99468669.096 8        49.000    24702982.699 8  98204242.144 8        52.400
E19  25680021.734 6 134949543.633 6        40.700    25680019.938 7 100773913.783 7        43.900    25680018.773 7 103402797.909 7        42.100    25680019.117 7 102088355.954 7        47.000
E12  22791406.609 7 119769647.706 7        46.600    22791401.953 8  89438349.001 8        48.800    22791401.250 8  91771524.017 8        48.500    22791401.789 8  90604939.115 8        52.100
E11  23058703.039 7 121174307.625 7        46.800    23058697.918 7  90487289.485 7        47.400    23058697.293 7  92847822.794 7        46.600    23058697.766 8  91667558.245 8        49.700
> 2018  8 30  2  3 32.0000000  0 32       0.000000000000
G08  24037015.258 6 126315340.734 6        36.200    24037018.172 2  98427539.550 2        17.800    24037018.027 5  98427540.588 5        34.700    24037016.785 7  94326386.223 7        42.000
G28  20782828.961 7 109214501.201 7        47.300    20782827.031 6  85102203.460 6        40.000
G18  22681732.430 6 119193295.849 6        41.600    22681733.055 4  92877887.854 4        24.900
G22  21168630.305 8 111241904.688 8        48.000    21168626.980 6  86681993.932 6        40.500
G01  21193393.094 7 111372029.100 7        47.400    21193395.074 6  86783405.255 6        39.600    21193395.000 8  86783406.259 8        48.600    21193393.328 8  83167423.126 8        53.400
G03  20419623.156 8 107305862.364 8        49.100    20419624.371 6  83614965.290 6        41.400    20419625.238 8  83614978.294 8        49.600    20419625.137 9  80131009.016 9        54.700
R10  23499124.211 7 125263559.776 7        44.300    23499123.145 7 125263547.781 7        42.600    23499122.453 6  97427202.565 6        36.400
G17  22513665.953 8 118310089.102 8        49.600    22513665.207 6  92189713.835 6        37.100    22513665.004 7  92189754.819 7        45.500
J01  36928109.000 7 194058525.597 7        43.000    36928109.098 7 194058540.586 7        47.200    36928105.957 7 194058526.509 7        42.600    36928107.340 7 151214450.228 7        44.500    36928110.797 8 144913844.456 8        49.700    36928101.152 7 157515006.142 7        45.400
R09  21590386.945 7 115291471.800 7        47.200    21590386.617 7 115291460.806 7        46.100    21590380.512 7  89671128.626 7        46.200
R19  20692810.117 7 110692592.434 7        44.100    20692808.324 7 110692585.453 7        42.200    20692801.352 7  86094244.827 7        45.400
G06  24413576.977 5 128294191.977 5        33.200    24413580.555 2  99969532.503 2        14.800    24413578.855 5  99969543.504 5        34.100    24413577.539 6  95804138.394 6        37.600
R16  22667928.000 6 121087980.678 6        38.900    22667926.469 6 121087969.684 6        37.600    22667919.188 5  94179509.128 5        35.900
G19  24367163.539 6 128050317.170 6        37.800    24367163.207 4  99779459.660 4        25.200
G11  21467223.953 7 112811012.680 7        46.600    21467222.438 6  87904676.928 6        36.300
R18  20694968.273 8 110471143.238 8        50.000    20694967.340 8 110471143.238 8        48.500    20694962.051 7  85921963.132 7        46.800
R03  20450805.328 8 109474801.707 8        48.600    20450805.195 7 109474797.728 7        46.600    20450799.094 7  85147068.682 7        47.200
R04  21345276.781 7 114303024.664 7        47.300    21345276.246 7 114302993.692 7        45.900    21345269.246 7  88902331.981 7        43.000
R02  23152724.750 5 123547362.835 5        34.400    23152723.195 5 123547359.835 5        34.500    23152720.680 6  96092427.343 6        36.100
C13  38379418.313 6 199851702.827 6        41.900    38379415.953 7 154538002.759 7        42.200    38379406.063 7 162395826.608 7        44.600
C07  37376601.406 7 194629762.663 7        42.000    37376591.355 7 150500032.002 7        43.400    37376582.840 7 158152539.825 7        44.900
C10  37146374.375 7 193430910.226 7        43.000    37146365.625 7 149573012.789 7        44.300    37146356.074 7 157178383.191 7        44.700
C08  36758744.703 7 191412429.205 7        45.300    36758734.020 7 148012190.300 7        46.100    36758725.758 7 155538197.359 7        47.100
C04  37426166.820 6 194887870.537 6        39.000    37426156.004 7 150699617.314 7        42.900    37426150.680 7 158362288.326 7        44.300
C03  37879135.938 6 197246587.037 6        36.300    37879125.582 7 152523536.252 7        43.600    37879119.633 7 160278948.780 7        44.100
C01  37085044.633 6 193111557.608 6        39.700    37085030.723 7 149326046.424 7        45.000    37085025.738 7 156918873.718 7        43.800
E24  23716691.750 7 124632042.937 7        46.300    23716701.895 7  93069413.684 7        47.400    23716699.840 7  95497306.370 7        47.000    23716701.410 8  94283361.633 8        50.500
E04  25974504.922 7 136496963.803 7        42.000    25974503.590 7 101929554.009 7        45.600    25974502.848 7 104588574.763 7        46.700    25974503.602 8 103259069.495 8        49.700
E25  24703078.023 7 129815554.623 7        47.400    24703077.504 8  96940180.783 8        48.900    24703076.484 8  99469049.572 8        48.800    24703077.203 8  98204617.785 8        52.200
E19  25679952.609 6 134949179.195 6        40.600    25679950.484 7 100773641.610 7        43.500    25679949.313 7 103402518.643 7        42.100    25679949.727 7 102088080.230 7        46.700
E12  22791575.711 7 119770535.733 7        46.800    22791570.988 8  89439012.126 8        49.100    22791570.363 8  91772204.441 8        48.300    22791570.773 8  90605610.887 8        52.100
E11  23058524.961 7 121173372.269 7        46.600    23058519.840 7  90486590.996 7        47.200    23058519.258 7  92847106.096 7        46.800    23058519.762 8  91666850.654 8        49.700
> 2018  8 30  2  3 33.0000000  0 32       0.000000000000
G08  24037531.094 5 126318054.665 5        35.600    24037534.156 3  98429654.289 3        18.300    24037534.383 5  98429655.341 5        34.300    24037533.371 7  94328412.854 7        42.200
G28  20782829.438 7 109214506.701 7        47.000    20782828.242 6  85102207.744 6        40.100
G18  22682274.680 7 119196142.973 7        42.200    22682274.578 4  92880106.394 4        25.100
G22  21168833.930 8 111242973.765 8        48.000    21168830.652 6  86682826.980 6        40.300
G01  21193758.742 7 111373947.760 7        47.500    21193760.160 6  86784900.312 6        39.500    21193759.887 8  86784901.322 8        48.900    21193758.359 8  83168855.901 8        53.400
G03  20419478.141 8 107305099.389 8        48.900    20419479.016 6  83614370.764 6        41.100    20419479.719 8  83614383.768 8        49.800    20419479.965 9  80130439.270 9        54.800
R10  23498681.469 7 125261195.274 7        44.400    23498679.770 7 125261183.288 7        43.000    23498679.984 5  97425363.513 5        35.900
G17  22513215.508 8 118307723.435 8        49.800    22513215.148 6  92187870.459 6        37.400    22513214.844 7  92187911.464 7        45.200
J01  36928120.031 7 194058582.986 7        43.600    36928119.941 7 194058597.972 7        47.100    36928117.543 7 194058583.901 7        42.600    36928118.117 7 151214494.934 7        44.600    36928121.578 8 144913887.303 8        49.700    36928111.766 7 157515052.717 7        45.800
R09  21590528.625 7 115292226.787 7        47.200    21590527.781 7 115292215.810 7        46.000    21590522.410 7  89671715.850 7        46.400
R19  20692561.852 7 110691267.352 7        44.200    20692560.738 7 110691260.362 7        42.300    20692553.824 7  86093214.216 7        45.500
G06  24413074.766 5 128291556.974 5        33.300    24413078.180 2  99967479.247 2        14.800    24413077.809 5  99967490.215 5        34.100    24413076.148 6  95802170.650 6        37.300
R16  22668633.641 6 121091751.246 6        38.700    22668632.227 6 121091740.232 6        38.000    22668627.098 6  94182441.801 6        36.100
G19  24366573.227 6 128047216.943 6        37.600    24366573.172 4  99777043.899 4        26.200
G11  21467596.922 7 112812973.718 7        46.800    21467595.266 6  87906205.004 6        36.700
R18  20695160.977 8 110472173.157 8        49.900    20695160.371 8 110472173.164 8        48.600    20695155.488 7  85922764.191 7        46.400
R03  20450783.266 8 109474680.879 8        48.700    20450782.801 7 109474676.893 7        46.800    20450776.777 7  85146974.695 7        47.200
R04  21344577.695 7 114299281.898 7        47.200    21344577.516 7 114299250.917 7        45.500    21344570.535 7  88899420.921 7        43.000
R02  23153321.766 5 123550551.898 5        34.800    23153320.773 5 123550548.916 5        34.700    23153318.078 6  96094907.701 6        36.000
C13  38379378.797 6 199851498.700 6        41.800    38379376.633 7 154537844.918 7        42.300    38379366.645 7 162395660.743 7        44.100
C07  37376901.055 7 194631323.268 7        42.400    37376890.930 7 150501238.763 7        43.200    37376882.129 7 158153807.945 7        44.500
C10  37146591.383 7 193432040.729 7        42.900    37146583.133 7 149573886.959 7        44.300    37146573.281 7 157179301.814 7        44.700
C08  36758737.625 7 191412391.993 7        45.200    36758726.637 7 148012161.528 7        45.900    36758718.684 7 155538167.123 7        46.800
C04  37426167.523 6 194887874.087 6        38.800    37426156.426 7 150699620.057 7        43.000    37426151.301 7 158362291.207 7        44.400
C03  37879137.578 6 197246595.690 6        36.500    37879127.039 7 152523542.942 7        43.600    37879121.090 7 160278955.809 7        43.900
C01  37085050.070 6 193111585.185 6        39.900    37085036.262 7 149326067.749 7        45.200    37085030.973 7 156918896.122 7        43.700
E24  23717190.578 7 124634665.495 7        46.400    23717201.012 7  93071372.065 7        47.400    23717198.910 7  95499315.841 7        46.800    23717200.480 8  94285345.559 8        50.500
E04  25974012.734 7 136494378.022 7        42.100    25974011.688 7 101927623.064 7        45.700    25974011.063 7 104586593.454 7        46.900    25974011.566 8 103257113.365 8        50.200
E25  24703172.523 7 129816051.593 7        47.800    24703172.059 8  96940551.895 8        49.100    24703171.172 8  99469430.376 8        48.800    24703171.801 8  98204993.741 8        52.300
E19  25679883.141 6 134948815.127 6        40.200    25679881.246 7 100773369.747 7        43.900    25679880.039 7 103402239.697 7        42.100    25679880.453 7 102087804.829 7        46.600
E12  22791744.516 7 119771423.748 7        47.000    22791739.871 8  89439675.262 8        48.800    22791739.406 8  91772884.882 8        48.600    22791739.785 8  90606282.680 8        52.100
E11  23058347.109 7 121172436.974 7        46.700    23058341.836 7  90485892.564 7        47.100    23058341.418 7  92846389.442 7        46.800    23058341.793 8  91666143.101 8        49.600
> 2018  8 30  2  3 34.0000000  0 32       0.000000000000
G08  24038048.336 6 126320768.733 6        36.000    24038051.156 2  98431769.198 2        17.800    24038050.695 5  98431770.270 5        34.100    24038049.805 7  94330439.599 7        42.300
G28  20782830.984 7 109214512.766 7        47.200    20782829.574 6  85102212.470 6        40.200
G18  22682815.883 7 119198990.143 7        42.000    22682816.707 4  92882324.982 4        26.600
G22  21169037.383 8 111244043.347 8        48.300    21169033.938 6  86683660.419 6        40.400
G01  21194123.711 7 111375866.583 7        47.300    21194125.602 6  86786395.504 6        39.700    21194125.391 8  86786396.514 8        49.000    21194123.590 8  83170288.793 8        53.500
G03  20419333.219 8 107304337.039 8        48.900    20419334.531 6  83613776.725 6        41.200    20419334.621 8  83613789.729 8        49.800    20419334.930 9  80129869.976 9        54.600
R10  23498237.656 7 125258831.446 7        44.200    23498236.051 7 125258819.451 7        42.700    23498234.488 6  97423524.953 6        36.300
G17  22512765.602 8 118305357.801 8        49.600    22512764.742 6  92186027.104 6        37.300    22512765.000 7  92186068.119 7        45.300
J01  36928131.219 7 194058640.410 7        44.200    36928130.941 7 194058655.401 7        47.200    36928128.566 7 194058641.325 7        43.000    36928128.953 7 151214539.682 7        44.600    36928132.742 8 144913930.186 8        49.900    36928122.871 7 157515099.342 7        46.100
R09  21590670.750 7 115292982.578 7        47.600    21590669.648 7 115292971.599 7        46.000    21590663.461 7  89672303.680 7        46.600
R19  20692314.547 7 110689942.378 7        43.800    20692312.988 7 110689935.396 7        42.100    20692305.844 7  86092183.674 7        45.500
G06  24412573.547 5 128288921.948 5        32.400    24412577.125 2  99965425.957 2        15.600    24412576.793 5  99965436.978 5        33.500    24412574.145 6  95800202.977 6        37.200
R16  22669339.383 6 121095521.946 6        38.000    22669338.039 6 121095510.949 6        37.300    22669331.754 6  94185374.566 6        36.500
G19  24365983.477 6 128044116.623 6        37.300    24365983.270 4  99774628.069 4        25.700
G11  21467969.984 7 112814934.948 7        46.800    21467968.508 6  87907733.239 6        36.700
R18  20695354.320 8 110473203.268 8        49.900    20695353.504 8 110473203.253 8        48.500    20695348.617 7  85923565.378 7        46.700
R03  20450761.055 8 109474560.914 8        48.200    20450760.262 7 109474556.934 7        46.500    20450754.480 7  85146881.402 7        47.200
R04  21343879.039 7 114295539.478 7        47.000    21343878.738 7 114295508.491 7        45.700    21343872.320 7  88896510.158 7        43.200
R02  23153919.258 5 123553741.474 5        35.000    23153917.984 5 123553738.502 5        34.300    23153916.266 5  96097388.491 5        35.100
C13  38379339.391 7 199851294.550 7        42.100    38379337.395 7 154537687.053 7        42.400    38379327.406 7 162395494.846 7        44.100
C07  37377201.039 7 194632883.916 7        42.000    37377190.809 7 150502445.547 7        43.300    37377181.746 7 158155076.085 7        44.300
C10  37146808.359 7 193433171.335 7        43.000    37146800.383 7 149574761.215 7        43.900    37146790.438 7 157180220.514 7        45.000
C08  36758730.523 7 191412354.735 7        45.100    36758719.375 7 148012132.714 7        46.300    36758711.250 7 155538136.849 7        46.800
C04  37426168.313 6 194887877.629 6        38.900    37426157.230 7 150699622.792 7        43.300    37426152.098 7 158362294.089 7        44.100
C03  37879139.102 6 197246604.336 6        36.500    37879128.785 7 152523549.622 7        43.600    37879122.723 7 160278962.833 7        43.500
C01  37085055.430 6 193111612.720 6        39.700    37085041.574 7 149326089.042 7        45.200    37085036.262 7 156918918.495 7        43.700
E24  23717689.570 7 124637288.188 7        46.800    23717700.008 7  93073330.577 7        47.200    23717698.059 7  95501325.439 7        46.900    23717699.578 8  94287329.615 8        50.400
E04  25973520.742 7 136491792.345 7        42.500    25973519.563 7 101925692.214 7        45.500    25973519.000 7 104584612.233 7        47.200    25973519.520 8 103255157.330 8        50.100
E25  24703267.383 7 129816549.020 7        47.600    24703266.742 8  96940923.344 8        49.100    24703265.684 8  99469811.510 8        48.800    24703266.469 8  98205370.036 8        52.300
E19  25679813.969 6 134948451.478 6        40.100    25679812.004 7 100773098.207 7        43.700    25679810.828 7 103401961.052 7        42.000    25679811.281 7 102087529.739 7        46.400
E12  22791913.711 7 119772311.847 7        46.900    22791908.945 8  89440338.443 8        48.700    22791908.445 8  91773565.348 8        48.900    22791908.793 8  90606954.500 8        52.400
E11  23058169.109 7 121171501.707 7        46.500    23058163.867 7  90485194.149 7        47.200    23058163.496 7  92845672.803 7        46.900    23058163.813 8  91665435.578 8        49.800
> 2018  8 30  2  3 35.0000000  0 32       0.000000000000
G08  24038564.203 5 126323483.066 5        35.800    24038567.715 2  98433884.249 2        17.400    24038567.742 5  98433885.306 5        34.600    24038566.715 7  94332466.523 7        42.600
G28  20782832.156 7 109214519.485 7        46.700    20782830.820 6  85102217.704 6        40.200
G18  22683357.297 6 119201837.500 6        41.600    22683358.586 4  92884543.704 4        26.900
G22  21169241.039 7 111245113.553 7        47.600    21169237.934 6  86684494.350 6        41.100
G01  21194489.125 8 111377785.663 8        48.000    21194491.031 6  86787890.891 6        39.900    21194490.520 8  86787891.894 8        48.800    21194488.703 8  83171721.864 8        53.500
G03  20419188.148 8 107303575.374 8        49.300    20419189.645 6  83613183.217 6        41.300    20419189.820 8  83613196.228 8        49.400    20419190.020 9  80129301.203 9        54.600
R10  23497794.320 7 125256468.339 7        43.600    23497792.738 7 125256456.355 7        42.400    23497792.184 6  97421687.000 6        36.200
G17  22512315.266 8 118302992.292 8        49.600    22512314.586 6  92184183.857 6        37.400    22512314.527 7  92184224.862 7        45.200
J01  36928141.719 7 194058697.984 7        43.300    36928141.855 7 194058712.970 7        47.200    36928139.547 7 194058698.887 7        43.400    36928140.176 7 151214584.541 7        44.900    36928143.602 8 144913973.171 8        49.900    36928133.746 7 157515146.064 7        46.400
R09  21590812.195 8 115293739.254 8        48.000    21590811.375 7 115293728.261 7        45.900    21590805.254 7  89672892.189 7        46.300
R19  20692067.008 7 110688617.591 7        44.100    20692065.566 7 110688610.601 7        42.500    20692057.863 7  86091153.283 7        45.300
G06  24412071.875 5 128286287.256 5        32.800    24412076.199 2  99963372.945 2        15.600    24412074.633 5  99963383.965 5        32.700    24412072.809 6  95798235.443 6        37.400
R16  22670045.063 6 121099292.875 6        38.100    22670044.164 6 121099281.895 6        37.400    22670039.492 6  94188307.523 6        36.300
G19  24365393.727 6 128041016.385 6        37.300    24365393.223 4  99772212.298 4        24.400
G11  21468343.070 7 112816896.462 7        46.700    21468341.684 6  87909261.685 6        36.600
R18  20695546.773 8 110474233.610 8        49.700    20695546.473 8 110474233.602 8        48.700    20695541.332 7  85924366.747 7        46.800
R03  20450738.492 7 109474441.908 7        47.900    20450737.793 7 109474437.907 7        46.200    20450732.156 7  85146788.826 7        47.200
R04  21343180.328 7 114291797.512 7        47.100    21343179.770 7 114291766.526 7        45.800    21343173.152 7  88893599.733 7        43.400
R02  23154516.664 5 123556931.689 5        34.800    23154515.320 5 123556928.683 5        34.600    23154513.758 5  96099869.759 5        35.100
C13  38379300.695 7 199851090.419 7        42.200    38379298.016 7 154537529.203 7        42.700    38379288.184 7 162395328.975 7        44.200
C07  37377500.906 6 194634444.724 6        41.800    37377490.578 7 150503652.472 7        43.500    37377481.836 7 158156344.379 7        44.500
C10  37147025.867 7 193434302.148 7        43.000    37147017.238 7 149575635.629 7        44.300    37147007.406 7 157181139.396 7        44.900
C08  36758723.531 7 191412317.457 7        45.100    36758712.414 7 148012103.884 7        46.200    36758704.438 7 155538106.554 7        47.000
C04  37426169.242 6 194887881.185 6        38.900    37426158.230 7 150699625.546 7        43.200    37426152.805 7 158362296.975 7        44.000
C03  37879140.891 6 197246613.027 6        36.500    37879130.766 7 152523556.338 7        43.300    37879124.563 7 160278969.892 7        43.800
C01  37085060.484 6 193111640.337 6        39.800    37085046.648 7 149326110.401 7        45.700    37085041.609 7 156918940.942 7        43.800
E24  23718188.586 7 124639911.131 7        46.400    23718199.004 7  93075289.278 7        47.400    23718197.160 7  95503335.242 7        46.600    23718198.695 8  94289313.862 8        50.300
E04  25973028.953 7 136489206.888 7        42.800    25973027.480 7 101923761.506 7        45.300    25973026.977 7 104582631.164 7        47.400    25973027.535 8 103253201.434 8        50.200
E25  24703362.016 7 129817046.982 7        47.600    24703361.383 8  96941295.190 8        49.200    24703360.543 8  99470193.056 8        49.000    24703361.211 8  98205746.734 8        52.400
E19  25679745.039 6 134948088.340 6        39.700    25679742.762 7 100772827.027 7        43.200    25679741.867 7 103401682.817 7        42.200    25679742.176 7 102087255.033 7        46.000
E12  22792082.797 7 119773200.008 7        46.900    22792077.867 8  89441001.697 8        49.000    22792077.297 8  91774245.918 8        48.500    22792077.773 8  90607626.408 8        52.700
E11  23057990.969 7 121170566.532 7        46.600    23057985.941 7  90484495.802 7        47.400    23057985.418 7  92844956.239 7        47.100    23057985.859 8  91664728.126 8        49.700
> 2018  8 30  2  3 36.0000000  0 32       0.000000000000
G08  24039081.320 6 126326197.609 6        36.100    24039083.828 2  98435999.496 2        17.800    24039084.289 5  98436000.500 5        35.200    24039083.277 7  94334493.597 7        42.500
G28  20782833.430 7 109214526.844 7        46.600    20782832.398 6  85102223.438 6        40.100
G18  22683899.375 6 119204684.938 6        41.300    22683900.234 4  92886762.496 4        25.200
G22  21169444.844 8 111246184.319 8        48.000    21169441.473 6  86685328.715 6        41.100
G01  21194854.492 7 111379704.946 7        47.800    21194856.125 6  86789386.434 6        39.800    21194855.648 8  86789387.445 8        48.800    21194853.973 8  83173155.107 8        53.500
G03  20419043.406 8 107302814.378 8        49.400    20419044.590 6  83612590.238 6        41.300    20419044.777 8  83612603.241 8        49.400    20419045.180 9  80128732.930 9        54.600
R10  23497350.016 7 125254105.945 7        43.600    23497349.797 7 125254093.959 7        42.300    23497349.125 6  97419849.595 6        36.500
G17  22511865.266 8 118300626.874 8        49.800    22511864.734 6  92182340.678 6        37.200    22511864.590 7  92182381.677 7        45.400
J01  36928152.672 7 194058755.649 7        43.000    36928152.699 7 194058770.636 7        47.000    36928150.070 7 194058756.563 7        43.400    36928150.930 7 151214629.485 7        44.900    36928154.445 8 144914016.249 8        49.900    36928144.867 7 157515192.875 7        46.100
R09  21590953.398 7 115294496.708 7        47.700    21590953.258 7 115294485.723 7        46.000    21590946.840 7  89673481.333 7        46.200
R19  20691818.438 7 110687292.954 7        43.700    20691817.441 7 110687285.973 7        42.400    20691811.320 7  86090123.014 7        45.600
G06  24411570.633 5 128283652.560 5        32.900    24411574.141 2  99961319.936 2        13.900    24411573.469 5  99961330.963 5        32.700    24411571.406 6  95796268.064 6        37.500
R16  22670751.578 6 121103064.025 6        38.500    22670749.930 6 121103053.023 6        37.900    22670745.102 6  94191240.634 6        36.500
G19  24364803.734 6 128037916.142 6        37.400    24364803.652 4  99769796.539 4        24.400
G11  21468717.266 7 112818858.249 7        46.900    21468714.867 6  87910790.354 6        36.900
R18  20695740.227 8 110475264.154 8        49.700    20695739.363 8 110475264.153 8        48.300    20695734.527 7  85925168.288 7        46.500
R03  20450715.578 8 109474323.778 8        48.200    20450715.352 7 109474319.783 7        46.500    20450710.129 7  85146696.955 7        47.400
R04  21342481.242 7 114288055.982 7        47.200    21342481.461 7 114288024.996 7        45.700    21342474.762 7  88890689.662 7        43.000
R02  23155115.789 5 123560122.367 5        34.800    23155113.531 5 123560119.393 5        34.000    23155111.043 5  96102351.436 5        35.100
C13  38379261.453 6 199850886.279 6        41.800    38379258.941 7 154537371.351 7        42.800    38379248.961 7 162395163.101 7        44.300
C07  37377800.547 7 194636005.664 7        42.000    37377790.234 7 150504859.491 7        43.800    37377781.527 7 158157612.771 7        44.100
C10  37147242.531 7 193435433.114 7        42.800    37147234.590 7 149576510.172 7        44.400    37147224.828 7 157182058.401 7        44.800
C08  36758716.383 7 191412280.144 7        44.900    36758705.418 7 148012075.037 7        46.100    36758697.316 7 155538076.230 7        47.000
C04  37426169.703 6 194887884.768 6        39.000    37426158.871 7 150699628.314 7        43.000    37426153.332 7 158362299.887 7        43.600
C03  37879141.938 6 197246621.710 6        36.600    37879132.207 7 152523563.060 7        43.800    37879126.207 7 160278976.952 7        44.100
C01  37085065.906 6 193111667.957 6        39.700    37085051.738 7 149326131.758 7        45.500    37085046.840 7 156918963.385 7        44.200
E24  23718687.805 7 124642534.296 7        46.400    23718698.223 7  93077248.134 7        47.600    23718696.270 7  95505345.198 7        46.700    23718697.848 8  94291298.272 8        50.600
E04  25972537.203 7 136486621.604 7        42.400    25972535.492 7 101921830.923 7        45.500    25972535.223 7 104580650.215 7        47.500    25972535.547 8 103251245.676 8        50.300
E25  24703456.688 7 129817545.397 7        47.600    24703456.305 8  96941667.393 8        48.900    24703455.332 8  99470574.976 8        49.100    24703456.070 8  98206123.793 8        52.300
E19  25679675.555 6 134947725.685 6        39.600    25679673.582 7 100772556.204 7        43.300    25679672.832 7 103401404.929 7        42.300    25679673.145 7 102086980.670 7        46.100
E12  22792251.820 7 119774088.301 7        47.000    22792246.902 8  89441665.023 8        49.300    22792246.352 8  91774926.540 8        48.200    22792246.793 8  90608298.386 8        52.700
E11  23057812.953 7 121169631.474 7        46.700    23057807.938 7  90483797.544 7        47.300    23057807.414 7  92844239.770 7        47.100    23057807.887 8  91664020.759 8        49.700
> 2018  8 30  2  3 37.0000000  0 32       0.000000000000
G08  24039597.570 5 126328912.300 5        35.600    24039600.469 2  98438114.805 2        16.900    24039601.039 6  98438115.855 6        36.000    24039600.023 7  94336520.807 7        42.300
G28  20782834.883 7 109214534.737 7        46.700    20782833.449 6  85102229.592 6        39.500
G18  22684440.617 6 119207532.407 6        40.800    22684442.066 4  92888981.287 4        26.700
G22  21169648.352 8 111247255.601 8        48.200    21169644.934 6  86686163.478 6        41.400
G01  21195219.367 7 111381624.403 7        47.000    21195220.980 6  86790882.116 6        39.900    21195220.938 8  86790883.142 8        48.400    21195219.203 8  83174588.471 8        53.300
G03  20418898.977 8 107302054.020 8        49.500    20418899.926 6  83611997.747 6        40.900    20418900.289 8  83612010.750 8        49.600    20418900.512 9  80128165.123 9        54.800
R10  23496907.938 7 125251744.209 7        43.600    23496906.824 7 125251732.225 7        42.400    23496905.988 6  97418012.693 6        36.600
G17  22511415.398 8 118298261.481 8        49.700    22511414.383 6  92180497.517 6        37.800    22511414.383 7  92180538.530 7        45.800
J01  36928163.609 7 194058813.384 7        43.500    36928163.918 7 194058828.368 7        47.200    36928161.395 7 194058814.284 7        43.100    36928161.684 7 151214674.465 7        44.900    36928165.520 8 144914059.353 8        49.800    36928155.863 7 157515239.732 7        45.900
R09  21591096.164 7 115295254.997 7        47.300    21591095.344 7 115295244.011 7        46.400    21591088.699 7  89674071.105 7        46.200
R19  20691570.172 7 110685968.424 7        43.900    20691569.625 7 110685961.443 7        42.000    20691563.285 7  86089092.836 7        45.600
G06  24411069.938 5 128281018.073 5        32.800    24411072.695 2  99959267.025 2        13.900    24411072.504 5  99959278.104 5        32.600    24411070.371 6  95794300.690 6        37.100
R16  22671458.016 6 121106835.288 6        39.200    22671456.250 6 121106824.322 6        37.400    22671450.512 6  94194173.842 6        36.400
G19  24364214.148 6 128034815.791 6        37.400    24364213.527 4  99767380.655 4        25.800
G11  21469090.266 7 112820820.226 7        47.000    21469088.824 6  87912319.167 6        36.800
R18  20695933.242 8 110476294.864 8        50.100    20695932.684 8 110476294.871 8        48.200    20695927.238 7  85925969.952 7        46.500
R03  20450693.484 8 109474206.504 8        48.100    20450693.492 7 109474202.517 7        46.100    20450687.980 7  85146605.747 7        47.300
R04  21341782.742 7 114284314.870 7        47.000    21341782.492 7 114284283.890 7        45.800    21341775.609 7  88887779.896 7        43.000
R02  23155713.586 5 123563313.497 5        34.600    23155711.445 5 123563310.526 5        34.000    23155708.652 5  96104833.424 5        34.800
C13  38379221.938 7 199850682.100 7        42.100    38379219.852 7 154537213.468 7        42.100    38379209.988 7 162394997.183 7        44.100
C07  37378100.383 6 194637566.689 6        41.800    37378089.871 7 150506066.576 7        43.600    37378081.102 7 158158881.237 7        44.500
C10  37147459.172 7 193436564.252 7        42.700    37147451.711 7 149577384.837 7        44.100    37147442.020 7 157182977.543 7        44.900
C08  36758709.023 7 191412242.780 7        44.900    36758697.945 7 148012046.146 7        46.200    36758689.953 7 155538045.871 7        46.900
C04  37426170.656 6 194887888.331 6        38.900    37426159.590 7 150699631.070 7        43.300    37426154.148 7 158362302.782 7        43.700
C03  37879143.734 6 197246630.361 6        36.600    37879133.727 7 152523569.749 7        43.900    37879127.848 7 160278983.981 7        43.900
C01  37085071.484 6 193111695.556 6        39.700    37085057.406 7 149326153.096 7        45.600    37085052.188 7 156918985.808 7        43.700
E24  23719187.094 7 124645157.651 7        46.300    23719197.473 7  93079207.123 7        47.800    23719195.434 7  95507355.296 7        46.800    23719197.059 8  94293282.815 8        50.900
E04  25972044.945 7 136484036.427 7        42.300    25972043.492 7 101919900.452 7        45.500    25972043.246 7 104578669.370 7        47.600    25972043.602 8 103249290.018 8        50.100
E25  24703551.711 7 129818044.284 7        46.800    24703551.109 8  96942039.944 8        49.100    24703550.320 8  99470957.237 8        49.000    24703550.980 8  98206501.187 8        52.200
E19  25679606.641 6 134947363.431 6        39.700    25679604.621 7 100772285.700 7        43.300    25679603.723 7 103401127.354 7        42.300    25679604.176 7 102086706.636 7        45.600
E12  22792420.602 7 119774976.622 7        46.900    22792416.027 8  89442328.377 8        49.400    22792415.492 8  91775607.197 8        48.500    22792415.844 8  90608970.390 8        52.300
E11  23057635.172 7 121168696.452 7        46.500    23057629.977 7  90483099.315 7        47.000    23057629.602 7  92843523.322 7        47.200    23057629.969 8  91663313.425 8        49.700
> 2018  8 30  2  3 38.0000000  0 32       0.000000000000
G08  24040114.430 6 126331627.248 6        36.000    24040116.953 2  98440230.338 2        17.400    24040117.809 6  98440231.390 6        36.700    24040116.684 7  94338548.207 7        42.000
G28  20782836.617 7 109214543.325 7        46.700    20782835.211 6  85102236.284 6        39.200
G18  22684982.797 6 119210380.025 6        40.600    22684983.836 4  92891200.210 4        25.900
G22  21169852.352 7 111248327.484 7        47.300    21169849.125 6  86686998.711 6        41.200
G01  21195585.141 7 111383544.131 7        47.000    21195586.355 6  86792378.014 6        39.900    21195586.156 8  86792379.017 8        48.000    21195584.578 8  83176022.013 8        53.300
G03  20418754.430 8 107301294.350 8        49.600    20418755.430 6  83611405.800 6        41.200    20418755.707 8  83611418.804 8        49.000    20418755.984 9  80127597.841 9        54.700
R10  23496466.102 7 125249383.230 7        43.600    23496463.816 7 125249371.251 7        42.400    23496462.191 6  97416176.382 6        36.600
G17  22510965.039 8 118295896.238 8        49.600    22510964.453 6  92178654.465 6        38.100    22510964.449 7  92178695.467 7        45.700
J01  36928174.266 7 194058871.248 7        43.900    36928174.859 7 194058886.235 7        47.100    36928172.492 7 194058872.154 7        42.900    36928172.910 7 151214719.555 7        44.700    36928176.633 8 144914102.566 8        49.600    36928166.879 7 157515286.699 7        46.200
R09  21591237.422 7 115296014.170 7        47.800    21591237.520 7 115296003.177 7        46.600    21591231.297 7  89674661.579 7        46.600
R19  20691322.773 7 110684644.063 7        43.600    20691322.367 7 110684637.089 7        42.000    20691315.906 7  86088062.772 7        45.600
G06  24410569.109 5 128278383.768 5        32.900    24410571.063 2  99957214.387 2        14.800    24410570.477 5  99957225.407 5        32.200    24410568.434 6  95792333.539 6        37.100
R16  22672162.539 6 121110606.824 6        39.200    22672162.297 6 121110595.835 6        37.800    22672157.852 6  94197107.278 6        36.600
G19  24363624.281 6 128031715.517 6        37.500    24363623.516 4  99764964.866 4        25.300
G11  21469463.477 7 112822782.519 7        46.800    21469461.859 6  87913848.228 6        37.000
R18  20696126.586 8 110477325.833 8        49.900    20696125.770 8 110477325.832 8        48.400    20696120.152 7  85926771.818 7        46.400
R03  20450672.336 8 109474090.176 8        48.100    20450671.684 7 109474086.189 7        46.000    20450665.777 7  85146515.265 7        47.200
R04  21341084.625 7 114280574.240 7        46.200    21341083.996 7 114280543.253 7        45.400    21341076.797 7  88884870.528 7        43.200
R02  23156311.125 5 123566505.195 5        34.200    23156309.711 5 123566502.248 5        34.100    23156306.918 5  96107315.859 5        34.500
C13  38379183.055 6 199850477.954 6        41.700    38379180.684 7 154537055.607 7        42.000    38379170.840 7 162394831.298 7        43.900
C07  37378400.188 7 194639127.850 7        42.100    37378389.652 7 150507273.769 7        43.600    37378380.973 7 158160149.807 7        44.500
C10  37147677.031 7 193437695.587 7        42.600    37147669.074 7 149578259.649 7        44.100    37147659.242 7 157183896.844 7        44.900
C08  36758701.500 7 191412205.424 7        45.000    36758691.059 7 148012017.262 7        46.000    36758682.961 7 155538015.518 7        47.200
C04  37426170.734 6 194887891.941 6        38.900    37426160.082 7 150699633.858 7        43.200    37426154.785 7 158362305.718 7        43.800
C03  37879145.414 6 197246639.062 6        36.400    37879135.441 7 152523576.478 7        43.500    37879129.500 7 160278991.046 7        44.000
C01  37085076.688 6 193111723.197 6        39.700    37085062.805 7 149326174.467 7        45.300    37085057.816 7 156919008.274 7        43.900
E24  23719686.422 7 124647781.245 7        46.700    23719696.773 7  93081166.306 7        47.300    23719694.551 7  95509365.595 7        47.000    23719696.305 8  94295267.555 8        50.600
E04  25971552.977 7 136481451.442 7        42.300    25971551.918 7 101917970.116 7        45.400    25971551.445 7 104576688.682 7        47.800    25971551.703 8 103247334.504 8        49.800
E25  24703646.719 7 129818543.692 7        47.000    24703646.137 8  96942412.875 8        49.000    24703645.371 8  99471339.902 8        49.100    24703646.020 8  98206878.994 8        52.300
E19  25679537.734 6 134947001.703 6        39.800    25679535.992 7 100772015.558 7        43.100    25679534.965 7 103400850.174 7        42.400    25679535.340 7 102086432.978 7        45.500
E12  22792589.484 7 119775865.055 7        47.100    22792585.215 8  89442991.816 8        49.200    22792584.504 8  91776287.945 8        48.600    22792584.898 8  90609642.486 8        52.400
E11  23057457.375 7 121167761.535 7        46.500    23057452.094 7  90482401.178 7        47.000    23057451.594 7  92842806.968 7        46.900    23057452.047 8  91662606.172 8        49.600
> 2018  8 30  2  3 39.0000000  0 32       0.000000000000
G08  24040630.750 6 126334342.393 6        36.000    24040633.332 2  98442346.033 2        17.400    24040634.957 6  98442347.078 6        36.700    24040633.320 6  94340575.743 6        41.700
G28  20782838.547 7 109214552.461 7        46.900    20782836.680 6  85102243.397 6        39.700
G18  22685524.531 6 119213227.707 6        40.900    22685525.922 4  92893419.186 4        26.100
G22  21170056.484 7 111249399.921 7        47.400    21170053.223 6  86687834.373 6        40.200
G01  21195949.820 7 111385463.999 7        47.200    21195951.570 6  86793874.007 6        39.800    21195951.617 8  86793875.025 8        48.300    21195949.875 8  83177455.693 8        53.600
G03  20418609.898 8 107300535.302 8        49.900    20418610.738 6  83610814.327 6        41.000    20418611.469 8  83610827.344 8        49.000    20418611.504 9  80127031.019 9        54.900
R10  23496022.156 7 125247022.905 7        44.100    23496020.902 7 125247010.908 7        42.400    23496020.488 6  97414340.546 6        36.600
G17  22510515.203 8 118293531.018 8        49.000    22510514.414 6  92176811.440 6        37.700    22510514.852 7  92176852.445 7        45.400
J01  36928185.766 7 194058929.151 7        43.600    36928185.691 7 194058944.157 7        47.100    36928182.879 7 194058930.086 7        42.800    36928183.809 7 151214764.700 7        44.600    36928187.648 8 144914145.817 8        49.500    36928177.840 7 157515333.720 7        46.200
R09  21591380.531 7 115296774.137 7        47.500    21591379.664 7 115296763.143 7        46.300    21591373.730 7  89675252.660 7        46.600
R19  20691076.539 7 110683319.801 7        43.500    20691074.652 7 110683312.805 7        42.000    20691067.660 7  86087032.792 7        45.600
G06  24410067.539 5 128275749.564 5        33.200    24410069.695 2  99955161.746 2        14.800    24410069.023 5  99955172.790 5        31.600    24410067.219 6  95790366.431 6        36.900
R16  22672869.609 6 121114378.537 6        39.200    22672868.898 6 121114367.550 6        38.100    22672861.895 6  94200040.823 6        36.600
G19  24363033.703 6 128028615.210 6        37.200    24363033.605 4  99762549.051 4        25.000
G11  21469836.953 7 112824745.010 7        46.700    21469835.930 6  87915377.443 6        37.400
R18  20696319.906 8 110478356.990 8        49.900    20696318.664 8 110478356.982 8        48.200    20696313.820 7  85927573.814 7        46.300
R03  20450650.555 8 109473974.684 8        48.500    20450649.738 7 109473970.726 7        46.300    20450644.660 7  85146425.463 7        47.500
R04  21340385.813 7 114276833.964 7        45.600    21340385.750 7 114276802.984 7        45.200    21340378.121 7  88881961.425 7        43.400
R02  23156907.625 5 123569697.390 5        34.800    23156907.387 5 123569694.431 5        33.700    23156905.609 5  96109798.686 5        34.800
C13  38379143.586 6 199850273.780 6        41.600    38379141.590 7 154536897.727 7        42.300    38379131.457 7 162394665.393 7        43.800
C07  37378699.328 6 194640689.095 6        41.700    37378689.484 7 150508481.018 7        43.700    37378680.816 7 158161418.442 7        44.500
C10  37147894.609 7 193438826.997 7        43.000    37147886.313 7 149579134.525 7        43.900    37147876.648 7 157184816.204 7        44.900
C08  36758694.633 7 191412167.986 7        45.100    36758683.793 7 148011988.312 7        46.100    36758675.578 7 155537985.095 7        46.900
C04  37426171.672 6 194887895.517 6        39.000    37426160.910 7 150699636.622 7        43.100    37426155.410 7 158362308.624 7        43.800
C03  37879146.781 6 197246647.753 6        36.500    37879137.125 7 152523583.202 7        43.600    37879131.133 7 160278998.109 7        43.900
C01  37085082.156 6 193111750.813 6        39.600    37085067.766 7 149326195.827 7        45.000    37085062.539 7 156919030.712 7        43.800
E24  23720185.836 7 124650405.012 7        46.600    23720195.953 7  93083125.610 7        47.400    23720193.902 7  95511376.005 7        47.000    23720195.633 8  94297252.412 8        50.800
E04  25971061.094 7 136478866.606 7        42.500    25971059.996 7 101916039.880 7        45.900    25971059.590 7 104574708.099 7        47.900    25971059.797 8 103245379.093 8        49.800
E25  24703741.930 7 129819043.556 7        47.100    24703741.324 8  96942786.137 8        49.100    24703740.523 8  99471722.901 8        48.700    24703741.152 8  98207257.126 8        52.100
E19  25679468.719 6 134946640.376 6        39.700    25679467.156 7 100771745.746 7        43.000    25679466.250 6 103400573.318 6        41.800    25679466.637 7 102086159.638 7        45.400
E12  22792758.641 7 119776753.546 7        47.000    22792754.262 8  89443655.288 8        49.200    22792753.684 8  91776968.722 8        48.900    22792753.957 8  90610314.610 8        52.700
E11  23057279.313 7 121166826.681 7        46.900    23057274.117 7  90481703.056 7        47.300    23057273.605 7  92842090.649 7        46.900    23057274.137 8  91661898.958 8        49.700
> 2018  8 30  2  3 40.0000000  0 32       0.000000000000
G08  24041147.203 5 126337057.638 5        35.400    24041150.266 2  98444461.795 2        17.400    24041152.023 6  98444462.862 6        37.200    24041149.863 6  94342603.365 6        41.900
G28  20782840.461 7 109214562.186 7        47.200    20782839.168 6  85102250.970 6        39.400
G18  22686066.398 6 119216075.452 6        40.600    22686067.836 4  92895638.208 4        24.800
G22  21170260.891 7 111250472.865 7        47.400    21170257.867 6  86688670.435 6        40.100
G01  21196315.336 7 111387384.044 7        47.500    21196317.211 6  86795370.146 6        39.800    21196316.824 8  86795371.157 8        48.400    21196315.219 8  83178889.489 8        53.500
G03  20418465.477 8 107299776.880 8        50.200    20418466.711 6  83610223.350 6        41.100    20418466.625 8  83610236.361 8        49.100    20418467.242 9  80126464.663 9        54.600
R10  23495579.789 7 125244663.229 7        43.700    23495578.324 7 125244651.239 7        42.900    23495576.977 6  97412505.257 6        36.700
G17  22510064.938 8 118291165.835 8        49.300    22510064.355 6  92174968.438 6        37.500    22510064.387 7  92175009.439 7        45.600
J01  36928196.422 7 194058987.139 7        43.700    36928196.773 7 194059002.139 7        46.800    36928194.246 7 194058988.051 7        43.600    36928195.148 7 151214809.878 7        44.600    36928198.586 8 144914189.119 8        49.500    36928188.820 7 157515380.775 7        46.400
R09  21591523.016 7 115297534.841 7        47.300    21591522.219 7 115297523.856 7        46.300    21591515.543 7  89675844.329 7        46.900
R19  20690828.773 7 110681995.614 7        43.700    20690827.496 7 110681988.625 7        42.000    20690821.320 7  86086002.871 7        45.700
G06  24409565.469 5 128273115.474 5        33.500    24409568.363 2  99953109.204 2        14.800    24409567.031 5  99953120.266 5        31.600    24409565.957 6  95788399.417 6        37.300
R16  22673574.984 6 121118150.400 6        39.400    22673574.836 6 121118139.419 6        38.300    22673569.930 6  94202974.476 6        37.300
G19  24362444.180 6 128025514.841 6        37.100    24362443.648 4  99760133.175 4        25.600
G11  21470210.391 7 112826707.726 7        47.100    21470208.836 6  87916906.826 6        37.700
R18  20696513.008 8 110479388.267 8        49.900    20696512.145 8 110479388.266 8        48.100    20696507.594 7  85928375.927 7        46.100
R03  20450629.273 8 109473860.101 8        48.700    20450628.246 7 109473856.129 7        46.300    20450623.605 7  85146336.330 7        47.300
R04  21339687.344 7 114273094.044 7        45.300    21339687.422 7 114273063.058 7        44.900    21339679.949 7  88879052.594 7        43.000
R02  23157505.891 5 123572890.133 5        35.300    23157505.344 5 123572887.136 5        34.000    23157504.207 5  96112281.932 5        34.900
C13  38379104.703 7 199850069.540 7        42.300    38379102.266 7 154536739.799 7        42.200    38379092.164 7 162394499.433 7        44.100
C07  37378999.648 6 194642250.419 6        41.600    37378989.172 7 150509688.336 7        43.700    37378980.527 7 158162687.144 7        44.500
C10  37148111.703 7 193439958.579 7        43.400    37148103.512 7 149580009.547 7        44.000    37148094.074 7 157185735.705 7        44.600
C08  36758687.891 7 191412130.485 7        44.900    36758676.750 7 148011959.312 7        46.200    36758668.738 7 155537954.621 7        47.300
C04  37426172.438 6 194887899.065 6        38.800    37426161.414 7 150699639.365 7        43.000    37426156.219 7 158362311.503 7        44.000
C03  37879148.789 6 197246656.435 6        36.800    37879139.145 7 152523589.913 7        43.800    37879133.027 7 160279005.164 7        44.100
C01  37085087.164 6 193111778.390 6        39.800    37085073.473 7 149326217.146 7        45.400    37085068.219 7 156919053.118 7        43.700
E24  23720685.109 7 124653028.956 7        46.600    23720695.305 7  93085085.038 7        47.600    23720693.387 7  95513386.554 7        47.000    23720694.961 8  94299237.403 8        50.800
E04  25970569.102 7 136476281.905 7        42.500    25970568.219 7 101914109.732 7        45.900    25970567.836 7 104572727.590 7        47.700    25970567.906 8 103243423.763 8        49.700
E25  24703837.109 7 129819543.852 7        47.200    24703836.480 8  96943159.742 8        49.200    24703835.758 8  99472106.251 8        48.900    24703836.336 8  98207635.598 8        52.400
E19  25679400.320 6 134946279.476 6        39.900    25679398.449 7 100771476.253 7        43.400    25679397.605 7 103400296.795 7        42.000    25679397.953 7 102085886.632 7        45.900
E12  22792927.875 7 119777642.053 7        47.100    22792923.234 8  89444318.790 8        49.000    22792922.918 8  91777649.537 8        48.800    22792923.055 8  90610986.762 8        52.500
E11  23057101.656 7 121165891.872 7        46.600    23057096.191 7  90481004.981 7        47.200    23057095.754 7  92841374.354 7        46.900    23057096.270 8  91661191.776 8        49.700
> 2018  8 30  2  3 41.0000000  0 32       0.000000000000
G08  24041663.766 5 126339773.206 5        35.900    24041667.215 2  98446577.819 2        17.400    24041668.344 6  98446578.835 6        37.100    24041666.805 7  94344631.200 7        42.200
G28  20782842.570 7 109214572.575 7        47.300    20782840.836 6  85102259.070 6        39.700
G18  22686609.320 6 119218923.334 6        40.600    22686609.789 4  92897857.321 4        24.400
G22  21170465.063 7 111251546.414 7        47.600    21170461.926 6  86689506.970 6        40.500
G01  21196680.914 7 111389304.352 7        47.900    21196682.777 6  86796866.491 6        39.800    21196682.414 8  86796867.508 8        48.600    21196680.648 8  83180323.494 8        53.900
G03  20418321.359 8 107299019.175 8        50.100    20418322.035 6  83609632.931 6        40.900    20418322.621 8  83609645.948 8        49.400    20418323.094 9  80125898.852 9        54.600
R10  23495137.602 7 125242304.326 7        43.900    23495135.434 7 125242292.330 7        43.200    23495135.133 6  97410670.547 6        36.400
G17  22509615.336 8 118288800.790 8        49.300    22509614.031 6  92173125.543 6        37.700    22509614.594 7  92173166.555 7        45.700
J01  36928207.719 7 194059045.281 7        43.900    36928207.773 7 194059060.288 7        47.000    36928205.590 7 194059046.205 7        43.300    36928205.660 7 151214855.188 7        44.400    36928209.668 8 144914232.536 8        49.300    36928200.047 7 157515427.976 7        46.700
R09  21591664.953 7 115298296.486 7        47.000    21591664.672 7 115298285.494 7        46.200    21591658.664 7  89676436.705 7        46.900
R19  20690581.461 7 110680671.662 7        43.800    20690579.621 6 110680664.666 6        41.900    20690573.523 7  86084973.128 7        45.400
G06  24409065.430 5 128270481.603 5        33.200    24409067.223 2  99951056.900 2        14.800    24409066.020 5  99951067.918 5        31.400    24409064.723 6  95786432.531 6        36.700
R16  22674281.133 6 121121922.534 6        39.900    22674281.219 6 121121911.531 6        38.800    22674274.434 6  94205908.357 6        37.200
G19  24361854.141 6 128022414.490 6        36.900    24361853.199 4  99757717.307 4        24.500
G11  21470583.789 7 112828670.739 7        47.000    21470583.176 6  87918436.444 6        37.300
R18  20696706.305 8 110480419.808 8        50.100    20696705.207 8 110480419.815 8        48.200    20696700.566 7  85929178.242 7        46.000
R03  20450608.148 8 109473746.492 8        48.200    20450607.145 7 109473742.513 7        46.000    20450601.637 7  85146247.972 7        47.400
R04  21338988.375 7 114269354.621 7        45.700    21338988.805 7 114269323.635 7        45.300    21338980.758 7  88876144.159 7        42.600
R02  23158105.125 5 123576083.543 5        34.800    23158103.711 5 123576080.593 5        33.700    23158101.160 5  96114765.685 5        35.000
C13  38379064.680 7 199849865.344 7        42.200    38379063.059 7 154536581.899 7        42.200    38379053.004 7 162394333.507 7        44.100
C07  37379298.914 6 194643811.933 6        41.100    37379289.352 7 150510895.793 7        44.000    37379280.598 7 158163955.999 7        44.400
C10  37148328.742 7 193441090.377 7        43.300    37148320.855 7 149580884.730 7        43.800    37148311.551 7 157186655.389 7        45.000
C08  36758680.430 7 191412093.011 7        45.000    36758669.203 7 148011930.336 7        46.200    36758661.051 7 155537924.175 7        47.400
C04  37426172.922 6 194887902.685 6        39.000    37426162.113 7 150699642.166 7        43.300    37426156.832 7 158362314.447 7        44.000
C03  37879150.406 6 197246665.147 6        36.700    37879140.469 7 152523596.648 7        44.300    37879134.461 7 160279012.239 7        44.300
C01  37085092.211 6 193111806.062 6        39.700    37085078.512 7 149326238.549 7        45.500    37085073.340 7 156919075.607 7        43.700
E24  23721184.414 7 124655653.179 7        46.400    23721194.727 7  93087044.693 7        47.600    23721192.707 7  95515397.327 7        47.100    23721194.344 8  94301222.611 8        51.200
E04  25970077.211 6 136473697.400 6        41.900    25970076.469 7 101912179.766 7        45.600    25970075.969 7 104570747.265 7        47.200    25970076.094 8 103241468.619 8        49.600
E25  24703932.500 7 129820044.697 7        47.500    24703931.738 8  96943533.764 8        49.400    24703930.980 8  99472490.021 8        48.600    24703931.637 8  98208014.492 8        52.600
E19  25679331.750 6 134945919.138 6        40.300    25679329.824 7 100771207.148 7        43.400    25679329.113 7 103400020.670 7        42.100    25679329.352 7 102085614.012 7        46.200
E12  22793096.836 7 119778530.715 7        46.800    22793092.383 8  89444982.405 8        49.100    22793091.832 8  91778330.455 8        48.900    22793092.137 8  90611659.040 8        52.400
E11  23056923.633 7 121164957.193 7        46.500    23056918.344 7  90480307.008 7        47.200    23056917.758 7  92840658.177 7        46.800    23056918.418 8  91660484.697 8        49.700
> 2018  8 30  2  3 42.0000000  0 32       0.000000000000
G08  24042180.688 6 126342488.876 6        36.300    24042183.852 2  98448693.926 2        17.400    24042184.992 6  98448694.964 6        36.800    24042183.660 7  94346659.149 7        42.100
G28  20782844.648 7 109214583.547 7        47.100    20782843.320 6  85102267.617 6        39.400
G18  22687151.844 6 119221771.268 6        40.700    22687151.902 4  92900076.495 4        26.000
G22  21170669.477 7 111252620.500 7        47.300    21170666.129 6  86690343.917 6        40.400
G01  21197046.250 8 111391224.854 8        48.000    21197048.168 6  86798362.993 6        39.700    21197047.887 8  86798363.995 8        48.600    21197046.156 8  83181757.631 8        53.900
G03  20418177.195 8 107298262.112 8        50.200    20418177.980 6  83609043.010 6        41.200    20418178.586 8  83609056.007 8        49.300    20418179.004 9  80125333.501 9        54.500
R10  23494694.523 7 125239946.061 7        43.900    23494693.059 7 125239934.067 7        42.500    23494692.625 6  97408836.357 6        36.800
G17  22509165.195 8 118286435.788 8        49.600    22509164.277 6  92171282.689 6        37.900    22509164.145 7  92171323.698 7        45.400
J01  36928218.844 7 194059103.484 7        43.200    36928219.090 7 194059118.488 7        47.000    36928216.754 7 194059104.405 7        43.200    36928216.750 7 151214900.525 7        44.900    36928220.797 8 144914276.001 8        49.200    36928210.965 7 157515475.212 7        46.200
R09  21591808.023 7 115299058.893 7        47.400    21591807.461 7 115299047.886 7        46.100    21591801.055 7  89677029.689 7        46.300
R19  20690333.281 7 110679347.814 7        43.700    20690332.426 6 110679340.825 6        41.800    20690325.879 7  86083943.465 7        45.400
G06  24408563.914 5 128267847.839 5        32.800    24408566.094 2  99949004.595 2        13.900    24408564.664 5  99949015.613 5        32.400    24408563.863 6  95784465.783 6        37.000
R16  22674987.414 6 121125694.769 6        39.900    22674987.688 6 121125683.802 6        38.500    22674979.840 6  94208842.329 6        37.500
G19  24361264.125 6 128019314.129 6        36.900    24361263.422 4  99755301.446 4        24.700
G11  21470957.820 7 112830633.963 7        46.600    21470956.305 6  87919966.228 6        37.300
R18  20696899.063 8 110481451.520 8        50.300    20696898.504 8 110481451.521 8        48.100    20696894.109 7  85929980.681 7        45.700
R03  20450587.047 7 109473633.730 7        47.900    20450586.254 7 109473629.758 7        46.400    20450581.531 7  85146160.275 7        47.600
R04  21338290.242 7 114265615.599 7        45.900    21338290.695 7 114265584.605 7        45.200    21338283.125 7  88873236.028 7        43.200
R02  23158702.813 5 123579277.500 5        35.200    23158702.125 5 123579274.540 5        33.900    23158701.008 5  96117249.875 5        35.100
C13  38379026.453 6 199849661.137 6        41.800    38379023.934 7 154536424.001 7        42.400    38379013.832 7 162394167.568 7        44.200
C07  37379599.039 6 194645373.511 6        41.100    37379589.094 7 150512103.309 7        43.900    37379580.438 7 158165224.915 7        44.600
C10  37148546.367 7 193442222.292 7        43.400    37148538.301 7 149581759.996 7        44.100    37148528.754 7 157187575.164 7        45.100
C08  36758673.094 7 191412055.478 7        44.900    36758662.109 7 148011901.315 7        46.100    36758654.074 7 155537893.678 7        47.400
C04  37426173.914 6 194887906.248 6        39.000    37426162.691 7 150699644.918 7        43.300    37426157.270 7 158362317.340 7        44.200
C03  37879152.086 6 197246673.840 6        36.600    37879142.246 7 152523603.370 7        44.400    37879136.285 7 160279019.306 7        44.000
C01  37085098.188 6 193111833.680 6        39.700    37085083.617 7 149326259.904 7        44.900    37085078.629 7 156919098.043 7        43.500
E24  23721683.625 7 124658277.569 7        46.100    23721694.098 7  93089004.451 7        47.300    23721692.121 7  95517408.215 7        47.200    23721693.758 8  94303207.941 8        51.200
E04  25969585.383 7 136471113.039 7        42.000    25969584.461 7 101910249.866 7        45.300    25969584.258 7 104568767.044 7        47.300    25969584.316 8 103239513.562 8        49.300
E25  24704027.836 7 129820545.987 7        47.300    24704027.195 8  96943908.090 8        49.000    24704026.434 8  99472874.122 8        49.000    24704027.047 8  98208393.715 8        52.700
E19  25679263.211 6 134945559.170 6        40.200    25679261.145 7 100770938.360 7        43.700    25679260.586 6 103399744.875 6        41.600    25679260.832 7 102085341.726 7        46.400
E12  22793265.977 7 119779419.415 7        46.900    22793261.516 8  89445646.047 8        49.300    22793260.996 8  91779011.399 8        49.000    22793261.266 8  90612331.331 8        52.400
E11  23056745.695 7 121164022.551 7        46.500    23056740.504 7  90479609.066 7        47.000    23056739.980 7  92839942.018 7        46.900    23056740.551 8  91659777.650 8        49.700
> 2018  8 30  2  3 43.0000000  0 32       0.000000000000
G08  24042698.164 5 126345204.875 5        35.800    24042700.730 2  98450810.253 2        17.800    24042701.379 6  98450811.324 6        36.400    24042700.613 7  94348687.338 7        42.400
G28  20782846.992 7 109214595.206 7        47.200    20782845.406 6  85102276.704 6        39.600
G18  22687693.602 6 119224619.367 6        41.400    22687693.816 4  92902295.796 4        25.800
G22  21170873.742 7 111253695.229 7        47.200    21170871.086 6  86691181.366 6        40.600
G01  21197411.359 7 111393145.649 7        47.700    21197413.664 6  86799859.706 6        40.300    21197413.473 8  86799860.717 8        48.400    21197411.664 8  83183191.988 8        53.700
G03  20418033.219 8 107297505.773 8        50.300    20418034.352 6  83608453.652 6        41.300    20418034.742 8  83608466.656 8        49.200    20418035.125 9  80124768.703 9        54.700
R10  23494252.000 7 125237588.580 7        44.100    23494250.816 7 125237576.589 7        42.300    23494251.125 6  97407002.757 6        36.400
G17  22508715.000 8 118284070.949 8        49.700    22508714.266 6  92169439.957 6        37.800    22508714.668 7  92169480.968 7        45.400
J01  36928229.734 7 194059161.865 7        43.600    36928230.074 7 194059176.866 7        47.000    36928227.941 7 194059162.788 7        43.400    36928228.113 7 151214946.023 7        44.600    36928231.832 8 144914319.598 8        49.100    36928222.305 7 157515522.607 7        46.500
R09  21591950.836 7 115299822.223 7        47.900    21591950.484 7 115299811.230 7        45.900    21591944.352 7  89677623.392 7        46.200
R19  20690085.391 7 110678024.220 7        43.700    20690085.195 6 110678017.254 6        41.600    20690078.324 7  86082914.023 7        45.500
G06  24408062.984 5 128265214.280 5        32.300    24408065.320 2  99946952.437 2        14.800    24408063.965 5  99946963.527 5        32.600    24408062.859 6  95782499.160 6        37.400
R16  22675693.742 6 121129467.319 6        39.500    22675693.594 6 121129456.322 6        38.600    22675686.109 6  94211776.510 6        38.100
G19  24360674.234 6 128016213.834 6        37.400    24360673.445 4  99752885.638 4        24.100
G11  21471331.102 7 112832597.531 7        46.700    21471330.148 6  87921496.282 6        37.200
R18  20697093.219 8 110482483.547 8        50.200    20697091.906 8 110482483.554 8        48.400    20697086.777 7  85930783.370 7        45.600
R03  20450565.359 7 109473521.962 7        47.900    20450565.461 7 109473517.982 7        46.400    20450560.223 7  85146073.319 7        47.600
R04  21337592.422 7 114261877.092 7        45.900    21337592.336 7 114261846.106 7        45.200    21337585.090 7  88870328.309 7        43.400
R02  23159301.766 5 123582472.113 5        34.800    23159300.539 5 123582469.131 5        33.600    23159299.906 5  96119734.574 5        35.600
C13  38378986.484 7 199849456.976 7        42.000    38378984.707 7 154536266.128 7        42.900    38378974.582 7 162394001.671 7        44.300
C07  37379898.531 6 194646935.311 6        41.000    37379889.254 7 150513310.988 7        43.800    37379880.480 7 158166494.001 7        44.600
C10  37148763.664 7 193443354.484 7        43.700    37148755.676 7 149582635.475 7        43.800    37148746.230 7 157188495.155 7        44.800
C08  36758665.906 7 191412017.982 7        44.600    36758655.016 7 148011872.320 7        46.400    36758646.961 7 155537863.212 7        47.300
C04  37426174.930 6 194887909.942 6        38.900    37426163.645 7 150699647.775 7        43.600    37426158.238 7 158362320.342 7        44.100
C03  37879153.953 6 197246682.637 6        36.600    37879144.109 7 152523610.171 7        44.200    37879138.125 7 160279026.458 7        44.000
C01  37085103.391 6 193111861.381 6        39.800    37085089.121 7 149326281.321 7        45.000    37085084.199 7 156919120.555 7        44.000
E24  23722183.102 7 124660902.247 7        46.000    23722193.551 7  93090964.442 7        47.500    23722191.684 7  95519419.332 7        47.000    23722193.180 8  94305193.494 8        50.600
E04  25969093.563 6 136468528.924 6        41.900    25969092.969 7 101908320.174 7        45.700    25969092.492 7 104566787.020 7        47.400    25969092.672 8 103237558.701 8        49.600
E25  24704123.328 7 129821047.856 7        47.000    24704122.770 8  96944282.869 8        48.900    24704121.738 8  99473258.665 8        49.100    24704122.527 8  98208773.376 8        52.700
E19  25679194.836 6 134945199.785 6        40.200    25679192.750 7 100770669.974 7        43.400    25679192.004 7 103399469.501 7        42.000    25679192.426 7 102085069.843 7        46.600
E12  22793435.227 7 119780308.276 7        46.800    22793430.715 8  89446309.805 8        49.100    22793430.051 8  91779692.487 8        48.900    22793430.438 8  90613003.746 8        52.500
E11  23056567.859 7 121163088.097 7        46.100    23056562.660 7  90478911.255 7        47.100    23056562.027 7  92839226.005 7        46.800    23056562.727 8  91659070.741 8        49.600
> 2018  8 30  2  3 44.0000000  0 32       0.000000000000
G08  24043214.805 5 126347920.887 5        35.600    24043217.141 2  98452926.643 2        17.400    24043218.301 5  98452927.699 5        35.500    24043217.617 7  94350715.507 7        42.000
G28  20782848.758 7 109214607.283 7        47.500    20782847.684 6  85102286.115 6        39.700
G18  22688235.406 6 119227467.349 6        41.300    22688235.559 4  92904515.006 4        25.900
G22  21171078.523 7 111254770.319 7        47.300    21171075.371 6  86692019.109 6        40.900
G01  21197777.164 7 111395066.439 7        47.800    21197779.391 6  86801356.424 6        40.000    21197778.781 8  86801357.435 8        48.600    21197777.223 8  83184626.337 8        53.800
G03  20417889.383 8 107296749.899 8        50.300    20417890.590 6  83607864.663 6        41.200    20417890.980 8  83607877.673 8        48.800    20417891.316 9  80124204.256 9        54.700
R10  23493810.234 7 125235231.589 7        44.500    23493808.887 7 125235219.594 7        42.500    23493809.027 6  97405169.542 6        36.900
G17  22508264.961 8 118281705.974 8        49.300    22508264.059 6  92167597.123 6        37.800    22508264.332 7  92167638.146 7        45.300
J01  36928240.797 7 194059220.137 7        43.700    36928241.152 7 194059235.146 7        47.000    36928237.703 7 194059221.063 7        43.100    36928239.430 7 151214991.429 7        45.100    36928242.953 8 144914363.110 8        49.100    36928233.098 7 157515569.898 7        46.200
R09  21592093.820 8 115300586.153 8        48.100    21592093.492 7 115300575.166 7        46.000    21592086.688 7  89678217.561 7        45.500
R19  20689838.117 7 110676700.604 7        43.300    20689837.449 6 110676693.623 6        41.800    20689831.457 7  86081884.522 7        45.200
G06  24407561.141 5 128262580.712 5        32.200    24407563.742 2  99944900.318 2        13.900    24407562.836 5  99944911.371 5        32.600    24407561.781 6  95780532.525 6        37.600
R16  22676400.680 6 121133239.857 6        39.400    22676399.828 6 121133228.856 6        38.800    22676393.625 6  94214710.716 6        37.400
G19  24360084.266 6 128013113.326 6        37.800    24360083.086 3  99750469.663 3        23.900
G11  21471704.805 7 112834561.125 7        46.900    21471703.293 6  87923026.357 6        37.200
R18  20697286.070 8 110483515.582 8        50.300    20697285.371 8 110483515.581 8        48.000    20697280.348 7  85931586.061 7        45.800
R03  20450544.828 7 109473410.855 7        47.800    20450544.836 7 109473406.898 7        46.200    20450539.234 7  85145986.917 7        47.800
R04  21336893.297 7 114258138.809 7        45.600    21336894.266 7 114258107.823 7        45.400    21336886.934 7  88867420.757 7        43.400
R02  23159900.875 5 123585667.017 5        34.900    23159899.625 5 123585664.068 5        34.200    23159898.766 6  96122219.496 6        36.000
C13  38378948.039 6 199849252.609 6        41.700    38378945.465 7 154536108.095 7        42.700    38378935.539 7 162393835.609 7        44.100
C07  37380198.828 6 194648496.984 6        41.300    37380188.816 7 150514518.572 7        44.100    37380180.242 7 158167762.988 7        44.800
C10  37148980.883 7 193444486.630 7        43.100    37148973.023 7 149583510.918 7        44.300    37148963.578 7 157189415.118 7        44.700
C08  36758658.820 7 191411980.255 7        45.000    36758647.313 7 148011843.143 7        46.300    36758639.359 7 155537832.551 7        47.200
C04  37426175.320 6 194887913.410 6        39.000    37426164.152 7 150699650.459 7        43.300    37426158.926 7 158362323.161 7        44.200
C03  37879155.578 6 197246691.208 6        36.700    37879145.574 7 152523616.798 7        43.900    37879139.574 7 160279033.415 7        43.700
C01  37085108.258 6 193111888.876 6        39.900    37085094.250 7 149326302.581 7        45.000    37085089.289 7 156919142.898 7        44.400
E24  23722682.641 7 124663526.928 7        46.300    23722692.867 7  93092924.445 7        47.200    23722691.184 7  95521430.451 7        46.800    23722692.633 8  94307179.053 8        50.400
E04  25968601.688 7 136465944.762 7        42.300    25968601.324 7 101906390.438 7        45.500    25968600.766 7 104564806.941 7        47.600    25968600.934 8 103235603.793 8        49.500
E25  24704219.008 7 129821549.992 7        46.800    24704218.285 8  96944657.835 8        48.800    24704217.418 8  99473643.426 8        49.000    24704218.090 8  98209153.233 8        52.300
E19  25679126.820 6 134944840.648 6        40.700    25679124.457 7 100770401.789 7        43.000    25679123.613 6 103399194.297 6        41.900    25679124.105 7 102084798.150 7        46.000
E12  22793604.500 7 119781196.997 7        46.800    22793599.793 8  89446973.464 8        48.600    22793599.273 8  91780373.465 8        48.700    22793599.563 8  90613676.069 8        52.200
E11  23056390.063 7 121162153.503 7        46.200    23056384.734 7  90478213.351 7        47.100    23056384.219 7  92838509.895 7        46.800    23056384.859 8  91658363.727 8        49.600
> 2018  8 30  2  3 45.0000000  0 32       0.000000000000
G08  24043731.586 5 126350637.178 5        35.400    24043734.359 2  98455043.236 2        16.900    24043735.430 5  98455044.273 5        35.100    24043734.531 7  94352743.919 7        42.100
G28  20782851.133 7 109214620.061 7        47.000    20782849.508 6  85102296.067 6        39.800
G18  22688777.180 6 119230315.505 6        41.400    22688777.535 3  92906734.349 3        23.600
G22  21171282.891 7 111255846.047 7        47.500    21171280.266 6  86692857.336 6        40.200
G01  21198142.469 7 111396987.533 7        47.800    21198144.512 6  86802853.378 6        39.600    21198144.391 8  86802854.397 8        48.800    21198142.805 8  83186060.923 8        53.700
G03  20417745.555 8 107295994.761 8        50.100    20417746.707 6  83607276.246 6        40.800    20417747.168 8  83607289.249 8        49.000    20417747.672 9  80123640.352 9        54.900
R10  23493368.891 7 125232875.389 7        44.300    23493366.934 7 125232863.395 7        42.700    23493366.422 6  97403336.949 6        36.300
G17  22507814.953 8 118279341.190 8        49.200    22507814.355 6  92165754.445 6        37.500    22507814.398 7  92165795.445 7        45.100
J01  36928252.219 7 194059278.595 7        43.900    36928252.285 7 194059293.593 7        47.000    36928249.566 7 194059279.515 7        42.900    36928250.250 7 151215036.989 7        44.700    36928254.219 8 144914406.760 8        49.200    36928244.152 7 157515617.347 7        46.000
R09  21592236.758 8 115301351.006 8        48.000    21592237.020 7 115301340.007 7        45.700    21592231.066 7  89678812.452 7        45.600
R19  20689591.367 7 110675377.192 7        43.500    20689589.832 6 110675370.218 6        41.800    20689583.016 7  86080855.217 7        45.300
G06  24407060.117 5 128259947.379 5        32.500    24407062.832 2  99942848.309 2        13.900    24407062.168 5  99942859.403 5        32.700    24407060.605 6  95778566.045 6        38.000
R16  22677106.305 6 121137012.696 6        39.600    22677105.805 6 121137001.689 6        38.800    22677099.184 6  94217645.138 6        37.400
G19  24359494.898 6 128010012.895 6        37.900    24359493.219 4  99748053.741 4        24.000
G11  21472078.141 7 112836525.066 7        46.900    21472077.590 6  87924556.704 6        37.000
R18  20697479.727 8 110484547.871 8        50.200    20697478.816 8 110484547.879 8        48.100    20697473.695 7  85932388.962 7        45.900
R03  20450524.117 7 109473300.758 7        47.400    20450524.266 7 109473296.779 7        46.000    20450518.063 7  85145901.284 7        47.800
R04  21336196.234 7 114254401.030 7        45.500    21336196.008 7 114254370.036 7        45.400    21336188.828 7  88864513.594 7        43.600
R02  23160499.391 5 123588862.538 5        35.800    23160498.375 5 123588859.554 5        34.700    23160496.891 5  96124704.865 5        35.900
C13  38378908.531 6 199849048.292 6        41.300    38378906.281 7 154535950.104 7        42.800    38378896.445 7 162393669.583 7        44.300
C07  37380498.617 6 194650058.871 6        41.000    37380489.176 7 150515726.323 7        44.100    37380480.180 7 158169032.150 7        44.800
C10  37149198.305 7 193445619.000 7        43.400    37149190.621 7 149584386.540 7        44.300    37149181.219 7 157190335.261 7        44.700
C08  36758651.242 7 191411942.591 7        44.700    36758640.074 7 148011814.019 7        46.400    36758632.250 7 155537801.945 7        47.000
C04  37426176.000 6 194887917.003 6        39.000    37426164.777 7 150699653.238 7        42.800    37426159.633 7 158362326.078 7        44.100
C03  37879156.984 6 197246699.904 6        36.900    37879147.258 7 152523623.519 7        44.100    37879141.238 7 160279040.482 7        43.600
C01  37085113.430 6 193111916.490 6        40.100    37085099.746 7 149326323.933 7        45.200    37085094.652 7 156919165.335 7        44.300
E24  23723181.781 7 124666151.923 7        46.300    23723192.359 7  93094884.655 7        47.600    23723190.766 7  95523441.815 7        46.800    23723192.133 8  94309164.838 8        50.500
E04  25968110.125 6 136463360.833 6        41.700    25968109.773 7 101904460.896 7        45.300    25968109.039 7 104562827.050 7        47.600    25968109.195 8 103233649.080 8        49.600
E25  24704314.711 7 129822052.697 7        47.000    24704313.957 8  96945033.243 8        49.000    24704313.137 8  99474028.618 8        49.200    24704313.750 8  98209533.539 8        52.200
E19  25679058.789 6 134944482.063 6        40.200    25679056.180 7 100770134.027 7        43.300    25679055.484 6 103398919.549 6        41.900    25679055.879 7 102084526.898 7        46.200
E12  22793773.625 7 119782085.897 7        47.000    22793768.988 8  89447637.253 8        48.900    22793768.461 8  91781054.572 8        49.100    22793768.680 8  90614348.514 8        52.100
E11  23056212.086 7 121161219.070 7        46.100    23056206.910 7  90477515.560 7        47.100    23056206.395 7  92837793.902 7        47.000    23056207.047 8  91657656.833 8        49.600
> 2018  8 30  2  3 46.0000000  0 32       0.000000000000
G08  24044249.156 5 126353353.708 5        35.500    24044251.262 2  98457160.028 2        17.400    24044251.777 5  98457161.044 5        34.600    24044251.691 7  94354772.460 7        42.300
G28  20782853.719 7 109214633.473 7        47.100    20782852.555 6  85102306.518 6        39.700
G18  22689318.656 6 119233163.775 6        41.700    22689319.691 4  92908953.777 4        25.700
G22  21171487.789 7 111256922.365 7        47.300    21171484.453 6  86693696.029 6        40.200
G01  21198508.547 7 111398908.830 7        47.700    21198510.473 6  86804350.495 6        39.800    21198509.793 8  86804351.521 8        48.400    21198508.391 8  83187495.668 8        53.700
G03  20417602.102 8 107295240.308 8        50.000    20417603.156 6  83606688.362 6        40.600    20417603.641 8  83606701.366 8        48.900    20417604.117 9  80123076.964 9        54.600
R10  23492926.953 7 125230519.899 7        44.300    23492925.137 7 125230507.900 7        42.600    23492924.625 6  97401504.895 6        36.700
G17  22507365.125 8 118276976.496 8        49.900    22507364.418 6  92163911.818 6        37.500    22507364.336 7  92163952.839 7        44.900
J01  36928262.969 7 194059337.163 7        44.400    36928263.602 7 194059352.163 7        47.200    36928260.883 7 194059338.087 7        43.500    36928261.227 7 151215082.619 7        44.700    36928265.313 8 144914450.505 8        49.100    36928255.281 7 157515664.884 7        45.900
R09  21592380.391 7 115302116.698 7        47.800    21592379.992 7 115302105.705 7        46.100    21592374.535 7  89679407.977 7        45.600
R19  20689343.414 7 110674053.962 7        43.500    20689342.488 7 110674046.980 7        42.100    20689335.551 7  86079826.046 7        45.300
G06  24406559.188 5 128257314.172 5        32.600    24406561.727 2  99940796.516 2        12.600    24406561.328 5  99940807.561 5        31.900    24406559.660 6  95776599.723 6        38.400
R16  22677813.766 6 121140785.731 6        40.000    22677812.352 6 121140774.734 6        38.100    22677805.855 6  94220579.708 6        37.900
G19  24358904.773 6 128006912.482 6        38.300    24358903.109 4  99745637.855 4        24.100
G11  21472452.055 7 112838489.263 7        46.800    21472451.160 6  87926087.237 6        36.900
R18  20697672.461 8 110485580.388 8        49.900    20697672.043 8 110485580.380 8        48.100    20697666.980 7  85933192.011 7        46.100
R03  20450504.180 7 109473191.588 7        47.300    20450504.281 7 109473187.609 7        46.000    20450498.074 7  85145816.373 7        47.700
R04  21335497.930 7 114250663.670 7        45.600    21335498.688 7 114250632.690 7        45.600    21335491.227 7  88861606.767 7        43.500
R02  23161098.398 6 123592058.538 6        36.000    23161097.477 5 123592055.571 5        34.700    23161097.277 6  96127190.634 6        36.000
C13  38378869.016 6 199848844.025 6        41.300    38378866.848 7 154535792.153 7        42.700    38378857.020 7 162393503.601 7        44.100
C07  37380798.547 6 194651620.923 6        41.300    37380789.059 7 150516934.198 7        43.900    37380779.992 7 158170301.443 7        44.800
C10  37149415.945 7 193446751.568 7        42.900    37149408.152 7 149585262.313 7        44.500    37149398.914 7 157191255.565 7        44.700
C08  36758644.094 7 191411904.904 7        44.700    36758633.266 7 148011784.880 7        46.400    36758625.199 7 155537771.324 7        46.800
C04  37426176.367 6 194887920.586 6        39.100    37426165.363 7 150699656.012 7        42.900    37426160.398 7 158362328.994 7        44.200
C03  37879158.695 6 197246708.609 6        36.900    37879148.598 7 152523630.253 7        44.000    37879142.785 7 160279047.559 7        43.800
C01  37085119.133 6 193111944.116 6        39.900    37085105.086 7 149326345.296 7        45.700    37085100.078 7 156919187.785 7        44.100
E24  23723681.781 7 124668777.135 7        46.300    23723691.910 7  93096845.045 7        47.800    23723690.414 7  95525453.332 7        47.000    23723691.703 8  94311150.789 8        50.600
E04  25967618.688 6 136460777.123 6        41.700    25967618.109 7 101902531.502 7        45.500    25967617.410 7 104560847.317 7        47.300    25967617.527 8 103231694.512 8        50.200
E25  24704410.430 7 129822555.917 7        47.200    24704409.719 8  96945409.014 8        49.000    24704408.930 8  99474414.200 8        49.300    24704409.531 8  98209914.210 8        52.400
E19  25678990.391 6 134944123.944 6        40.000    25678988.078 7 100769866.596 7        43.200    25678987.270 7 103398645.156 7        42.100    25678987.723 7 102084255.982 7        46.300
E12  22793942.867 7 119782974.901 7        47.000    22793938.141 8  89448301.111 8        48.600    22793937.656 8  91781735.746 8        49.400    22793937.875 8  90615021.035 8        52.200
E11  23056034.320 7 121160284.759 7        46.200    23056029.105 7  90476817.853 7        47.100    23056028.645 7  92837077.992 7        46.900    23056029.262 8  91656950.029 8        49.800
> 2018  8 30  2  3 47.0000000  0 32       0.000000000000
G08  24044766.555 5 126356070.430 5        35.200    24044768.469 2  98459276.935 2        15.600    24044768.422 5  98459277.988 5        34.000    24044768.852 7  94356801.227 7        42.400
G28  20782856.750 7 109214647.532 7        47.200    20782855.539 6  85102317.474 6        39.500
G18  22689860.508 6 119236012.161 6        41.300    22689862.211 4  92911173.301 4        25.700
G22  21171692.820 7 111257999.263 7        47.200    21171689.547 6  86694535.168 6        40.300
G01  21198874.156 7 111400830.385 7        47.800    21198875.980 6  86805847.811 6        40.100    21198875.828 8  86805848.830 8        48.600    21198874.109 8  83188930.598 8        53.300
G03  20417458.586 8 107294486.534 8        50.400    20417459.535 6  83606101.001 6        40.800    20417460.270 8  83606114.004 8        48.800    20417460.629 9  80122514.081 9        54.800
R10  23492484.648 7 125228165.146 7        43.900    23492483.066 7 125228153.155 7        42.600    23492481.836 6  97399673.417 6        36.800
G17  22506914.977 8 118274611.911 8        50.000    22506914.406 6  92162069.286 6        37.700    22506913.934 7  92162110.301 7        44.900
J01  36928274.094 7 194059395.848 7        43.900    36928274.691 7 194059410.849 7        47.200    36928271.574 7 194059396.770 7        43.200    36928272.594 7 151215128.349 7        44.500    36928276.379 8 144914494.330 8        49.000    36928266.629 7 157515712.522 7        46.000
R09  21592523.594 7 115302883.253 7        47.300    21592523.547 7 115302872.266 7        46.000    21592518.098 7  89680004.199 7        45.300
R19  20689095.992 7 110672730.879 7        43.700    20689094.996 7 110672723.898 7        42.400    20689088.652 7  86078796.977 7        45.400
G06  24406058.234 5 128254681.185 5        33.200    24406060.598 2  99938744.854 2        14.800    24406060.324 5  99938755.832 5        32.600    24406058.707 6  95774633.509 6        38.600
R16  22678519.375 6 121144558.995 6        40.000    22678518.805 6 121144547.987 6        38.300    22678511.746 6  94223514.468 6        37.800
G19  24358315.086 6 128003812.092 6        38.300    24358313.199 4  99743221.956 4        24.300
G11  21472826.281 7 112840453.742 7        46.700    21472824.988 6  87927617.999 6        37.100
R18  20697866.234 8 110486613.126 8        49.900    20697865.371 8 110486613.141 8        48.000    20697860.770 7  85933995.282 7        46.000
R03  20450484.820 7 109473083.364 7        47.600    20450484.355 7 109473079.377 7        46.300    20450478.477 8  85145732.191 8        48.200
R04  21334800.352 7 114246926.776 7        45.800    21334800.992 7 114246895.798 7        45.100    21334791.789 7  88858700.285 7        43.600
R02  23161697.531 6 123595255.073 6        36.900    23161696.586 5 123595252.091 5        35.300    23161695.980 5  96129676.858 5        35.200
C13  38378829.695 6 199848639.760 6        41.700    38378827.840 7 154535634.210 7        42.400    38378818.008 7 162393337.627 7        44.000
C07  37381098.414 6 194653183.094 6        41.100    37381089.027 7 150518142.163 7        43.900    37381080.109 7 158171570.838 7        44.700
C10  37149633.039 7 193447884.325 7        43.000    37149625.445 7 149586138.234 7        44.200    37149616.105 7 157192176.026 7        44.700
C08  36758636.914 7 191411867.242 7        44.600    36758625.988 7 148011755.759 7        46.600    36758617.746 7 155537740.721 7        47.000
C04  37426176.906 6 194887924.221 6        39.000    37426165.879 7 150699658.830 7        43.100    37426160.883 7 158362331.946 7        44.300
C03  37879160.828 6 197246717.360 6        37.000    37879150.379 7 152523637.017 7        43.900    37879144.387 7 160279054.665 7        43.600
C01  37085124.938 6 193111971.785 6        40.000    37085110.465 7 149326366.688 7        46.000    37085105.391 7 156919210.265 7        43.900
E24  23724181.516 7 124671402.581 7        46.100    23724191.520 7  93098805.604 7        47.500    23724189.938 7  95527465.041 7        47.000    23724191.336 8  94313136.929 8        50.900
E04  25967126.875 6 136458193.576 6        41.900    25967126.270 7 101900602.229 7        45.500    25967125.855 7 104558867.725 7        47.300    25967125.887 8 103229740.079 8        50.100
E25  24704506.234 7 129823059.639 7        47.000    24704505.523 8  96945785.172 8        49.000    24704504.816 8  99474800.161 8        49.100    24704505.367 8  98210295.273 8        52.300
E19  25678922.313 6 134943766.325 6        39.900    25678919.953 7 100769599.534 7        42.800    25678919.254 7 103398371.129 7        42.000    25678919.668 7 102083985.442 7        46.500
E12  22794111.969 7 119783864.000 7        46.400    22794107.309 8  89448965.054 8        48.600    22794107.016 8  91782417.003 8        49.200    22794107.090 8  90615693.628 8        51.900
E11  23055856.492 7 121159350.549 7        46.000    23055851.270 7  90476120.233 7        47.000    23055850.824 7  92836362.171 7        47.300    23055851.500 8  91656243.309 8        49.600
> 2018  8 30  2  3 48.0000000  0 32       0.000000000000
G08  24045283.156 6 126358787.321 6        36.000    24045285.082 2  98461393.974 2        15.600    24045284.973 5  98461395.067 5        34.300    24045286.043 7  94358830.056 7        42.300
G28  20782859.414 7 109214662.123 7        47.200    20782858.238 6  85102328.844 6        39.700
G18  22690403.258 6 119238860.553 6        41.100    22690403.867 4  92913392.819 4        26.200
G22  21171897.938 7 111259076.642 7        47.600    21171894.656 6  86695374.685 6        40.200
G01  21199240.008 7 111402752.094 7        47.300    21199242.008 6  86807345.252 6        39.900    21199241.555 8  86807346.256 8        48.200    21199239.738 8  83190365.626 8        53.400
G03  20417315.430 8 107293733.374 8        50.200    20417316.508 6  83605514.127 6        41.200    20417317.090 8  83605527.130 8        48.400    20417317.379 9  80121951.654 9        54.700
R10  23492043.578 7 125225811.023 7        44.600    23492041.691 7 125225799.036 7        42.500    23492040.477 6  97397842.447 6        36.600
G17  22506465.414 8 118272247.339 8        50.000    22506464.258 6  92160226.766 6        38.000    22506464.086 7  92160267.766 7        45.300
J01  36928285.031 7 194059454.566 7        43.900    36928285.672 7 194059469.575 7        47.200    36928282.984 7 194059455.484 7        43.300    36928283.762 7 151215174.104 7        44.200    36928287.676 8 144914538.179 8        49.000    36928277.617 7 157515760.183 7        46.000
R09  21592667.797 7 115303650.583 7        47.300    21592667.586 7 115303639.584 7        46.100    21592660.875 7  89680600.991 7        45.100
R19  20688849.164 7 110671407.866 7        43.800    20688847.746 7 110671400.884 7        42.100    20688841.770 7  86077767.963 7        45.500
G06  24405556.586 5 128252048.270 5        32.400    24405559.418 2  99936693.249 2        15.600    24405559.316 5  99936704.270 5        33.000    24405557.895 6  95772667.389 6        38.400
R16  22679225.961 6 121148332.378 6        39.900    22679225.109 6 121148321.389 6        38.300    22679218.004 6  94226449.337 6        37.800
G19  24357724.188 6 128000711.633 6        39.000    24357723.289 4  99740805.999 4        25.000
G11  21473200.125 7 112842418.395 7        46.900    21473199.188 6  87929148.892 6        37.000
R18  20698060.273 8 110487646.046 8        49.700    20698059.148 8 110487646.060 8        48.400    20698053.996 7  85934798.661 7        45.700
R03  20450464.445 8 109472976.003 8        48.000    20450463.957 7 109472972.016 7        46.100    20450458.094 8  85145648.682 8        48.200
R04  21334101.555 7 114243190.251 7        45.500    21334102.664 7 114243159.265 7        44.900    21334095.141 7  88855794.108 7        43.400
R02  23162297.063 6 123598452.084 6        36.700    23162295.695 5 123598449.102 5        35.500    23162293.410 5  96132163.425 5        34.900
C13  38378790.688 6 199848435.439 6        41.200    38378788.582 7 154535476.213 7        42.500    38378778.594 7 162393171.600 7        44.400
C07  37381398.688 6 194654745.312 6        41.300    37381388.797 7 150519350.172 7        43.900    37381379.922 7 158172840.264 7        44.700
C10  37149851.047 7 193449017.189 7        43.200    37149843.250 7 149587014.236 7        43.900    37149833.711 7 157193096.570 7        44.900
C08  36758629.305 7 191411829.477 7        44.800    36758618.891 7 148011726.555 7        46.500    36758610.551 7 155537710.026 7        46.800
C04  37426177.875 6 194887927.782 6        38.900    37426166.609 7 150699661.582 7        43.100    37426161.473 7 158362334.843 7        44.600
C03  37879162.273 6 197246726.031 6        36.700    37879151.648 7 152523643.726 7        43.900    37879145.695 7 160279061.711 7        43.500
C01  37085129.430 6 193111999.392 6        39.900    37085115.941 7 149326388.040 7        45.700    37085110.723 7 156919232.702 7        43.800
E24  23724681.094 7 124674028.176 7        46.600    23724691.117 7  93100766.270 7        47.400    23724689.563 7  95529476.861 7        47.200    23724690.945 8  94315123.168 8        51.100
E04  25966635.484 6 136455610.123 6        41.900    25966634.555 7 101898673.038 7        45.900    25966634.129 7 104556888.196 7        47.600    25966634.305 8 103227785.722 8        50.100
E25  24704602.195 7 129823563.781 7        46.800    24704601.457 8  96946161.641 8        48.900    24704600.637 8  99475186.456 8        48.800    24704601.289 8  98210676.655 8        52.500
E19  25678854.469 6 134943409.100 6        39.600    25678851.859 7 100769332.778 7        42.400    25678851.348 7 103398097.422 7        42.300    25678851.680 7 102083715.203 7        45.700
E12  22794281.086 7 119784753.115 7        47.200    22794276.500 8  89449629.006 8        49.000    22794275.969 8  91783098.271 8        48.600    22794276.250 8  90616366.245 8        52.000
E11  23055678.656 7 121158416.326 7        46.100    23055673.469 7  90475422.600 7        47.100    23055673.000 7  92835646.347 7        47.100    23055673.719 8  91655536.580 8        49.600
> 2018  8 30  2  3 49.0000000  0 32       0.000000000000
G08  24045799.742 6 126361504.300 6        36.200    24045802.301 2  98463511.110 2        16.300    24045802.383 5  98463512.152 5        34.000    24045803.367 7  94360858.947 7        42.500
G28  20782862.328 7 109214677.209 7        46.900    20782861.098 6  85102340.597 6        39.600
G18  22690945.836 6 119241708.950 6        40.600    22690945.734 4  92915612.347 4        25.300
G22  21172102.984 7 111260154.478 7        47.800    21172099.930 6  86696214.562 6        40.300
G01  21199605.570 7 111404673.873 7        47.200    21199607.457 6  86808842.740 6        39.600    21199606.926 8  86808843.743 8        48.500    21199605.434 8  83191800.722 8        53.400
G03  20417171.914 8 107292980.738 8        50.200    20417173.320 6  83604927.651 6        40.700    20417173.734 8  83604940.662 8        48.200    20417174.203 9  80121389.631 9        54.700
R10  23491601.672 7 125223457.468 7        44.700    23491600.559 7 125223445.492 7        42.700    23491598.637 6  97396011.917 6        37.100
G17  22506015.047 8 118269882.718 8        50.100    22506014.574 6  92158384.210 6        37.500    22506014.441 7  92158425.227 7        45.200
J01  36928296.797 7 194059513.271 7        44.200    36928296.902 7 194059528.269 7        47.300    36928294.277 7 194059514.196 7        42.900    36928295.027 7 151215219.853 7        44.300    36928298.660 8 144914582.008 8        49.200    36928288.664 7 157515807.842 7        45.900
R09  21592811.805 7 115304418.611 7        47.000    21592811.148 7 115304407.618 7        46.100    21592805.270 7  89681198.347 7        44.900
R19  20688601.406 7 110670084.886 7        43.900    20688600.410 7 110670077.882 7        42.300    20688595.109 7  86076738.968 7        45.500
G06  24405055.063 5 128249415.361 5        32.800    24405058.227 2  99934641.628 2        14.800    24405058.164 5  99934652.634 5        33.400    24405056.898 6  95770701.265 6        38.900
R16  22679931.961 6 121152105.847 6        39.700    22679931.156 6 121152094.875 6        38.500    22679924.938 6  94229384.233 6        37.500
G19  24357134.602 6 127997611.007 6        39.300    24357133.551 3  99738389.936 3        23.900
G11  21473574.227 7 112844383.208 7        46.900    21473572.906 6  87930679.914 6        36.900
R18  20698253.297 8 110488679.028 8        49.900    20698252.855 8 110488679.027 8        48.700    20698247.418 7  85935602.080 7        45.900
R03  20450444.492 8 109472869.408 8        48.300    20450443.840 7 109472865.414 7        46.300    20450438.180 8  85145565.779 8        48.200
R04  21333404.523 7 114239453.991 7        45.800    21333405.000 7 114239423.010 7        44.700    21333397.121 7  88852888.120 7        43.500
R02  23162894.898 6 123601649.559 6        37.100    23162895.574 5 123601646.574 5        35.300    23162892.707 5  96134650.308 5        34.200
C13  38378751.578 6 199848231.000 6        41.200    38378749.328 7 154535318.128 7        42.900    38378739.211 7 162393005.475 7        44.500
C07  37381699.234 6 194656307.551 6        41.400    37381688.844 7 150520558.193 7        44.600    37381680.168 7 158174109.714 7        44.600
C10  37150068.281 7 193450150.099 7        43.200    37150060.738 7 149587890.276 7        44.200    37150051.207 7 157194017.155 7        44.700
C08  36758622.406 7 191411791.556 7        44.700    36758611.516 7 148011697.239 7        46.400    36758603.332 7 155537679.217 7        47.100
C04  37426178.977 6 194887931.239 6        39.100    37426167.246 7 150699664.253 7        42.800    37426162.133 7 158362337.654 7        44.100
C03  37879163.484 6 197246734.605 6        37.000    37879153.469 7 152523650.356 7        43.900    37879147.773 7 160279068.678 7        43.600
C01  37085134.648 6 193112026.900 6        39.800    37085120.527 7 149326409.314 7        45.700    37085115.563 7 156919255.053 7        43.700
E24  23725180.734 7 124676653.860 7        46.600    23725190.809 7  93102727.009 7        47.300    23725189.168 7  95531488.747 7        47.200    23725190.621 8  94317109.484 8        51.100
E04  25966143.898 7 136453026.735 7        42.000    25966142.980 7 101896743.877 7        45.800    25966142.586 7 104554908.727 7        47.400    25966142.691 8 103225831.405 8        50.200
E25  24704698.305 7 129824068.298 7        46.800    24704697.539 8  96946538.388 8        48.800    24704696.488 8  99475573.027 8        48.900    24704697.301 8  98211058.313 8        52.400
E19  25678786.250 6 134943052.230 6        39.900    25678783.914 7 100769066.265 7        42.400    25678783.270 7 103397823.950 7        42.000    25678783.809 7 102083445.213 7        45.700
E12  22794450.156 7 119785642.181 7        47.300    22794445.742 8  89450292.923 8        49.000    22794445.313 8  91783779.509 8        48.900    22794445.449 8  90617038.820 8        52.300
E11  23055500.984 7 121157482.091 7        46.400    23055495.672 7  90474724.957 7        47.100    23055495.227 7  92834930.493 7        47.100    23055495.926 8  91654829.829 8        49.600
> 2018  8 30  2  3 50.0000000  0 32       0.000000000000
G08  24046316.813 6 126364221.719 6        36.500    24046319.148 2  98465628.543 2        16.300    24046319.441 5  98465629.693 5        33.700    24046320.504 7  94362888.211 7        42.400
G28  20782865.039 7 109214693.216 7        46.800    20782863.762 6  85102353.073 6        39.400
G18  22691487.742 6 119244557.684 6        41.000    22691487.750 4  92917832.135 4        25.000
G22  21172308.898 7 111261233.152 7        47.600    21172305.090 6  86697055.080 6        40.600
G01  21199970.930 7 111406596.153 7        47.300    21199973.398 6  86810340.616 6        39.900    21199972.574 8  86810341.618 8        48.200    21199971.223 8  83193236.185 8        53.400
G03  20417029.016 8 107292229.053 8        49.900    20417030.363 6  83604341.922 6        41.400    20417030.824 8  83604354.932 8        48.400    20417031.164 9  80120828.303 9        55.000
R10  23491160.133 7 125221104.941 7        44.600    23491158.902 7 125221092.940 7        42.600    23491156.840 6  97394182.151 6        36.800
G17  22505565.555 8 118267518.458 8        50.000    22505564.266 6  92156541.932 6        38.200    22505564.371 7  92156582.952 7        45.000
J01  36928308.141 7 194059572.349 7        44.100    36928308.281 7 194059587.348 7        47.200    36928305.625 7 194059573.264 7        43.300    36928306.230 7 151215265.873 7        44.100    36928310.102 8 144914626.126 8        49.000    36928300.105 7 157515855.781 7        45.900
R09  21592956.289 7 115305187.751 7        47.000    21592955.234 7 115305176.750 7        46.100    21592949.559 7  89681796.572 7        44.600
R19  20688354.539 7 110668762.303 7        44.100    20688353.238 7 110668755.307 7        42.200    20688346.488 7  86075710.306 7        45.400
G06  24404554.938 5 128246782.916 5        32.000    24404557.637 2  99932590.300 2        13.900    24404557.121 5  99932601.379 5        34.000    24404556.250 6  95768735.465 6        38.800
R16  22680638.508 6 121155879.768 6        40.100    22680638.336 6 121155868.774 6        38.900    22680632.613 6  94232319.507 6        37.900
G19  24356544.211 6 127994510.704 6        39.200    24356542.852 4  99735974.109 4        24.700
G11  21473947.688 7 112846348.531 7        46.700    21473947.102 6  87932211.333 6        37.600
R18  20698446.594 8 110489712.446 8        49.900    20698446.363 8 110489712.452 8        48.800    20698441.059 7  85936405.862 7        45.900
R03  20450425.469 8 109472764.007 8        48.400    20450424.277 7 109472760.014 7        46.800    20450418.680 7  85145483.793 7        47.800
R04  21332707.344 7 114235718.442 7        46.300    21332707.398 7 114235687.469 7        44.900    21332699.574 7  88849982.694 7        43.400
R02  23163494.641 6 123604847.894 6        37.000    23163495.199 6 123604844.887 6        36.000    23163490.637 5  96137137.894 5        33.900
C13  38378712.344 6 199848026.801 6        41.300    38378710.402 7 154535160.233 7        43.000    38378700.199 7 162392839.546 7        44.300
C07  37381999.078 6 194657870.169 6        41.300    37381989.227 7 150521766.512 7        44.100    37381980.305 7 158175379.469 7        44.500
C10  37150286.211 7 193451283.475 7        42.800    37150278.520 7 149588766.665 7        44.100    37150268.973 7 157194938.105 7        44.700
C08  36758615.406 7 191411753.884 7        44.500    36758604.422 7 148011668.111 7        46.400    36758596.199 7 155537648.606 7        47.300
C04  37426179.188 6 194887935.007 6        39.000    37426168.109 7 150699667.164 7        43.000    37426162.902 7 158362340.712 7        43.900
C03  37879165.445 6 197246743.477 6        36.700    37879155.406 7 152523657.215 7        44.000    37879149.621 7 160279075.893 7        43.900
C01  37085140.406 6 193112054.711 6        39.900    37085126.426 7 149326430.822 7        45.600    37085121.328 7 156919277.654 7        44.000
E24  23725680.508 7 124679280.043 7        46.100    23725690.555 7  93104688.111 7        47.400    23725689.031 7  95533501.008 7        47.300    23725690.355 8  94319096.167 8        50.900
E04  25965652.438 7 136450443.788 7        42.200    25965651.340 7 101894815.041 7        45.100    25965650.984 7 104552929.568 7        47.300    25965651.168 8 103223877.410 8        49.900
E25  24704794.516 7 129824573.576 7        46.700    24704793.801 8  96946915.702 8        49.000    24704792.723 8  99475960.185 8        48.700    24704793.445 8  98211440.550 8        52.500
E19  25678718.734 6 134942696.106 6        39.600    25678716.137 7 100768800.325 7        42.100    25678715.387 7 103397551.074 7        42.300    25678716.012 7 102083175.804 7        45.800
E12  22794619.484 7 119786531.616 7        47.000    22794615.043 8  89450957.110 8        48.900    22794614.516 8  91784461.024 8        49.000    22794614.699 8  90617711.667 8        52.500
E11  23055323.344 7 121156548.212 7        46.100    23055317.965 7  90474027.586 7        46.900    23055317.539 7  92834214.933 7        47.100    23055318.219 8  91654123.365 8        49.600
> 2018  8 30  2  3 51.0000000  0 32       0.000000000000
G08  24046834.852 6 126366939.250 6        36.600    24046836.246 2  98467746.144 2        17.800    24046836.934 5  98467747.215 5        34.500    24046837.379 7  94364917.519 7        42.500
G28  20782868.195 7 109214709.692 7        46.700    20782866.777 6  85102365.913 6        39.100
G18  22692029.852 7 119247406.391 7        42.000    22692029.848 4  92920051.893 4        27.000
G22  21172514.203 7 111262312.266 7        47.500    21172510.246 6  86697895.954 6        40.700
G01  21200336.969 7 111408518.504 7        47.500    21200339.082 6  86811838.555 6        39.900    21200338.750 8  86811839.566 8        48.300    21200337.070 8  83194671.708 8        53.400
G03  20416885.953 8 107291477.905 8        50.100    20416887.109 6  83603756.614 6        40.800    20416887.652 8  83603769.616 8        48.500    20416888.273 9  80120267.370 9        54.900
R10  23490719.250 7 125218752.952 7        44.600    23490717.480 7 125218740.958 7        43.100    23490716.191 6  97392352.833 6        37.000
G17  22505115.617 8 118265154.170 8        49.900    22505114.914 6  92154699.629 6        37.900    22505114.246 7  92154740.643 7        45.000
J01  36928318.875 7 194059631.388 7        44.500    36928319.250 7 194059646.392 7        47.500    36928317.238 7 194059632.306 7        42.900    36928317.914 7 151215311.882 7        44.500    36928321.188 8 144914670.219 8        49.200    36928311.156 7 157515903.703 7        46.100
R09  21593099.461 7 115305957.603 7        47.000    21593099.367 7 115305946.610 7        46.300    21593093.285 7  89682395.348 7        44.500
R19  20688107.125 7 110667439.724 7        43.800    20688105.730 7 110667432.735 7        42.200    20688099.414 7  86074681.631 7        45.500
G06  24404053.969 5 128244150.460 5        31.600    24404056.535 2  99930539.065 2        13.900    24404055.777 5  99930550.106 5        34.100    24404055.348 6  95766769.687 6        39.000
R16  22681345.500 6 121159653.760 6        40.100    22681344.227 6 121159642.776 6        39.000    22681339.059 6  94235254.840 6        38.000
G19  24355954.047 6 127991410.241 6        38.400    24355952.613 4  99733558.144 4        24.700
G11  21474322.078 7 112848313.967 7        46.700    21474321.051 6  87933742.845 6        37.600
R18  20698640.563 8 110490745.970 8        50.000    20698639.887 8 110490745.977 8        48.600    20698634.707 7  85937209.713 7        45.600
R03  20450404.758 8 109472659.363 8        48.600    20450404.695 7 109472655.376 7        46.800    20450398.996 7  85145402.410 7        47.700
R04  21332009.531 7 114231983.193 7        46.300    21332009.773 7 114231952.213 7        44.900    21332003.094 7  88847077.495 7        42.800
R02  23164096.047 6 123608046.661 6        37.100    23164094.773 5 123608043.662 5        35.700    23164090.934 5  96139625.832 5        33.100
C13  38378672.953 6 199847822.456 6        41.500    38378670.910 7 154535002.220 7        43.700    38378660.949 7 162392673.503 7        44.400
C07  37382299.133 6 194659432.752 6        41.100    37382289.324 7 150522974.792 7        44.300    37382280.340 7 158176649.194 7        44.500
C10  37150504.063 7 193452416.849 7        42.500    37150496.195 7 149589643.065 7        44.100    37150486.922 7 157195859.060 7        44.700
C08  36758607.391 7 191411716.028 7        44.700    36758597.141 7 148011638.835 7        46.300    36758588.809 7 155537617.847 7        47.000
C04  37426180.281 6 194887938.624 6        39.000    37426168.957 7 150699669.957 7        43.000    37426163.613 7 158362343.647 7        43.900
C03  37879166.719 6 197246752.224 6        36.800    37879156.914 7 152523663.979 7        44.200    37879151.203 7 160279083.006 7        43.900
C01  37085145.734 6 193112082.387 6        39.900    37085131.523 7 149326452.220 7        45.200    37085126.387 7 156919300.141 7        43.800
E24  23726180.320 7 124681906.310 7        46.200    23726190.363 7  93106649.283 7        47.400    23726188.828 7  95535513.337 7        47.500    23726190.137 8  94321082.915 8        50.800
E04  25965161.023 7 136447860.849 7        42.700    25965159.816 7 101892886.248 7        45.400    25965159.535 7 104550950.447 7        47.200    25965159.641 8 103221923.451 8        50.100
E25  24704890.648 7 129825079.195 7        46.800    24704890.094 8  96947293.277 8        49.200    24704888.734 8  99476347.609 8        49.100    24704889.656 8  98211823.050 8        52.900
E19  25678650.750 6 134942340.279 6        39.700    25678648.375 7 100768534.628 7        42.100    25678647.676 7 103397278.431 7        42.100    25678648.340 7 102082906.635 7        45.900
E12  22794788.695 7 119787421.001 7        47.200    22794784.215 8  89451621.259 8        48.700    22794783.773 8  91785142.510 8        48.900    22794783.957 8  90618384.489 8        52.300
E11  23055145.523 7 121155614.272 7        46.500    23055140.215 7  90473330.164 7        47.100    23055139.828 7  92833499.326 7        46.800    23055140.488 8  91653416.847 8        49.700
> 2018  8 30  2  3 52.0000000  0 32       0.000000000000
G08  24047352.000 6 126369656.908 6        36.900    24047353.473 2  98469863.851 2        16.900    24047353.371 5  98469864.888 5        34.400    24047354.762 7  94366946.941 7        42.800
G28  20782871.281 7 109214726.720 7        46.700    20782870.039 6  85102379.177 6        39.200
G18  22692571.711 7 119250255.133 7        42.500    22692571.992 4  92922271.693 4        26.200
G22  21172719.633 7 111263391.888 7        47.500    21172715.914 6  86698737.214 6        40.700
G01  21200702.734 7 111410441.001 7        47.500    21200705.133 6  86813336.608 6        39.900    21200704.289 8  86813337.612 8        48.300    21200702.945 8  83196107.342 8        53.200
G03  20416743.523 8 107290727.351 8        50.000    20416744.352 6  83603171.768 6        41.100    20416744.633 8  83603184.772 8        48.900    20416745.406 9  80119706.896 9        54.700
R10  23490277.836 7 125216401.613 7        44.100    23490276.230 7 125216389.630 7        42.800    23490276.102 6  97390524.036 6        36.600
G17  22504665.820 8 118262789.903 8        50.000    22504664.688 6  92152857.342 6        37.600    22504664.434 7  92152898.349 7        44.900
J01  36928330.234 7 194059690.475 7        44.300    36928330.512 7 194059705.468 7        47.200    36928328.191 7 194059691.408 7        42.800    36928328.859 7 151215357.921 7        44.500    36928332.586 8 144914714.337 8        49.600    36928322.285 7 157515951.664 7        46.000
R09  21593243.664 7 115306728.209 7        46.800    21593243.477 7 115306717.202 7        45.900    21593237.477 7  89682994.694 7        44.800
R19  20687859.953 7 110666117.243 7        43.900    20687858.371 7 110666110.262 7        42.100    20687851.914 7  86073653.045 7        45.300
G06  24403553.875 5 128241518.137 5        31.900    24403555.879 2  99928487.915 2        13.900    24403554.848 5  99928498.971 5        33.700    24403554.176 6  95764803.971 6        39.400
R16  22682052.078 6 121163427.890 6        40.400    22682050.758 6 121163416.901 6        38.900    22682045.781 6  94238190.281 6        37.900
G19  24355364.070 6 127988309.707 6        38.800    24355362.969 4  99731142.148 4        25.600
G11  21474696.086 7 112850279.620 7        46.600    21474695.082 6  87935274.522 6        37.600
R18  20698834.711 8 110491779.675 8        50.200    20698833.563 8 110491779.682 8        48.700    20698828.641 7  85938013.699 7        45.400
R03  20450386.094 8 109472555.576 8        48.000    20450385.750 7 109472551.605 7        46.900    20450379.613 7  85145321.707 7        47.800
R04  21331312.125 7 114228248.340 7        46.400    21331312.273 7 114228217.361 7        44.600    21331304.359 7  88844172.602 7        42.900
R02  23164695.602 6 123611245.932 6        37.400    23164694.609 5 123611242.919 5        35.900    23164690.770 5  96142114.142 5        32.500
C13  38378633.664 6 199847618.095 6        41.300    38378631.527 7 154534844.191 7        43.100    38378621.645 7 162392507.431 7        44.300
C07  37382599.227 6 194660995.424 6        41.300    37382588.750 7 150524183.150 7        44.100    37382580.070 7 158177918.993 7        44.700
C10  37150721.539 7 193453550.371 7        43.000    37150713.828 7 149590519.569 7        44.100    37150704.344 7 157196780.138 7        44.600
C08  36758600.430 7 191411678.111 7        44.800    36758589.707 7 148011609.520 7        46.600    36758581.496 7 155537587.039 7        47.200
C04  37426180.453 6 194887942.213 6        39.000    37426169.789 7 150699672.730 7        43.400    37426164.563 7 158362346.567 7        44.100
C03  37879168.703 6 197246760.925 6        36.600    37879158.695 7 152523670.707 7        43.900    37879152.902 7 160279090.077 7        44.100
C01  37085150.984 6 193112110.001 6        39.900    37085137.078 7 149326473.572 7        45.200    37085131.934 7 156919322.579 7        44.000
E24  23726680.164 7 124684532.720 7        46.000    23726690.027 7  93108610.562 7        47.300    23726688.809 7  95537525.789 7        47.500    23726689.918 8  94323069.783 8        51.000
E04  25964669.508 6 136445278.054 6        41.700    25964668.328 7 101890957.526 7        45.600    25964667.898 7 104548971.413 7        47.000    25964668.160 8 103219969.579 8        50.100
E25  24704986.992 7 129825585.256 7        46.900    24704986.262 8  96947671.184 8        49.000    24704985.168 8  99476735.368 8        49.300    24704985.969 8  98212205.879 8        53.000
E19  25678583.203 6 134941984.904 6        39.800    25678580.805 7 100768269.237 7        42.200    25678580.184 7 103397006.118 7        42.400    25678580.676 7 102082637.785 7        45.900
E12  22794958.055 7 119788310.411 7        46.800    22794953.469 8  89452285.423 8        48.500    22794953.090 8  91785824.000 8        48.800    22794953.199 8  90619057.311 8        52.100
E11  23054967.711 7 121154680.380 7        46.300    23054962.480 7  90472632.772 7        47.100    23054962.074 7  92832783.730 7        46.800    23054962.770 8  91652710.360 8        49.600
> 2018  8 30  2  3 53.0000000  0 32       0.000000000000
G08  24047869.398 6 126372374.728 6        37.000    24047871.051 2  98471981.613 2        16.900    24047870.453 5  98471982.673 5        34.300    24047871.867 7  94368976.496 7        43.100
G28  20782874.734 7 109214744.320 7        47.000    20782873.559 6  85102392.898 6        39.600
G18  22693113.727 7 119253103.937 7        42.300    22693114.258 4  92924491.549 4        26.800
G22  21172924.898 7 111264472.036 7        47.400    21172921.160 6  86699578.889 6        40.400
G01  21201068.609 7 111412363.678 7        47.800    21201070.902 6  86814834.799 6        39.500    21201070.164 8  86814835.802 8        48.300    21201068.762 8  83197543.105 8        53.500
G03  20416600.547 8 107289977.431 8        49.900    20416601.547 6  83602587.418 6        40.900    20416602.020 8  83602600.414 8        49.000    20416602.684 9  80119146.894 9        54.900
R10  23489837.141 7 125214050.935 7        44.600    23489835.230 7 125214038.960 7        43.400    23489835.012 6  97388695.710 6        36.200
G17  22504215.906 8 118260425.680 8        50.300    22504214.957 6  92151015.095 6        37.700    22504214.363 7  92151056.094 7        45.400
J01  36928342.031 7 194059749.635 7        43.800    36928341.902 7 194059764.615 7        47.400    36928339.277 7 194059750.548 7        43.200    36928340.004 7 151215404.011 7        44.700    36928343.734 8 144914758.510 8        49.400    36928333.664 7 157515999.672 7        46.300
R09  21593389.438 7 115307499.595 7        47.000    21593388.148 7 115307488.588 7        45.800    21593382.516 7  89683594.654 7        44.300
R19  20687613.227 7 110664794.881 7        44.100    20687611.434 7 110664787.869 7        42.600    20687604.684 7  86072624.524 7        45.000
G06  24403052.320 5 128238885.910 5        32.500    24403055.098 2  99926436.837 2        15.600    24403054.102 5  99926447.865 5        33.700    24403053.477 6  95762838.364 6        39.800
R16  22682758.688 6 121167202.223 6        40.600    22682757.367 6 121167191.243 6        39.000    22682752.125 6  94241125.843 6        38.200
G19  24354774.430 6 127985209.152 6        38.600    24354772.832 4  99728726.118 4        24.500
G11  21475069.930 7 112852245.494 7        46.400    21475069.398 6  87936806.373 6        36.600
R18  20699028.711 8 110492813.537 8        49.900    20699027.164 8 110492813.543 8        48.600    20699021.551 7  85938817.831 7        45.400
R03  20450366.844 8 109472452.698 8        48.000    20450366.781 7 109472448.719 7        46.700    20450360.324 7  85145241.678 7        47.900
R04  21330615.508 7 114224513.882 7        46.700    21330614.996 7 114224482.902 7        45.100    21330607.078 7  88841268.041 7        42.900
R02  23165294.805 6 123614445.697 6        37.700    23165294.730 5 123614442.724 5        35.700    23165289.320 5  96144602.869 5        31.200
C13  38378594.516 6 199847413.704 6        41.600    38378592.090 7 154534686.143 7        43.200    38378582.379 7 162392341.357 7        44.500
C07  37382899.273 6 194662558.191 6        41.300    37382889.094 7 150525391.581 7        44.100    37382880.316 7 158179188.862 7        44.800
C10  37150939.391 7 193454683.994 7        43.100    37150931.445 7 149591396.161 7        44.100    37150922.027 7 157197701.299 7        44.700
C08  36758593.406 7 191411640.110 7        44.700    36758582.480 7 148011580.134 7        46.700    36758574.371 7 155537556.160 7        47.200
C04  37426181.492 6 194887945.787 6        39.100    37426170.426 7 150699675.495 7        43.700    37426165.160 7 158362349.470 7        44.300
C03  37879170.227 6 197246769.603 6        37.100    37879160.371 7 152523677.414 7        44.100    37879154.574 7 160279097.121 7        44.300
C01  37085156.328 6 193112137.590 6        39.900    37085142.324 7 149326494.904 7        45.400    37085137.320 7 156919344.995 7        43.900
E24  23727179.891 7 124687159.312 7        46.700    23727189.902 7  93110571.975 7        47.000    23727188.574 7  95539538.368 7        47.400    23727189.730 8  94325056.779 8        51.000
E04  25964178.008 6 136442695.387 6        41.800    25964176.813 7 101889028.913 7        45.500    25964176.332 7 104546992.490 7        47.200    25964176.715 8 103218015.807 8        50.200
E25  24705083.336 7 129826091.759 7        46.800    24705082.695 8  96948049.422 8        49.300    24705081.492 8  99477123.478 8        49.300    24705082.367 8  98212589.055 8        53.100
E19  25678515.789 6 134941629.913 6        39.700    25678513.250 7 100768004.178 7        42.600    25678512.219 7 103396734.123 7        42.000    25678513.113 7 102082369.256 7        46.100
E12  22795127.430 7 119789199.863 7        46.900    22795122.781 8  89452949.627 8        48.700    22795122.289 8  91786505.520 8        48.600    22795122.496 8  90619730.181 8        52.100
E11  23054790.281 7 121153746.544 7        46.100    23054784.609 7  90471935.425 7        47.300    23054784.270 7  92832068.197 7        46.800    23054785.063 8  91652003.915 8        49.500
> 2018  8 30  2  3 54.0000000  0 32       0.000000000000
G08  24048386.211 6 126375092.844 6        36.900    24048388.391 2  98474099.618 2        17.400    24048387.574 5  98474100.655 5        34.700    24048389.020 7  94371006.261 7        42.700
G28  20782878.508 7 109214762.622 7        46.700    20782877.508 6  85102407.154 6        39.400
G18  22693656.008 7 119255952.906 7        42.100    22693656.164 4  92926711.519 4        26.300
G22  21173130.563 7 111265552.828 7        47.600    21173126.781 6  86700421.068 6        40.400
G01  21201434.969 8 111414286.646 8        48.000    21201436.703 6  86816333.210 6        39.200    21201436.297 8  86816334.213 8        48.100    21201434.703 8  83198979.095 8        53.400
G03  20416457.961 8 107289228.258 8        50.200    20416459.270 6  83602003.646 6        40.800    20416459.664 8  83602016.650 8        48.600    20416460.141 9  80118587.442 9        55.000
R10  23489396.117 7 125211701.047 7        44.300    23489394.676 7 125211689.052 7        43.600    23489393.801 6  97386868.008 6        36.100
G17  22503765.969 8 118258061.620 8        50.300    22503765.078 6  92149172.970 6        37.400    22503764.836 7  92149213.977 7        45.400
J01  36928353.000 7 194059808.962 7        43.200    36928353.074 7 194059823.956 7        47.300    36928350.730 7 194059809.880 7        43.400    36928351.406 7 151215450.251 7        44.300    36928355.008 8 144914802.816 8        49.300    36928344.883 7 157516047.836 7        46.200
R09  21593533.609 7 115308271.922 7        47.200    21593532.719 7 115308260.914 7        45.800    21593527.457 7  89684195.340 7        44.600
R19  20687365.625 7 110663472.737 7        44.100    20687364.254 7 110663465.733 7        42.700    20687357.133 7  86071596.187 7        45.000
G06  24402551.422 5 128236253.973 5        32.600    24402553.816 2  99924386.038 2        16.300    24402554.199 5  99924396.987 5        34.200    24402552.723 6  95760872.917 6        40.000
R16  22683465.680 6 121170976.820 6        40.800    22683463.750 6 121170965.821 6        39.200    22683459.563 6  94244061.646 6        38.100
G19  24354184.492 6 127982108.645 6        38.600    24354183.379 4  99726310.140 4        24.500
G11  21475443.984 7 112854211.696 7        46.700    21475443.418 6  87938338.477 6        36.700
R18  20699221.563 8 110493847.675 8        50.000    20699220.957 8 110493847.681 8        48.500    20699215.883 7  85939622.146 7        45.500
R03  20450348.219 8 109472350.791 8        48.000    20450347.707 7 109472346.804 7        46.600    20450342.047 8  85145162.423 8        48.500
R04  21329917.625 7 114220779.931 7        46.200    21329917.469 7 114220748.938 7        45.400    21329910.465 7  88838363.843 7        42.800
R02  23165895.094 6 123617646.103 6        37.900    23165894.102 6 123617643.118 6        36.300    23165889.789 5  96147092.037 5        30.700
C13  38378555.398 6 199847209.344 6        41.300    38378553.070 7 154534528.124 7        42.800    38378543.223 7 162392175.297 7        43.700
C07  37383199.703 6 194664121.158 6        40.800    37383189.188 7 150526600.161 7        43.900    37383180.547 7 158180458.892 7        44.600
C10  37151157.289 7 193455817.882 7        43.000    37151149.293 7 149592272.952 7        44.100    37151139.816 7 157198622.670 7        44.300
C08  36758586.086 7 191411602.179 7        45.000    36758575.070 7 148011550.805 7        46.700    36758566.887 7 155537525.340 7        47.100
C04  37426181.969 6 194887949.447 6        38.900    37426171.090 7 150699678.324 7        43.500    37426165.758 7 158362352.440 7        44.100
C03  37879172.109 6 197246778.373 6        36.700    37879162.332 7 152523684.198 7        44.300    37879156.375 7 160279104.249 7        44.100
C01  37085161.453 6 193112165.291 6        39.900    37085147.430 7 149326516.322 7        45.600    37085142.512 7 156919367.501 7        44.300
E24  23727679.859 7 124689786.201 7        46.700    23727689.902 7  93112533.609 7        47.700    23727688.473 7  95541551.174 7        47.100    23727689.621 8  94327043.995 8        51.000
E04  25963686.531 7 136440112.950 7        42.000    25963685.117 7 101887100.480 7        45.700    25963684.898 7 104545013.759 7        47.200    25963685.262 8 103216062.212 8        50.200
E25  24705179.695 7 129826598.837 7        46.600    24705179.219 8  96948428.082 8        49.100    24705178.020 8  99477512.017 8        49.400    24705178.848 8  98212972.648 8        52.800
E19  25678448.516 6 134941275.521 6        39.600    25678445.629 7 100767739.516 7        42.400    25678444.887 6 103396462.585 6        41.800    25678445.695 7 102082101.154 7        45.800
E12  22795296.773 7 119790089.488 7        46.700    22795291.895 8  89453613.954 8        49.000    22795291.727 8  91787187.179 8        49.100    22795291.758 8  90620403.172 8        52.300
E11  23054612.219 7 121152812.852 7        46.100    23054607.109 7  90471238.193 7        47.000    23054606.668 7  92831352.774 7        46.800    23054607.391 8  91651297.589 8        49.500
> 2018  8 30  2  3 55.0000000  0 32       0.000000000000
G08  24048902.492 6 126377811.106 6        36.200    24048905.301 2  98476217.735 2        16.900    24048904.832 5  98476218.761 5        34.300    24048906.145 7  94373036.123 7        42.600
G28  20782881.898 7 109214781.409 7        46.800    20782880.902 6  85102421.790 6        39.200
G18  22694198.430 6 119258801.839 6        41.600    22694198.828 4  92928931.475 4        26.500
G22  21173336.313 7 111266634.051 7        47.600    21173332.613 6  86701263.575 6        40.500
G01  21201800.516 7 111416209.711 7        47.300    21201802.910 6  86817831.703 6        39.600    21201802.383 8  86817832.714 8        48.200    21201800.637 8  83200415.145 8        53.500
G03  20416315.813 8 107288479.628 8        50.000    20416316.461 6  83601420.292 6        40.600    20416317.316 8  83601433.303 8        49.000    20416317.625 9  80118028.407 9        55.200
R10  23488955.305 7 125209351.734 7        44.300    23488953.910 7 125209339.732 7        43.100    23488953.168 6  97385040.758 6        36.300
G17  22503315.797 8 118255697.526 8        50.000    22503314.973 6  92147330.818 6        38.100    22503314.941 7  92147371.827 7        45.300
J01  36928364.000 7 194059868.280 7        42.900    36928364.129 7 194059883.269 7        47.300    36928361.848 7 194059869.195 7        43.000    36928362.535 7 151215496.469 7        44.500    36928366.453 8 144914847.098 8        49.500    36928356.152 7 157516095.978 7        46.100
R09  21593678.336 7 115309044.935 7        47.200    21593677.656 7 115309033.941 7        45.600    21593671.547 7  89684796.593 7        44.600
R19  20687118.516 7 110662150.607 7        44.400    20687116.980 7 110662143.611 7        42.900    20687110.840 7  86070567.864 7        45.100
G06  24402050.750 5 128233621.972 5        31.900    24402053.332 2  99922335.052 2        14.800    24402053.031 5  99922346.099 5        34.300    24402051.898 6  95758907.497 6        40.500
R16  22684172.328 6 121174751.495 6        41.100    22684170.656 6 121174740.503 6        39.200    22684164.797 6  94246997.496 6        38.500
G19  24353595.078 6 127979008.048 6        38.700    24353592.875 4  99723894.103 4        25.600
G11  21475818.117 7 112856178.003 7        46.700    21475817.492 6  87939870.668 6        36.600
R18  20699415.711 8 110494881.879 8        50.000    20699414.871 8 110494881.886 8        48.500    20699409.789 7  85940426.535 7        45.900
R03  20450329.906 7 109472249.673 7        47.900    20450328.691 7 109472245.693 7        46.700    20450323.059 8  85145083.770 8        48.000
R04  21329220.797 7 114217046.242 7        46.300    21329220.145 7 114217015.249 7        45.500    21329212.867 7  88835459.868 7        42.900
R02  23166495.023 6 123620846.917 6        38.000    23166493.797 6 123620843.911 6        36.200    23166489.625 5  96149581.562 5        30.500
C13  38378516.016 6 199847004.886 6        41.500    38378513.477 7 154534370.020 7        42.500    38378503.629 7 162392009.160 7        43.900
C07  37383500.117 6 194665684.114 6        40.600    37383489.238 7 150527808.735 7        43.900    37383480.641 7 158181728.930 7        44.600
C10  37151374.703 7 193456951.804 7        42.800    37151366.973 7 149593149.766 7        43.900    37151357.652 7 157199544.075 7        44.600
C08  36758578.836 7 191411564.100 7        45.000    36758567.539 7 148011521.359 7        46.500    36758559.414 7 155537494.395 7        46.600
C04  37426182.953 6 194887952.987 6        39.100    37426171.922 7 150699681.059 7        43.000    37426166.652 7 158362355.321 7        43.700
C03  37879174.016 6 197246787.025 6        36.600    37879163.750 7 152523690.883 7        43.800    37879157.660 7 160279111.280 7        44.300
C01  37085166.961 6 193112192.889 6        40.100    37085152.969 7 149326537.666 7        45.100    37085147.840 7 156919389.930 7        44.500
E24  23728179.742 7 124692413.186 7        46.700    23728189.715 7  93114495.313 7        47.700    23728188.375 7  95543564.047 7        47.400    23728189.512 8  94329031.286 8        51.200
E04  25963194.938 6 136437530.569 6        41.400    25963193.863 7 101885172.079 7        45.700    25963193.465 7 104543035.036 7        47.100    25963193.844 8 103214108.660 8        49.900
E25  24705276.289 7 129827106.280 7        46.700    24705275.762 8  96948807.010 8        49.200    24705274.500 8  99477900.838 8        49.000    24705275.402 8  98213356.533 8        52.700
E19  25678380.922 6 134940921.445 6        39.900    25678378.164 7 100767475.106 7        42.400    25678377.613 6 103396191.284 6        41.800    25678378.332 7 102081833.306 7        45.800
E12  22795466.086 7 119790979.055 7        46.300    22795461.137 8  89454278.250 8        49.100    22795460.980 8  91787868.804 8        49.000    22795461.035 8  90621076.129 8        52.400
E11  23054434.523 7 121151879.124 7        46.400    23054429.480 7  90470540.930 7        47.000    23054428.938 7  92830637.317 7        46.700    23054429.711 8  91650591.222 8        49.500
> 2018  8 30  2  3 56.0000000  0 32       0.000000000000
G08  24049420.578 6 126380529.522 6        36.800    24049422.820 2  98478335.969 2        15.600    24049421.969 5  98478337.077 5        33.800    24049423.297 7  94375066.105 7        42.200
G28  20782885.680 7 109214800.834 7        47.300    20782884.461 6  85102436.931 6        39.300
G18  22694740.344 6 119261650.875 6        41.000    22694740.633 4  92931151.502 4        27.200
G22  21173541.922 8 111267715.839 8        48.100    21173538.621 6  86702106.525 6        40.300
G01  21202166.586 7 111418132.982 7        47.500    21202168.547 6  86819330.357 6        40.100    21202168.340 8  86819331.369 8        48.100    21202166.664 8  83201851.354 8        53.400
G03  20416173.258 8 107287731.659 8        50.000    20416174.191 6  83600837.465 6        41.000    20416174.809 8  83600850.468 8        49.100    20416175.273 9  80117469.859 9        54.800
R10  23488514.656 7 125207003.103 7        44.300    23488513.168 7 125206991.086 7        42.900    23488512.297 6  97383214.030 6        36.200
G17  22502865.766 8 118253333.496 8        49.900    22502864.805 6  92145488.715 6        37.700    22502865.070 7  92145529.737 7        45.100
J01  36928375.344 7 194059927.683 7        43.200    36928375.656 7 194059942.666 7        47.300    36928372.813 7 194059928.603 7        43.100    36928374.262 7 151215542.748 7        44.600    36928377.641 8 144914891.459 8        49.500    36928367.809 7 157516144.191 7        46.400
R09  21593823.469 7 115309818.783 7        47.100    21593822.250 7 115309807.782 7        45.600    21593817.109 7  89685398.464 7        44.900
R19  20686871.352 7 110660828.619 7        44.200    20686869.559 7 110660821.637 7        42.600    20686863.660 7  86069539.660 7        45.300
G06  24401550.094 5 128230990.204 5        32.200    24401552.809 2  99920284.355 2        15.600    24401551.855 5  99920295.361 5        34.200    24401551.129 6  95756942.182 6        41.100
R16  22684879.352 6 121178526.348 6        41.200    22684877.375 6 121178515.356 6        39.300    22684872.273 6  94249933.503 6        38.300
G19  24353004.602 6 127975907.415 6        38.800    24353003.152 4  99721478.027 4        24.000
G11  21476192.406 7 112858144.587 7        46.600    21476191.531 6  87941403.074 6        36.900
R18  20699609.867 8 110495916.330 8        50.300    20699608.578 8 110495916.329 8        48.400    20699603.582 7  85941231.110 7        45.700
R03  20450310.203 7 109472149.440 7        47.700    20450309.832 7 109472145.461 7        46.700    20450303.836 7  85145005.809 7        47.600
R04  21328523.023 7 114213312.956 7        46.400    21328523.055 7 114213281.969 7        45.600    21328515.367 7  88832556.212 7        43.200
R02  23167095.742 6 123624048.253 6        38.400    23167093.578 6 123624045.285 6        36.400    23167089.629 4  96152071.483 4        29.700
C13  38378476.953 6 199846800.389 6        41.600    38378474.383 7 154534211.892 7        42.700    38378464.707 7 162391842.986 7        43.900
C07  37383799.695 6 194667247.193 6        40.800    37383789.461 7 150529017.410 7        44.300    37383780.691 7 158182999.058 7        44.900
C10  37151592.281 7 193458085.910 7        43.000    37151584.746 7 149594026.734 7        43.800    37151575.445 7 157200465.628 7        44.700
C08  36758571.367 7 191411525.983 7        45.100    36758560.316 7 148011491.883 7        46.300    36758552.313 7 155537463.426 7        47.000
C04  37426182.969 6 194887956.516 6        39.000    37426172.246 7 150699683.792 7        42.900    37426166.980 7 158362358.191 7        43.900
C03  37879175.859 6 197246795.681 6        36.900    37879165.410 7 152523697.581 7        43.700    37879159.441 7 160279118.317 7        43.800
C01  37085172.469 6 193112220.463 6        39.900    37085157.922 7 149326558.985 7        45.400    37085152.852 7 156919412.332 7        44.300
E24  23728679.625 7 124695040.359 7        46.600    23728689.531 7  93116457.179 7        47.300    23728688.195 7  95545577.093 7        47.200    23728689.434 8  94331018.745 8        51.300
E04  25962703.344 6 136434948.327 6        41.900    25962702.469 7 101883243.786 7        45.600    25962702.090 7 104541056.445 7        46.900    25962702.445 8 103212155.221 8        50.000
E25  24705372.813 7 129827614.214 7        46.700    24705372.512 8  96949186.311 8        49.000    24705371.043 8  99478290.026 8        48.800    24705372.051 8  98213740.770 8        52.100
E19  25678313.477 6 134940567.878 6        39.800    25678310.930 7 100767211.061 7        42.500    25678310.293 6 103395920.339 6        41.700    25678311.027 7 102081565.803 7        45.800
E12  22795635.078 7 119791868.707 7        46.600    22795630.516 8  89454942.595 8        48.900    22795630.234 8  91788550.475 8        49.200    22795630.328 8  90621749.141 8        52.400
E11  23054257.094 7 121150945.484 7        45.900    23054251.852 7  90469843.732 7        47.000    23054251.281 7  92829921.932 7        46.800    23054252.031 8  91649884.938 8        49.700
> 2018  8 30  2  3 57.0000000  0 32       0.000000000000
G08  24049937.938 6 126383248.205 6        36.200    24049940.164 2  98480454.378 2        15.600    24049939.598 5  98480455.456 5        33.200    24049940.715 7  94377096.266 7        42.200
G28  20782889.133 7 109214820.873 7        47.200    20782888.020 6  85102452.549 6        39.400
G18  22695282.422 6 119264500.010 6        41.300    22695282.945 4  92933371.612 4        26.100
G22  21173748.102 8 111268798.226 8        48.200    21173744.668 6  86702949.947 6        40.300
G01  21202532.594 7 111420056.488 7        47.300    21202534.672 6  86820829.192 6        39.600    21202534.469 8  86820830.210 8        48.100    21202532.695 8  83203287.737 8        53.500
G03  20416031.383 8 107286984.371 8        50.100    20416031.969 6  83600255.159 6        40.900    20416032.539 8  83600268.155 8        49.000    20416033.168 9  80116911.819 9        54.800
R10  23488073.766 7 125204655.184 7        44.200    23488072.676 7 125204643.175 7        42.800    23488071.391 6  97381387.889 6        36.100
G17  22502416.211 8 118250969.591 8        50.000    22502415.418 6  92143646.712 6        37.800    22502414.973 7  92143687.724 7        45.100
J01  36928386.391 7 194059987.215 7        43.700    36928386.824 7 194060002.200 7        47.400    36928384.023 7 194059988.115 7        42.600    36928385.316 7 151215589.137 7        44.300    36928389.004 8 144914935.915 8        49.600    36928378.785 7 157516192.520 7        46.300
R09  21593968.227 7 115310593.476 7        47.200    21593967.336 7 115310582.476 7        45.600    21593961.973 7  89686000.993 7        44.900
R19  20686624.844 7 110659506.828 7        44.100    20686622.934 7 110659499.847 7        42.500    20686616.105 7  86068511.615 7        45.200
G06  24401048.664 5 128228358.532 5        31.600    24401051.742 2  99918233.707 2        13.900    24401051.094 5  99918244.726 5        33.800    24401050.605 6  95754977.021 6        40.600
R16  22685586.133 6 121182301.424 6        41.600    22685584.578 6 121182290.430 6        39.800    22685579.305 6  94252869.685 6        39.200
G19  24352414.922 6 127972806.801 6        38.900    24352412.715 4  99719061.962 4        26.300
G11  21476566.891 7 112860111.453 7        46.700    21476565.742 6  87942935.696 6        37.100
R18  20699802.773 8 110496951.009 8        50.000    20699802.426 8 110496951.023 8        48.500    20699797.656 7  85942035.866 7        45.700
R03  20450291.758 8 109472050.138 8        48.000    20450291.602 7 109472046.151 7        46.600    20450284.855 7  85144928.580 7        47.500
R04  21327825.609 7 114209580.166 7        46.500    21327825.828 7 114209549.172 7        44.700    21327818.930 7  88829652.923 7        42.900
R02  23167696.320 6 123627250.141 6        38.700    23167693.781 6 123627247.136 6        36.500    23167689.074 5  96154561.861 5        30.300
C13  38378437.648 6 199846595.915 6        41.500    38378435.090 7 154534053.785 7        42.700    38378425.270 7 162391676.832 7        43.700
C07  37384100.125 6 194668810.416 6        40.600    37384089.750 7 150530226.193 7        43.800    37384081.219 7 158184269.310 7        44.600
C10  37151810.492 7 193459220.200 7        43.100    37151802.766 7 149594903.832 7        44.300    37151793.148 7 157201387.326 7        44.600
C08  36758563.719 7 191411487.857 7        45.100    36758553.316 7 148011462.407 7        46.500    36758545.242 7 155537432.447 7        47.000
C04  37426184.320 6 194887960.108 6        39.200    37426172.957 7 150699686.568 7        43.200    37426167.785 7 158362361.109 7        44.100
C03  37879177.047 6 197246804.398 6        36.400    37879167.164 7 152523704.318 7        43.700    37879161.207 7 160279125.397 7        43.400
C01  37085177.875 6 193112248.106 6        39.800    37085163.500 7 149326580.363 7        45.400    37085158.480 7 156919434.798 7        44.200
E24  23729179.539 7 124697667.785 7        46.200    23729189.621 7  93118419.208 7        47.300    23729188.297 7  95547590.312 7        47.600    23729189.426 8  94333006.363 8        51.300
E04  25962212.133 7 136432366.317 7        42.100    25962211.199 7 101881315.645 7        45.500    25962210.742 7 104539078.013 7        46.900    25962211.105 8 103210201.932 8        50.000
E25  24705469.766 7 129828122.655 7        46.800    24705469.211 8  96949565.992 8        49.000    24705467.770 8  99478679.617 8        48.700    24705468.816 8  98214125.407 8        51.900
E19  25678246.523 6 134940214.744 6        39.500    25678244.004 7 100766947.363 7        42.200    25678243.184 6 103395649.752 6        41.600    25678243.836 7 102081298.669 7        45.700
E12  22795804.453 7 119792758.474 7        46.800    22795799.789 8  89455607.029 8        49.000    22795799.574 8  91789232.254 8        49.000    22795799.645 8  90622422.245 8        52.400
E11  23054079.391 7 121150011.950 7        46.200    23054074.148 7  90469146.617 7        46.900    23054073.594 7  92829206.622 7        46.800    23054074.391 8  91649178.721 8        49.600
