     3.04           OBSERVATION DATA    M                   RINEX VERSION / TYPE
sbf2rin-15.9.0                          20240624 104145 UTC PGM / RUN BY / DATE 
SEPT                                                        MARKER NAME         
Unknown                                                     MARKER NUMBER       
Unknown             Unknown                                 OBSERVER / AGENCY   
3605054             SEPT MOSAIC-X5      4.14.4              REC # / TYPE / VERS 
Unknown             Unknown                                 ANT # / TYPE        
 -3817680.7270  3562839.5216  3650159.2407                  APPROX POSITION XYZ 
        0.0000        0.0000        0.0000                  ANTENNA: DELTA H/E/N
G   17 X1  C1C L1C D1C S1C C2W L2W D2W S2W C2L L2L D2L S2L  SYS / # / OBS TYPES 
       C5Q L5Q D5Q S5Q                                      SYS / # / OBS TYPES 
E   13 X1  C1C L1C D1C S1C C5Q L5Q D5Q S5Q C7Q L7Q D7Q S7Q  SYS / # / OBS TYPES 
R    9 X1  C1C L1C D1C S1C C2C L2C D2C S2C                  SYS / # / OBS TYPES 
C   13 X1  C2I L2I D2I S2I C7I L7I D7I S7I C6I L6I D6I S6I  SYS / # / OBS TYPES 
J   13 X1  C1C L1C D1C S1C C2L L2L D2L S2L C5Q L5Q D5Q S5Q  SYS / # / OBS TYPES 
SEPTENTRIO RECEIVERS OUTPUT ALIGNED CARRIER PHASES.         COMMENT             
NO FURTHER PHASE SHIFT APPLIED IN THE RINEX ENCODER.        COMMENT             
G L1C                                                       SYS / PHASE SHIFT   
G L2W                                                       SYS / PHASE SHIFT   
G L2L  0.00000                                              SYS / PHASE SHIFT   
G L5Q  0.00000                                              SYS / PHASE SHIFT   
E L1C  0.00000                                              SYS / PHASE SHIFT   
E L5Q  0.00000                                              SYS / PHASE SHIFT   
E L7Q  0.00000                                              SYS / PHASE SHIFT   
R L1C                                                       SYS / PHASE SHIFT   
R L2C                                                       SYS / PHASE SHIFT   
C L2I                                                       SYS / PHASE SHIFT   
C L7I                                                       SYS / PHASE SHIFT   
C L6I                                                       SYS / PHASE SHIFT   
J L1C                                                       SYS / PHASE SHIFT   
J L2L  0.00000                                              SYS / PHASE SHIFT   
J L5Q  0.00000                                              SYS / PHASE SHIFT   
     1.000                                                  INTERVAL            
  2024     6    24     8    20    0.0000000     GPS         TIME OF FIRST OBS   
  2024     6    24     8    25    0.0000000     GPS         TIME OF LAST OBS    
    57                                                      # OF SATELLITES     
 C1C    0.000 C2C    0.000                                  GLONASS COD/PHS/BIS 
DBHZ                                                        SIGNAL STRENGTH UNIT
    18                                                      LEAP SECONDS        
  9 R01  1 R02 -4 R03  5 R11  0 R12 -1 R13 -2 R17  4 R18 -3 GLONASS SLOT / FRQ #
    R24  2                                                  GLONASS SLOT / FRQ #
                                                            END OF HEADER       
> 2024 06 24 08 20  0.0000000  0 57
C01         9.000    36689218.704 7 191050392.04107       305.142 7        43.469    36689213.246 6 147732262.34806       236.104 6        39.625    36689214.455 7 155244076.92107       248.012 7        45.906
C02        44.000    38962419.787 6 202887544.61006       354.381 6        36.219    38962414.919 5 156885502.58505       273.844 5        34.594    38962417.166 6 164862736.98106       287.952 6        38.313
C03        54.000    37375957.784 7 194626420.17007       316.085 7        42.250    37375950.864 6 150497468.52806       244.597 6        37.031    37375952.100 7 158149887.91907       256.968 7        44.406
C04        26.000    37591026.691 7 195746345.24007       290.374 7        42.250    37591019.194 6 151363459.60506       224.473 6        38.563    37591020.157 7 159059908.50907       235.928 7        43.375
C05        60.000    41654777.792 6 216907360.24806       358.305 6        36.438    41654779.372 5 167726537.71305       277.094 5        32.031    41654776.369 5 176254995.24605       291.159 5        35.281
C06        17.000    38928403.800 6 202710447.70406      1648.248 6        38.719    38928400.141 5 156748579.55805      1274.632 5        34.000    38928398.775 7 164718835.14507      1339.391 7        42.063
C07        40.000    41173842.153 5 214402919.07305     -1122.075 5        33.969    41173848.056 5                      -867.908 5        31.156    41173842.980 6 174219890.49006      -912.010 6        38.406
C08        39.000    36757173.209 7 191404255.34707      1030.281 7        42.875    36757163.483 6 148005873.82506       796.701 6        40.063    36757162.514 7 155531593.84507       837.233 7        46.781
C10        30.000    40678928.257 5 211825773.65505     -1250.139 5        32.500    40678934.703 5                      -967.080 5        31.125    40678929.336 6 172125770.41306     -1015.994 6        36.438
C13        32.000    37228267.343 7 193857369.03907      1080.041 7        44.031    37228266.289 6 149902809.65106       835.105 6        37.813    37228264.065 7 157524976.82907       877.615 7        45.938
C16        49.000    38993500.120 6 203049435.97406      1592.442 6        40.781    38993500.838 5 157010693.67705      1231.336 5        34.156    38993497.919 6 164994301.61706      1293.997 6        40.688
C23        47.000    24503597.381 7 127596785.10007      3049.365 7        44.250                                                                    24503588.693 7 103682856.80707      2477.878 7        46.063
C24        41.000    26035709.999 6 135574771.76606     -1472.949 6        40.438                                                                    26035705.720 6 110165590.31406     -1196.739 6        38.094
C25        48.000    23589295.873 7 122835695.62807       890.299 7        46.281                                                                    23589291.713 7  99814064.71907       723.490 7        47.000
C27        31.000    23505330.279 7 122398388.66907     -2092.749 7        44.875                                                                    23505328.499 7  99458694.07407     -1700.547 7        46.656
C28        23.000    25862810.370 5 134674334.50605     -2911.709 5        35.813                                                                    25862814.058 6 109433904.49506     -2366.082 6        38.406
C30        42.000    23957311.259 7 124752009.45507       269.759 7        46.125                                                                    23957310.384 7 101371226.98007       219.122 7        46.531
C32        43.000    23136636.620 7 120478563.42707      1595.968 7        47.031                                                                    23136633.584 8  97898704.15008      1296.864 8        49.781
C33        56.000    25890157.061 6 134816793.14706     -1795.333 6        41.906                                                                    25890168.401 6 109549719.15506     -1458.875 6        41.250
C38        51.000    36066739.644 7 187808978.02007       829.413 7        46.875                                                                    36066733.302 8 152610155.88208       673.935 8        51.563
C39        58.000    38054788.719 7 198161304.66207      1531.640 7        44.031                                                                    38054784.461 7 161022286.39607      1244.604 7        46.000
C40        59.000    41234367.718 5 214718032.69605     -1377.242 5        34.719                                                                    41234375.790 5 174475966.56605     -1119.082 5        33.281
C41        16.000    22680301.210 8 118102276.36308      -531.929 8        48.563                                                                    22680303.451 8  95967779.50608      -432.263 8        52.188
C59        22.000    36907864.314 7 192188939.84007       333.641 7        45.281                                                                    36907848.524 8 156169188.97208       271.167 8        49.969
C60        53.000    39490949.842 6 205639743.37106       325.412 6        38.281                                                                    39490936.431 7 167099077.57107       264.368 7        42.250
E04        20.000    24494249.114 7 128718180.96007      1490.131 7        44.625    24494247.975 6  96120730.71006      1112.767 6        38.688    24494246.800 6  98628225.64006      1141.724 6        41.313
E09        50.000    28500192.260 5 149769556.47605      2562.297 5        34.125
E10        18.000    23917070.841 7 125685061.96807       966.525 7        46.063    23917068.592 6  93855724.67106       721.775 6        40.250    23917067.842 7  96304131.28307       740.606 7        42.375
E11        29.000    24501075.099 6 128754049.63606      2304.336 6        41.063    24501070.747 5  96147504.87705      1720.741 5        32.719    24501069.749 5  98655694.29005      1765.603 5        34.344
E12        25.000    23730288.757 6 124703501.95506      -455.862 6        41.875    23730284.727 6  93122726.07006      -340.265 6        38.125    23730283.626 6  95552010.45306      -349.261 6        40.813
E19        12.000    23824979.643 7 125201109.01507      -961.377 7        42.469    23824976.215 5  93494320.48405      -718.010 5        35.219    23824975.223 6  95933299.51906      -736.922 6        37.156
E21         6.000    28277722.835 5 148600445.42005      2430.638 5        35.906    28277728.404 5 110967887.58005      1815.012 5        30.344    28277726.601 5                      1862.438 5        32.344
E27        45.000    28675507.492 6 150690815.30406      1086.153 6        36.781    28675511.047 4                       811.168 4        29.156    28675509.899 5                       832.079 5        30.875
E33        35.000    26133014.420 6 137329870.78806     -2617.563 6        41.094    26133016.947 5 102551511.80905     -1954.584 5        32.000    26133016.229 6 105226762.91506     -2005.813 6        36.563
G05         5.000    20437584.735 7 107400233.90107        39.609 7        47.031    20437579.112 8  83688469.71508        30.865 8        49.156    20437579.223 7  83688458.72507        30.918 7        46.844
G07         7.000    25974293.278 5 136495814.06605     -2651.913 5        32.344    25974290.962 3 106360352.53303     -2066.443 3        20.344    25974291.007 4 106360376.57804     -2066.678 4        28.094
G11        11.000    23420424.755 6 123075105.70406     -3255.149 6        41.938    23420424.025 4  95902646.98104     -2536.472 4        25.906    23420424.643 6  95902643.97306     -2536.407 6        39.281    23420429.625 5  91906717.74305     -2430.815 5        34.250
G13        13.000    19949559.087 7 104835649.64007      -649.778 7        46.875    19949552.526 6  81690093.17806      -506.319 6        39.094
G14        33.000    25038579.018 6 131578654.22306      2019.300 6        37.406    25038579.253 3 102528810.61803      1573.475 3        20.188    25038579.252 6 102528806.62106      1573.423 6        36.688    25038584.953 5  98256793.08905      1508.347 5        31.969
G15        15.000    20511611.832 7 107789283.37307      1623.807 7        47.094    20511606.820 7  83991643.49707      1265.302 7        46.844    20511606.529 7  83991640.50807      1265.312 7        44.313
G18        27.000    23012901.796 7 120933658.62407      3187.276 7        42.000    23012899.455 4  94234021.54904      2483.588 4        28.500    23012898.836 6  94234023.57006      2483.542 6        41.844    23012903.399 6  90307626.89306      2380.037 6        36.313
G20         4.000    21123352.125 7 111003947.21007     -1217.572 7        46.313    21123346.725 5  86496550.98405      -948.753 5        35.563
G22        52.000    25207612.922 6 132466904.95906      2303.302 6        38.500    25207612.678 2 103220969.96902      1794.769 2        15.844
G24         3.000    23568387.641 6 123852767.50906      4245.801 6        37.656    23568392.356 5  96508683.48405      3308.405 5        31.875    23568391.345 6  96508704.53206      3308.257 6        37.906    23568394.031 5  92487505.64905      3170.309 5        33.438
G29         8.000    23956650.672 6 125893004.47506     -1886.897 6        41.375    23956649.477 4  98098417.15804     -1470.302 4        29.625    23956648.343 5  98098411.16405     -1470.844 5        32.281
G30         1.000    23254918.985 7 122205411.15107     -1972.452 7        42.906    23254916.993 6  95224983.80006     -1536.977 6        39.750    23254916.570 6  95224970.80106     -1536.935 6        39.219    23254917.091 6  91257277.20106     -1473.000 6        36.250
J03        46.000    37053986.361 7 194720004.28907       546.622 7        44.375    37053983.121 7 151729852.46707       425.980 7        46.500    37053985.300 6 145407785.11006       408.093 6        39.875
J07        21.000    37132768.689 6 195134019.19806       321.385 6        38.563    37132764.839 7 152052457.80007       250.406 7        44.469    37132767.317 6 145716957.58606       240.015 6        39.500
R01        37.000    21338241.321 7 114065114.57407     -1676.029 7        45.563    21338238.749 6  88717285.60306     -1303.721 6        40.156
R02         2.000    20188391.642 8 107729136.35408       418.104 8        51.406    20188387.942 8  83789324.39808       325.236 8        48.188
R03        34.000    22571036.226 7 120824632.55707      2457.090 7        43.250    22571033.713 6  93974757.67406      1911.020 6        40.906
R11        36.000    22126595.215 7 118237853.65107       198.958 7        47.781    22126592.645 7  91962781.16707       154.761 7        44.000
R12        24.000    22133540.363 7 118233570.88007      3569.546 7        47.219    22133542.008 7  91959516.12307      2776.369 7        42.156
R13        55.000    24334007.268 5 129942249.54805      4328.346 5        34.469    24334017.534 5 101066244.60805      3366.310 5        31.281
R17        10.000    19959023.039 8 106804759.65808      -422.696 8        50.375    19959019.375 8  83070353.53108      -328.800 8        48.656
R18        57.000    21974314.394 7 117300405.24007      3109.333 7        44.906    21974312.886 7  91233663.76207      2418.472 7        43.438
R24        19.000    21717710.433 7 116134296.54907     -3739.741 7        46.250    21717710.454 7  90326646.06407     -2908.688 7        45.125
> 2024 06 24 08 20  1.0000000  0 57
C01         9.000    36689160.036 7 191050086.68807       305.573 7        43.344    36689154.703 6 147732026.23606       236.255 6        39.844    36689155.828 7 155243828.80307       248.279 7        45.875
C02        44.000    38962351.626 6 202887190.17806       354.769 6        36.188    38962347.161 5 156885228.48905       274.100 5        34.656    38962349.027 6 164862448.97106       288.309 6        38.469
C03        54.000    37375896.970 7 194626103.76107       316.605 7        42.156    37375890.144 6 150497223.87506       244.803 6        36.969    37375891.357 7 158149630.81607       257.294 7        44.375
C04        26.000    37590970.809 7 195746054.69807       290.878 7        42.219    37590963.496 6 151363234.94006       224.823 6        38.719    37590964.383 7 159059672.41807       236.311 7        43.344
C05        60.000    41654709.175 6 216907001.81806       358.636 6        36.219    41654710.635 5 167726260.57905       277.035 5        31.813    41654707.489 5 176254703.97805       291.439 5        35.000
C06        17.000    38928087.357 6 202708799.24606      1648.546 6        38.625    38928083.229 5 156747304.84705      1274.741 5        33.938    38928082.191 7 164717495.64707      1339.725 7        42.031
C07        40.000    41174057.962 5 214404041.27805     -1121.749 5        34.188    41174063.128 5                      -867.813 5        31.063    41174058.528 6 174220802.34706      -911.662 6        38.250
C08        39.000    36756975.352 7 191403224.88207      1030.648 7        42.688    36756965.589 6 148005076.99106       797.162 6        39.906    36756964.652 7 155530756.50807       837.649 7        46.625
C10        30.000    40679168.421 5 211827024.04205     -1249.996 5        32.375    40679174.476 5                      -966.828 5        31.156    40679169.505 6 172126786.43506     -1015.897 6        36.156
C13        32.000    37228059.766 7 193856288.80507      1080.429 7        44.000    37228059.001 6 149901974.35006       835.392 6        37.844    37228056.617 7 157524099.05107       878.005 7        45.813
C16        49.000    38993194.302 6 203047843.43006      1592.736 6        40.625    38993195.021 5 157009462.22105      1231.753 5        34.313    38993192.041 6 164993007.55106      1294.243 6        40.844
C23        47.000    24503011.661 7 127593735.65607      3049.591 7        44.219                                                                    24503003.074 7 103680378.89307      2478.080 7        45.906
C24        41.000    26035992.841 6 135576244.73006     -1473.012 6        40.438                                                                    26035988.627 6 110166787.23406     -1196.856 6        38.219
C25        48.000    23589124.885 7 122834805.40607       890.181 7        46.313                                                                    23589120.758 7  99813341.34707       723.367 7        47.063
C27        31.000    23505732.157 7 122400481.47907     -2092.614 7        44.781                                                                    23505730.404 7  99460394.65307     -1700.452 7        46.625
C28        23.000    25863369.332 5 134677246.09305     -2911.472 5        35.688                                                                    25863373.146 6 109436270.40306     -2365.682 6        38.281
C30        42.000    23957259.578 7 124751739.91907       269.500 7        46.250                                                                    23957258.658 7 101371007.95307       219.031 7        46.469
C32        43.000    23136329.980 7 120476967.32707      1596.276 7        46.969                                                                    23136327.067 8  97897407.18808      1297.129 8        49.750
C33        56.000    25890501.938 6 134818588.35106     -1794.933 6        41.656                                                                    25890513.170 6 109551177.90406     -1458.571 6        41.344
C38        51.000    36066580.293 7 187808148.49207       829.816 7        46.906                                                                    36066573.997 8 152609481.82108       674.258 8        51.594
C39        58.000    38054494.551 7 198159772.87907      1531.929 7        44.094                                                                    38054490.297 7 161021041.69807      1244.800 7        45.969
C40        59.000    41234631.906 5 214719409.78105     -1376.738 5        35.031                                                                    41234640.327 5 174477085.56505     -1118.863 5        33.344
C41        16.000    22680403.313 8 118102808.19108      -531.662 8        48.594                                                                    22680405.585 8  95968211.65808      -431.970 8        52.219
C59        22.000    36907800.227 7 192188605.99307       334.081 7        45.250                                                                    36907784.441 8 156168917.69808       271.456 8        50.000
C60        53.000    39490887.454 6 205639417.77906       325.734 6        38.063                                                                    39490873.914 7 167098812.99207       264.829 7        42.250
E04        20.000    24493965.523 7 128716690.85007      1490.327 7        44.563    24493964.359 6  96119617.97506      1112.899 6        38.750    24493963.222 6  98627083.85906      1141.940 6        41.344
E09        50.000    28499704.445 5 149766993.97805      2562.731 5        34.063                                                                    28499711.818 4 114756574.06514      1963.688 4        26.500
E10        18.000    23916886.907 7 125684095.52807       966.443 7        46.125    23916884.561 6  93855002.98306       721.609 6        40.313    23916883.939 7  96303390.75807       740.627 7        42.375
E11        29.000    24500636.639 6 128751745.28806      2304.423 6        40.969    24500632.189 5  96145784.07305      1721.332 5        32.531    24500631.342 5  98653928.64005      1765.728 5        34.625
E12        25.000    23730375.463 6 124703957.91806      -455.913 6        41.875    23730371.547 6  93123066.57106      -340.634 6        38.406    23730370.426 6  95552359.82106      -349.341 6        40.906
E19        12.000    23825162.537 7 125202070.36307      -961.304 7        42.469    23825159.154 5  93495038.37505      -717.969 5        35.219    23825158.137 6  95934036.10306      -736.394 6        37.219
E21         6.000    28277260.174 5 148598014.51505      2431.075 5        35.875    28277265.987 5 110966072.26805      1815.275 5        30.625    28277264.007 5                      1862.632 5        32.594
E27        45.000    28675300.880 6 150689729.17506      1086.190 6        36.969    28675304.449 4                       810.827 4        29.094    28675303.261 5                       832.073 5        30.906
E33        35.000    26133512.505 6 137332488.31606     -2617.332 6        41.219    26133515.197 5 102553466.48105     -1954.690 5        32.281    26133514.276 6 105228768.54206     -2005.599 6        36.719
G05         5.000    20437577.203 7 107400194.29707        39.697 7        46.938    20437571.582 8  83688438.85608        30.936 8        49.219    20437571.603 7  83688427.86107        30.958 7        46.781
G07         7.000    25974798.258 5 136498465.94105     -2651.533 5        31.875    25974795.594 3 106362418.92603     -2066.142 3        19.625    25974794.743 4 106362442.92104     -2066.217 4        27.813
G11        11.000    23421044.160 6 123078360.75806     -3254.847 6        41.781    23421043.434 4  95905183.37804     -2536.244 4        26.000    23421043.914 6  95905180.38406     -2536.452 6        39.313    23421048.997 5  91909148.44405     -2430.406 5        34.469
G13        13.000    19949682.806 7 104836299.50107      -649.772 7        46.781    19949676.197 6  81690599.56406      -506.315 6        39.125
G14        33.000    25038194.436 6 131576635.00506      2019.203 6        37.594    25038194.952 3 102527237.21003      1573.391 3        20.031    25038195.403 6 102527233.20206      1573.454 6        36.656    25038200.837 5  98255285.25905      1507.809 5        31.906
G15        15.000    20511302.811 7 107787659.56107      1623.896 7        47.063    20511297.822 7  83990378.19107      1265.373 7        46.875    20511297.398 7  83990375.19907      1265.356 7        44.344
G18        27.000    23012295.331 6 120930471.38106      3187.212 6        41.875    23012292.924 4  94231537.99104      2483.535 4        28.469    23012292.015 6  94231539.99006      2483.657 6        41.688    23012296.902 6  90305246.81306      2380.086 6        36.594
G20         4.000    21123583.727 7 111005164.78107     -1217.460 7        46.281    21123578.422 5  86497499.73505      -948.670 5        35.594
G22        52.000    25207174.598 6 132464601.39506      2303.755 6        38.094    25207174.388 2 103219174.97602      1795.150 2        15.688
G24         3.000    23567579.541 6 123848521.72506      4245.971 6        37.625    23567584.419 5  96505375.08605      3308.540 5        31.813    23567583.405 6  96505396.12706      3308.495 6        37.438    23567586.015 5  92484335.07605      3170.643 5        33.531
G29         8.000    23957009.770 6 125894891.43406     -1886.800 6        41.219    23957008.593 4  98099887.51204     -1470.229 4        29.625    23957007.269 5  98099881.44805     -1470.125 5        32.281
G30         1.000    23255294.169 7 122207383.59807     -1972.428 7        42.875    23255292.354 6  95226520.77006     -1536.955 6        39.844    23255292.216 6  95226507.77406     -1536.798 6        39.313    23255292.384 6  91258750.13206     -1473.010 6        36.500
J03        46.000    37053882.335 7 194719457.48807       547.097 7        44.344    37053879.053 7 151729426.39607       426.152 7        46.563    37053881.222 6 145407376.78706       408.434 6        40.000
J07        21.000    37132707.666 6 195133697.66406       321.745 6        38.625    37132703.537 7 152052207.24507       250.726 7        44.500    37132706.113 6 145716717.47706       240.364 6        39.594
R01        37.000    21338554.938 7 114066790.50007     -1675.657 7        45.406    21338552.344 6  88718589.11606     -1303.453 6        39.906
R02         2.000    20188313.332 8 107728718.20208       418.315 8        51.406    20188309.376 8  83788999.17908       325.329 8        48.188
R03        34.000    22570577.213 7 120822175.33507      2457.433 7        43.344    22570574.728 6  93972846.50906      1911.222 6        41.000
R11        36.000    22126558.109 7 118237654.93407       198.517 7        47.656    22126555.213 7  91962626.60907       154.441 7        43.969
R12        24.000    22132872.165 7 118230001.34607      3569.571 7        47.219    22132873.809 7  91956739.81407      2776.503 7        42.031
R13        55.000    24333196.557 5 129937920.90105      4329.024 5        34.031    24333206.556 5 101062877.89605      3366.665 5        31.031
R17        10.000    19959102.020 8 106805182.64708      -423.171 8        50.438    19959098.334 8  83070682.52308      -329.173 8        48.750
R18        57.000    21973731.807 7 117297296.01907      3109.154 7        44.969    21973730.334 7  91231245.50307      2418.191 7        43.531
R24        19.000    21718409.926 7 116138036.29807     -3739.591 7        46.313    21718409.651 7  90329554.76007     -2908.670 7        45.063
> 2024 06 24 08 20  2.0000000  0 57
C01         9.000    36689101.427 7 191049781.22807       305.677 7        43.469    36689096.112 6 147731790.02506       236.525 6        39.500    36689097.183 7 155243580.59507       248.449 7        45.906
C02        44.000    38962283.809 6 202886835.63706       354.778 6        36.406    38962279.102 5 156884954.33605       274.307 5        34.656    38962280.889 6 164862160.87906       288.296 6        38.313
C03        54.000    37375836.004 7 194625787.25207       316.707 7        42.156    37375829.455 6 150496979.13506       244.991 6        36.781    37375830.592 7 158149373.62807       257.411 7        44.375
C04        26.000    37590915.039 7 195745764.06107       290.948 7        42.219    37590907.529 6 151363010.20606       224.843 6        38.719    37590908.568 7 159059436.24107       236.440 7        43.500
C05        60.000    41654640.204 6 216906643.27306       358.806 6        36.500    41654641.499 5 167725983.33305       277.521 5        31.750    41654638.630 5 176254412.64305       291.542 5        35.313
C06        17.000    38927770.945 6 202707150.75306      1648.660 6        38.781    38927766.725 5 156746030.14505      1274.635 5        34.313    38927765.585 7 164716156.11007      1339.682 7        42.031
C07        40.000    41174273.418 5 214405163.25005     -1121.541 5        33.750    41174278.513 5                      -867.540 5        30.781    41174274.080 6 174221714.05006      -911.503 6        38.531
C08        39.000    36756777.471 7 191402194.27707      1030.943 7        42.719    36756767.791 6 148004280.08606       797.031 6        40.000    36756766.759 7 155529919.05907       837.713 7        46.719
C10        30.000    40679409.061 5 211828274.21205     -1249.804 5        32.313    40679414.124 5                      -966.689 5        31.281    40679409.633 6 172127802.30206     -1015.689 6        36.219
C13        32.000    37227852.289 7 193855208.42807      1080.675 7        44.063    37227851.640 6 149901138.93206       835.688 6        38.094    37227849.112 7 157523221.14707       878.205 7        45.781
C16        49.000    38992888.454 6 203046250.88106      1592.690 6        40.750    38992889.192 5 157008230.78405      1231.596 5        34.094    38992886.124 6 164991713.47706      1294.288 6        40.906
C23        47.000    24502426.050 7 127590686.28307      3049.540 7        44.156                                                                    24502417.486 7 103677901.03507      2477.998 7        45.969
C24        41.000    26036275.823 6 135577718.01006     -1473.202 6        40.500                                                                    26036271.595 6 110167984.38906     -1197.109 6        38.594
C25        48.000    23588953.919 7 122833915.59107       889.746 7        46.313                                                                    23588949.915 7  99812618.29807       723.026 7        47.094
C27        31.000    23506134.169 7 122402574.49507     -2092.942 7        44.719                                                                    23506132.305 7  99462095.39907     -1700.633 7        46.656
C28        23.000    25863928.193 5 134680157.53605     -2911.364 5        35.844                                                                    25863932.298 6 109438636.16106     -2365.513 6        38.188
C30        42.000    23957207.923 7 124751470.82207       269.064 7        46.250                                                                    23957206.996 7 101370789.28807       218.637 7        46.625
C32        43.000    23136023.499 7 120475371.24307      1596.254 7        46.938                                                                    23136020.551 8  97896110.23708      1297.142 8        49.813
C33        56.000    25890846.490 6 134820383.48506     -1795.029 6        41.781                                                                    25890857.859 6 109552636.58206     -1458.503 6        41.438
C38        51.000    36066420.951 7 187807318.86307       829.907 7        46.906                                                                    36066414.673 8 152608807.68408       674.360 8        51.688
C39        58.000    38054200.417 7 198158241.10407      1531.832 7        44.125                                                                    38054196.112 7 161019797.00707      1244.905 7        46.031
C40        59.000    41234896.513 5 214720786.61905     -1376.873 5        35.344                                                                    41234904.870 5 174478204.29605     -1118.430 5        33.188
C41        16.000    22680505.416 8 118103340.03308      -531.703 8        48.531                                                                    22680507.706 8  95968643.82408      -431.990 8        52.250
C59        22.000    36907736.135 7 192188272.06807       334.220 7        45.438                                                                    36907720.345 8 156168646.35108       271.553 8        50.094
C60        53.000    39490824.990 6 205639092.07506       325.985 6        38.344                                                                    39490811.342 7 167098548.34007       264.926 7        42.313
E04        20.000    24493682.009 7 128715200.86507      1490.126 7        44.563    24493680.740 6  96118505.32906      1112.624 6        38.656    24493679.601 6  98625942.18806      1141.784 6        41.344
E09        50.000    28499216.767 5 149764431.51505      2562.662 5        34.031                                                                    28499224.713 4 114754610.59804      1963.281 4        26.625
E10        18.000    23916703.057 7 125683129.43307       966.132 7        46.125    23916700.819 6  93854281.54706       721.442 6        40.344    23916700.091 7  96302650.51407       740.269 7        42.406
E11        29.000    24500198.296 6 128749441.17706      2304.248 6        41.031    24500193.786 5  96144063.50005      1720.511 5        33.063    24500192.833 5  98652163.13605      1765.597 5        34.906
E12        25.000    23730462.358 6 124704414.22606      -456.355 6        41.969    23730458.187 6  93123407.30406      -340.666 6        38.281    23730457.367 6  95552709.46206      -349.673 6        40.844
E19        12.000    23825345.474 7 125203031.73107      -961.224 7        42.438    23825342.129 5  93495756.26005      -717.841 5        35.281    23825340.968 6  95934772.75206      -736.455 6        37.438
E21         6.000    28276797.651 5 148595583.58105      2431.206 5        35.875    28276803.381 5 110964256.98705      1815.778 5        30.156    28276801.664 5                      1862.647 5        32.750
E27        45.000    28675094.168 6 150688643.35206      1085.840 6        37.094    28675097.766 4                       810.319 4        28.719    28675096.300 5                       831.847 5        31.250
E33        35.000    26134010.694 6 137335105.93806     -2617.578 6        41.156    26134013.382 5 102555421.16905     -1954.568 5        32.219    26134012.405 6 105230774.24206     -2005.594 6        36.656
G05         5.000    20437569.687 7 107400154.96307        39.372 7        46.938    20437564.106 8  83688408.20408        30.683 8        49.188    20437564.147 7  83688397.20807        30.745 7        46.719
G07         7.000    25975303.595 5 136501117.93705     -2651.809 5        32.281    25975300.364 3 106364485.42003     -2066.335 3        18.906    25975299.015 4 106364509.36604     -2065.900 4        26.625
G11        11.000    23421663.705 6 123081615.92306     -3254.993 6        41.750    23421662.875 4  95907719.86404     -2536.351 4        25.938    23421663.078 6  95907716.85206     -2536.289 6        39.125    23421668.443 5  91911579.24605     -2430.431 5        34.219
G13        13.000    19949806.517 7 104836949.69707      -650.135 7        46.781    19949799.941 6  81691106.21106      -506.599 6        39.125
G14        33.000    25037810.141 6 131574615.90906      2019.276 6        37.625    25037810.706 3 102525663.89503      1573.480 3        19.844    25037811.403 6 102525659.89606      1573.422 6        36.844    25037816.702 5  98253777.51305      1507.726 5        32.250
G15        15.000    20510993.838 7 107786036.01107      1623.633 7        47.031    20510988.873 7  83989113.08907      1265.170 7        46.875    20510988.483 7  83989110.10507      1265.106 7        44.344
G18        27.000    23011688.794 6 120927284.40706      3187.020 6        41.875    23011686.434 4  94229054.63504      2483.392 4        28.406    23011685.597 6  94229056.64806      2483.475 6        41.656    23011690.522 6  90302866.92406      2380.021 6        36.406
G20         4.000    21123815.461 7 111006382.62507     -1217.743 7        46.156    21123810.160 5  86498448.70305      -948.888 5        35.469
G22        52.000    25206736.287 6 132462297.81706      2303.813 6        36.563    25206736.062 2 103217379.98102      1795.220 2        15.188
G24         3.000    23566771.551 6 123844275.94406      4245.992 6        37.375    23566776.486 5  96502066.69305      3308.561 5        31.750    23566775.443 6  96502087.73806      3308.729 6        37.313    23566777.997 5  92481164.54605      3170.551 5        33.313
G29         8.000    23957368.816 6 125896778.57106     -1887.127 6        41.219    23957367.744 4  98101357.99904     -1470.478 4        29.625    23957366.755 5  98101351.97305     -1470.192 5        32.406
G30         1.000    23255669.550 7 122209356.37907     -1972.719 7        42.813    23255667.774 6  95228058.00006     -1537.180 6        39.875    23255667.469 6  95228045.00306     -1537.233 6        39.313    23255667.745 6  91260223.31206     -1473.154 6        36.563
J03        46.000    37053778.226 7 194718910.67807       546.922 7        44.375    37053774.964 7 151729000.29907       426.291 7        46.531    37053777.190 6 145406968.43606       408.515 6        40.188
J07        21.000    37132646.477 6 195133376.01706       321.904 6        38.469    37132642.251 7 152051956.61207       250.869 7        44.406    37132644.820 6 145716477.28706       240.348 6        39.719
R01        37.000    21338868.568 7 114068466.38907     -1675.640 7        45.469    21338865.671 6  88719892.56706     -1303.228 6        39.875
R02         2.000    20188234.973 8 107728300.19608       418.159 8        51.375    20188231.174 8  83788674.05808       325.202 8        48.219
R03        34.000    22570118.144 7 120819718.18307      2457.321 7        43.563    22570115.776 6  93970935.40506      1911.252 6        40.906
R11        36.000    22126521.152 7 118237456.95307       197.833 7        47.750    22126518.062 7  91962472.62807       153.929 7        43.813
R12        24.000    22132203.822 7 118226432.06207      3569.342 7        47.125    22132205.366 6  91953963.71906      2776.296 6        41.875
R13        55.000    24332385.676 5 129933591.94805      4329.083 5        33.656    24332396.517 5 101059510.95005      3367.192 5        31.000
R17        10.000    19959181.258 8 106805606.48108      -424.004 8        50.406    19959177.473 8  83071012.15608      -329.711 8        48.781
R18        57.000    21973149.622 7 117294187.37407      3108.513 7        45.000    21973147.847 7  91228827.66007      2417.833 7        43.656
R24        19.000    21719109.320 7 116141776.28907     -3739.938 7        46.219    21719109.113 7  90332463.62407     -2908.793 7        44.875
> 2024 06 24 08 20  3.0000000  0 57
C01         9.000    36689042.665 7 191049475.52607       305.759 7        43.406    36689037.543 6 147731553.64406       236.389 6        39.500    36689038.470 7 155243332.18407       248.464 7        45.969
C02        44.000    38962215.697 6 202886480.82906       354.853 6        36.188    38962211.286 5 156884679.97905       274.379 5        34.406    38962212.831 6 164861872.59006       287.946 6        38.281
C03        54.000    37375775.283 7 194625470.50607       316.638 7        42.125    37375768.426 6 150496734.21406       244.884 6        36.844    37375769.774 7 158149116.23407       257.408 7        44.469
C04        26.000    37590859.117 7 195745473.16807       290.904 7        42.219    37590851.589 6 151362785.26006       224.904 6        38.656    37590852.735 7 159059199.87107       236.390 7        43.469
C05        60.000    41654571.288 6 216906284.49006       358.653 6        36.375    41654572.636 5 167725705.85605       277.571 5        31.625    41654569.704 5 176254121.10105       291.457 5        35.219
C06        17.000    38927454.377 6 202705502.09106      1648.578 6        38.719    38927449.880 5 156744755.31005      1274.572 5        34.063    38927448.991 7 164714816.42907      1339.679 7        42.063
C07        40.000    41174488.888 5 214406284.91605     -1121.827 5        34.188    41174493.218 5                      -867.023 5        30.844    41174489.559 6 174222625.45106      -911.443 6        38.688
C08        39.000    36756579.488 7 191401163.40807      1030.715 7        42.688    36756569.624 6 148003482.93306       797.130 6        39.969    36756568.781 7 155529081.38807       837.576 7        46.750
C10        30.000    40679648.807 5 211829524.08705     -1249.731 5        32.375    40679654.093 5                      -966.275 5        30.750    40679649.645 6 172128817.90206     -1015.521 6        36.406
C13        32.000    37227644.658 7 193854127.74607      1080.661 7        44.000    37227644.005 6 149900303.29306       835.410 6        37.656    37227641.614 7 157522343.00807       878.097 7        45.906
C16        49.000    38992582.676 6 203044658.17006      1592.610 6        40.781    38992583.351 5 157006999.19605      1231.486 5        33.969    38992580.159 6 164990419.26106      1294.208 6        40.969
C23        47.000    24501840.321 7 127587636.83807      3049.262 7        44.094                                                                    24501831.874 7 103675423.11207      2477.852 7        45.906
C24        41.000    26036558.855 6 135579191.45706     -1473.787 6        40.594                                                                    26036554.641 6 110169181.66906     -1197.370 6        38.375
C25        48.000    23588783.142 7 122833026.02507       889.247 7        46.344                                                                    23588779.082 7  99811895.45207       722.602 7        47.031
C27        31.000    23506536.241 7 122404667.54807     -2093.240 7        44.656                                                                    23506534.262 7  99463796.17307     -1700.928 7        46.719
C28        23.000    25864486.986 6 134683068.61506     -2911.120 6        36.125                                                                    25864491.309 6 109441001.65406     -2365.422 6        38.406
C30        42.000    23957156.238 7 124751201.98607       268.509 7        46.219                                                                    23957155.354 7 101370570.84407       218.132 7        46.563
C32        43.000    23135716.915 7 120473775.00307      1596.130 7        46.906                                                                    23135713.997 8  97894813.16808      1296.971 8        49.750
C33        56.000    25891191.062 6 134822178.35106     -1794.981 6        41.813                                                                    25891202.568 6 109554095.06606     -1458.492 6        41.375
C38        51.000    36066261.569 7 187806489.00007       829.796 7        46.844                                                                    36066255.307 8 152608133.35208       674.281 8        51.625
C39        58.000    38053906.265 7 198156709.18407      1531.887 7        44.094                                                                    38053901.904 7 161018552.20107      1244.738 7        45.969
C40        59.000    41235160.985 5 214722163.07605     -1376.526 5        35.344                                                                    41235169.235 5 174479322.80905     -1118.623 5        33.563
C41        16.000    22680607.508 8 118103871.73808      -531.843 8        48.500                                                                    22680609.801 8  95969075.88308      -432.151 8        52.219
C59        22.000    36907671.949 7 192187937.87207       334.101 7        45.219                                                                    36907656.182 8 156168374.79508       271.530 8        50.094
C60        53.000    39490762.226 6 205638766.12806       325.876 6        38.188                                                                    39490748.695 7 167098283.48907       264.827 7        42.250
E04        20.000    24493398.514 7 128713710.84007      1489.814 7        44.594    24493397.299 6  96117392.63406      1112.605 6        38.875    24493396.006 6  98624800.48606      1141.571 6        41.125
E09        50.000    28498729.069 5 149761868.90405      2562.466 5        34.281                                                                    28498737.138 4 114752647.05304      1963.310 4        26.344
E10        18.000    23916519.237 7 125682163.53307       965.602 7        46.094    23916517.051 6  93853560.26706       720.960 6        40.250    23916516.269 7  96301910.41107       739.889 7        42.344
E11        29.000    24499759.827 6 128747137.11006      2303.934 6        40.750    24499755.445 5  96142342.93105      1720.564 5        33.031    24499754.450 5  98650397.69705      1765.223 5        34.469
E12        25.000    23730549.223 7 124704870.74807      -456.808 7        42.000    23730544.959 6  93123748.21806      -341.040 6        38.219    23730544.242 6  95553059.25906      -349.996 6        40.844
E19        12.000    23825528.373 7 125203992.99807      -961.467 7        42.406    23825524.977 5  93496474.10105      -718.000 5        35.438    23825523.868 6  95935509.30906      -736.809 6        37.156
E21         6.000    28276335.102 5 148593152.53105      2430.838 5        35.969    28276340.958 5 110962441.61405      1815.157 5        31.125    28276339.083 5                      1862.780 5        32.688
E27        45.000    28674887.617 6 150687557.62106      1085.348 6        37.219    28674891.338 4                       810.616 4        28.719    28674889.819 5                       831.995 5        30.781
E33        35.000    26134508.824 6 137337723.44406     -2617.662 6        41.031    26134511.541 5 102557375.81505     -1954.733 5        32.438    26134510.622 6 105232779.85606     -2005.700 6        36.656
G05         5.000    20437562.228 7 107400115.70907        38.962 7        46.906    20437556.638 8  83688377.61608        30.361 8        49.219    20437556.546 7  83688366.62207        30.377 7        46.750
G07         7.000    25975807.818 5 136503769.82905     -2652.242 5        31.906    25975804.955 2 106366551.81602     -2066.653 2        17.875    25975804.022 4 106366575.70404     -2065.742 4        24.969
G11        11.000    23422283.144 6 123084871.04306     -3255.352 6        41.781    23422282.320 4  95910256.31804     -2536.625 4        25.875    23422282.480 6  95910253.29706     -2536.556 6        39.250    23422287.802 5  91914010.00605     -2430.883 5        34.313
G13        13.000    19949930.254 7 104837600.06307      -650.643 7        46.750    19949923.711 6  81691612.99006      -506.995 6        39.094
G14        33.000    25037425.993 6 131572596.80606      2018.955 6        37.938    25037426.450 3 102524090.57003      1573.207 3        19.469    25037427.078 6 102524086.57106      1573.250 6        36.875    25037432.280 5  98252269.74205      1507.468 5        32.156
G15        15.000    20510684.857 7 107784412.59207      1623.191 7        47.063    20510679.947 7  83987848.08907      1264.823 7        46.875    20510679.649 7  83987845.09607      1264.869 7        44.344
G18        27.000    23011082.364 6 120924097.58306      3186.511 6        41.844    23011079.965 4  94226571.39804      2482.994 4        28.313    23011079.171 6  94226573.39606      2483.151 6        41.750    23011084.059 6  90300487.15006      2379.336 6        36.438
G20         4.000    21124047.214 7 111007600.56907     -1218.143 7        46.281    21124041.920 5  86499397.74705      -949.199 5        35.469
G22        52.000    25206297.874 6 132459994.07006      2303.535 6        36.031    25206297.641 2 103215584.85602      1794.952 2        15.313
G24         3.000    23565963.725 6 123840030.05806      4245.813 6        37.563    23565968.482 5  96498758.22105      3308.421 5        31.750    23565967.533 6  96498779.25706      3308.343 6        37.719    23565969.733 5  92477993.90805      3170.657 5        33.438
G29         8.000    23957727.917 6 125898665.73106     -1887.348 6        41.063    23957726.901 4  98102828.51104     -1470.659 4        29.563    23957726.246 5  98102822.53905     -1470.843 5        32.813
G30         1.000    23256044.819 7 122211329.31607     -1973.302 7        42.781    23256043.220 6  95229595.35506     -1537.638 6        39.906    23256043.178 6  95229582.35606     -1537.481 6        39.438    23256043.259 6  91261696.61006     -1473.509 6        36.469
J03        46.000    37053674.054 7 194718363.67307       546.897 7        44.375    37053670.679 7 151728574.07007       426.136 7        46.563    37053673.131 6 145406559.97106       408.400 6        39.938
J07        21.000    37132585.418 6 195133054.12306       321.693 6        38.438    37132580.897 7 152051705.77607       250.736 7        44.469    37132583.486 6 145716236.90706       240.295 6        39.563
R01        37.000    21339181.898 7 114070142.07407     -1675.748 7        45.563    21339179.442 6  88721195.87206     -1303.333 6        40.156
R02         2.000    20188156.574 8 107727882.14108       417.906 8        51.281    20188152.712 8  83788348.90608       325.048 8        48.156
R03        34.000    22569658.897 7 120817260.91707      2457.142 7        43.531    22569656.711 6  93969024.20306      1911.211 6        41.063
R11        36.000    22126484.268 7 118237259.54907       196.908 7        47.844    22126481.234 7  91962319.09307       153.216 7        43.813
R12        24.000    22131535.582 7 118222862.88207      3568.962 7        47.063    22131537.048 7  91951187.69707      2775.819 7        42.156
R13        55.000    24331574.169 5 129929262.51905      4329.555 5        33.375    24331585.689 5 101056143.61105      3367.367 5        30.656
R17        10.000    19959260.613 8 106806030.99008      -425.043 8        50.375    19959256.684 8  83071342.33408      -330.586 8        48.813
R18        57.000    21972567.129 7 117291079.13007      3107.806 7        45.125    21972565.510 7  91226410.14907      2417.259 7        43.563
R24        19.000    21719808.665 7 116145516.33707     -3740.263 7        46.250    21719808.607 7  90335372.55407     -2909.087 7        45.094
> 2024 06 24 08 20  4.0000000  0 57
C01         9.000    36688983.966 7 191049169.74307       305.441 7        43.438    36688978.741 6 147731317.20206       236.134 6        39.625    36688979.740 7 155243083.70907       248.213 7        46.031
C02        44.000    38962147.751 6 202886125.96306       354.467 6        36.219    38962143.000 5 156884405.57905       273.935 5        34.375    38962144.670 6 164861584.20906       288.286 6        38.469
C03        54.000    37375714.340 7 194625153.64907       316.525 7        42.125    37375707.545 6 150496489.18706       244.719 6        36.594    37375708.933 7 158148858.78107       257.113 7        44.344
C04        26.000    37590803.199 7 195745182.18207       290.658 7        42.375    37590795.814 6 151362560.25006       224.833 6        38.594    37590796.822 7 159058963.42207       236.180 7        43.688
C05        60.000    41654502.340 6 216905925.59206       358.348 6        36.094    41654503.961 5 167725428.37105       277.280 5        31.594    41654500.761 5 176253829.46205       291.395 5        34.969
C06        17.000    38927137.592 6 202703853.38906      1648.459 6        38.594    38927133.423 5 156743480.39605      1274.731 5        33.781    38927132.367 7 164713476.74007      1339.307 7        42.094
C07        40.000    41174704.198 5 214407406.34605     -1121.708 5        34.563    41174709.532 5                      -867.095 5        30.844    41174705.057 6 174223536.72606      -911.589 6        38.938
C08        39.000    36756381.456 7 191400132.39107      1030.744 7        42.719    36756371.826 6 148002685.70906       796.853 6        39.969    36756370.779 7 155528243.61407       837.388 7        46.719
C10        30.000    40679888.812 5 211830773.76805     -1250.030 5        32.219    40679894.058 5                      -966.356 5        30.594    40679889.638 6 172129833.38806     -1015.733 6        36.250
C13        32.000    37227437.204 7 193853046.96307      1080.464 7        43.969    37227436.345 6 149899467.54906       835.539 6        37.750    37227434.018 7 157521464.78107       878.018 7        45.906
C16        49.000    38992276.752 6 203043065.42906      1592.425 6        40.781    38992277.662 5 157005767.60105      1231.121 5        34.094    38992274.261 6 164989125.04706      1293.961 6        40.844
C23        47.000    24501254.681 7 127584587.46607      3048.943 7        44.063                                                                    24501246.277 7 103672945.24807      2477.545 7        46.063
C24        41.000    26036842.086 6 135580665.22206     -1474.392 6        40.719                                                                    26036837.751 6 110170379.25106     -1198.051 6        38.500
C25        48.000    23588612.382 7 122832136.88007       888.426 7        46.438                                                                    23588608.323 7  99811172.95107       722.034 7        47.125
C27        31.000    23506938.193 7 122406760.82307     -2093.763 7        44.781                                                                    23506936.273 7  99465497.12607     -1701.358 7        46.719
C28        23.000    25865045.990 6 134685979.52706     -2911.151 6        36.563                                                                    25865050.306 6 109443367.00306     -2365.568 6        38.750
C30        42.000    23957104.596 7 124750933.61107       267.757 7        46.188                                                                    23957103.811 7 101370352.76007       217.562 7        46.719
C32        43.000    23135410.390 7 120472178.78107      1595.802 7        46.969                                                                    23135407.443 8  97893516.10308      1296.758 8        49.969
C33        56.000    25891535.780 6 134823973.14906     -1795.135 6        41.813                                                                    25891547.283 6 109555553.49706     -1458.793 6        41.375
C38        51.000    36066102.323 7 187805659.05507       829.573 7        46.875                                                                    36066095.910 8 152607458.94808       674.110 8        51.688
C39        58.000    38053612.044 7 198155177.28107      1531.512 7        44.031                                                                    38053607.701 7 161017307.40507      1244.501 7        46.094
C40        59.000    41235425.372 5 214723539.34805     -1376.765 5        35.688                                                                    41235433.542 5 174480441.10905     -1118.563 5        33.625
C41        16.000    22680709.662 8 118104403.47408      -532.152 8        48.594                                                                    22680711.921 8  95969507.95908      -432.400 8        52.313
C59        22.000    36907607.853 7 192187603.59207       333.902 7        45.344                                                                    36907591.969 8 156168103.16308       271.373 8        50.063
C60        53.000    39490699.767 6 205638440.09906       325.628 6        38.250                                                                    39490686.065 7 167098018.55007       264.703 7        42.406
E04        20.000    24493115.008 7 128712220.95707      1489.368 7        44.594    24493113.779 6  96116280.07006      1112.095 6        38.688    24493112.545 6  98623658.88506      1141.162 6        41.156
E09        50.000    28498241.491 5 149759306.31405      2562.237 5        33.969                                                                    28498249.624 4 114750683.48304      1963.160 4        26.000
E10        18.000    23916335.544 7 125681197.98507       964.990 7        46.094    23916333.254 6  93852839.22506       720.626 6        40.219    23916332.530 7  96301170.56407       739.480 7        42.406
E11        29.000    24499321.555 6 128744833.27206      2303.221 6        40.969    24499316.877 5  96140622.52605      1719.838 5        33.063    24499316.083 5  98648632.39105      1764.990 5        34.438
E12        25.000    23730636.149 7 124705327.63007      -457.415 7        42.094    23730631.923 6  93124089.40406      -341.640 6        38.063    23730631.189 6  95553409.34606      -350.557 6        40.719
E19        12.000    23825711.264 7 125204954.30807      -961.708 7        42.406    23825707.904 5  93497191.95405      -718.235 5        35.281    23825706.867 6  95936245.89306      -736.823 6        37.250
E21         6.000    28275872.610 6 148590721.46106      2430.671 6        36.313    28275878.445 5 110960626.15005      1815.440 5        30.750    28275876.695 5                      1862.703 5        32.563
E27        45.000    28674681.144 6 150686472.17006      1084.940 6        36.969    28674684.865 4                       810.592 4        29.406    28674683.060 5                       831.574 5        31.219
E33        35.000    26135007.000 6 137340341.02906     -2617.934 6        41.125    26135009.411 5 102559330.51105     -1955.096 5        32.188    26135008.757 6 105234785.55306     -2006.137 6        36.531
G05         5.000    20437554.807 7 107400076.70807        38.447 7        46.906    20437549.220 8  83688347.22508        29.956 8        49.250    20437549.130 7  83688336.23207        29.955 7        46.781
G07         7.000    25976312.035 5 136506421.67305     -2652.154 5        32.156    25976309.506 2 106368618.16802     -2066.615 2        17.094    25976309.764 4 106368642.21404     -2067.192 4        25.469
G11        11.000    23422902.587 6 123088126.26406     -3255.680 6        41.969    23422901.800 4  95912792.84804     -2536.889 4        26.031    23422902.015 6  95912789.83506     -2536.862 6        39.156    23422907.122 5  91916440.84805     -2431.176 5        34.250
G13        13.000    19950053.993 7 104838250.75607      -651.291 7        46.719    19950047.552 6  81692120.02106      -507.499 6        39.094
G14        33.000    25037041.983 6 131570577.88406      2018.282 6        38.031    25037042.275 3 102522517.39103      1572.687 3        19.406    25037042.868 6 102522513.39106      1572.886 6        37.031    25037048.138 5  98250762.09905      1507.459 5        32.313
G15        15.000    20510375.921 7 107782789.44007      1622.643 7        47.156    20510371.078 7  83986583.29607      1264.392 7        46.906    20510370.636 7  83986580.31107      1264.429 7        44.375
G18        27.000    23010475.937 7 120920911.03307      3186.020 7        42.000    23010473.591 4  94224088.37304      2482.611 4        28.313    23010472.804 6  94224090.38606      2482.604 6        41.719    23010477.750 6  90298107.59706      2379.123 6        36.688
G20         4.000    21124278.990 7 111008818.79207     -1218.763 7        46.375    21124273.742 5  86500347.00905      -949.684 5        35.500
G22        52.000    25205859.261 5 132457690.25805      2303.654 5        35.813    25205859.262 2 103213789.70002      1794.997 2        15.000
G24         3.000    23565155.750 6 123835784.20606      4245.555 6        37.594    23565160.509 5  96495449.77205      3308.216 5        31.844    23565159.643 6  96495470.81606      3308.127 6        37.813    23565161.806 5  92474823.34805      3170.262 5        33.656
G29         8.000    23958087.104 6 125900553.09106     -1887.905 6        40.875    23958086.057 4  98104299.17604     -1471.097 4        29.656    23958085.727 5  98104293.18005     -1470.816 5        32.594
G30         1.000    23256420.324 7 122213302.57107     -1973.731 7        42.875    23256418.734 6  95231132.95606     -1537.972 6        40.000    23256418.648 6  95231119.96506     -1537.993 6        39.344    23256418.803 6  91263170.13706     -1473.862 6        36.781
J03        46.000    37053569.946 7 194717816.65907       546.619 7        44.375    37053566.737 7 151728147.81907       425.972 7        46.594    37053569.085 6 145406151.49206       408.201 6        40.000
J07        21.000    37132524.051 6 195132732.11006       321.740 6        38.375    37132519.553 7 152051454.86907       250.591 7        44.469    37132522.221 6 145715996.44906       240.325 6        39.500
R01        37.000    21339495.291 7 114071817.74607     -1676.077 7        45.344    21339492.836 6  88722499.16106     -1303.592 6        40.375
R02         2.000    20188078.179 8 107727464.17308       417.492 8        51.375    20188074.502 8  83788023.82108       324.791 8        48.219
R03        34.000    22569199.752 7 120814803.72107      2456.831 7        43.625    22569197.227 6  93967113.06806      1910.841 6        41.094
R11        36.000    22126447.242 7 118237062.87707       195.878 7        47.938    22126444.271 7  91962166.13307       152.328 7        44.063
R12        24.000    22130867.430 7 118219294.00107      3568.203 7        47.219    22130868.929 7  91948411.90807      2775.333 7        42.313
R13        55.000    24330763.338 5 129924932.82605      4329.371 5        33.031    24330774.740 5 101052776.10305      3367.404 5        30.500
R17        10.000    19959340.144 8 106806456.29108      -426.101 8        50.406    19959336.243 8  83071673.12708      -331.436 8        48.844
R18        57.000    21971984.948 7 117287971.46907      3106.949 7        45.188    21971983.428 7  91223993.06707      2416.541 7        43.594
R24        19.000    21720508.090 7 116149256.59907     -3740.742 7        46.281    21720508.031 7  90338281.63707     -2909.377 7        45.000
> 2024 06 24 08 20  5.0000000  0 57
C01         9.000    36688925.222 7 191048864.07607       306.224 7        43.250    36688919.805 6 147731080.83206       236.719 6        39.625    36688921.059 7 155242835.33307       248.901 7        46.063
C02        44.000    38962079.398 6 202885771.20506       355.458 6        36.156    38962074.870 5 156884131.26505       274.750 5        34.500    38962076.495 6 164861295.95406       288.702 6        38.438
C03        54.000    37375653.526 7 194624836.92607       317.329 7        42.063    37375646.878 6 150496244.28306       245.471 6        36.656    37375648.110 7 158148601.41407       257.827 7        44.438
C04        26.000    37590747.299 7 195744891.31807       291.472 7        42.156    37590740.241 6 151362335.32806       225.561 6        38.469    37590741.012 7 159058727.07407       236.838 7        43.563
C05        60.000    41654433.441 6 216905566.80506       359.283 6        36.219    41654435.245 5 167725150.94405       277.936 5        31.875    41654432.046 5 176253537.92705       292.331 5        35.250
C06        17.000    38926821.062 6 202702204.90406      1648.980 6        38.531    38926817.257 5 156742205.68405      1275.153 5        34.125    38926815.763 7 164712137.20207      1340.048 7        42.031
C07        40.000    41174919.728 5 214408527.79205     -1120.637 5        34.250    41174925.015 5                      -867.253 5        31.500    41174920.523 6 174224447.97606      -910.686 6        39.000
C08        39.000    36756183.654 7 191399101.48107      1031.510 7        42.781    36756173.668 6 148001888.52006       797.674 6        39.969    36756172.776 7 155527405.90307       838.223 7        46.844
C10        30.000    40680128.654 5 211832023.50605     -1248.995 5        32.281    40680134.122 5                      -966.440 5        31.031    40680129.677 6 172130848.89306     -1015.179 6        36.156
C13        32.000    37227229.633 7 193851966.23607      1081.372 7        44.094    37227228.809 6 149898631.85706       836.274 6        37.844    37227226.509 7 157520586.60907       878.689 7        45.969
C16        49.000    38991970.958 6 203041472.91606      1592.994 6        40.656    38991971.960 5 157004536.13605      1232.031 5        34.063    38991968.432 6 164987830.99506      1294.459 6        41.000
C23        47.000    24500669.098 7 127581538.37307      3049.552 7        44.156                                                                    24500660.732 7 103670467.62007      2477.975 7        46.156
C24        41.000    26037125.211 6 135582139.51706     -1473.989 6        40.719                                                                    26037120.855 6 110171577.23106     -1197.760 6        38.469
C25        48.000    23588441.677 7 122831248.35707       888.894 7        46.313                                                                    23588437.707 7  99810450.95907       722.322 7        47.125
C27        31.000    23507340.258 7 122408854.51507     -2093.180 7        44.781                                                                    23507338.341 7  99467198.41907     -1700.930 7        46.781
C28        23.000    25865605.250 6 134688890.49806     -2910.506 6        36.563                                                                    25865609.314 6 109445732.38806     -2364.769 6        38.906
C30        42.000    23957053.201 7 124750665.87907       268.044 7        46.063                                                                    23957052.446 7 101370135.19907       217.838 7        46.625
C32        43.000    23135103.866 7 120470582.78407      1596.513 7        46.906                                                                    23135100.975 8  97892219.22908      1297.340 8        49.938
C33        56.000    25891880.504 6 134825768.09206     -1794.329 6        41.656                                                                    25891892.022 6 109557012.01606     -1458.005 6        41.469
C38        51.000    36065942.851 7 187804829.22807       830.401 7        46.938                                                                    36065936.571 8 152606784.64908       674.792 8        51.688
C39        58.000    38053317.825 7 198153645.59807      1532.274 7        44.125                                                                    38053313.552 7 161016062.78807      1245.067 7        46.063
C40        59.000    41235689.538 6 214724915.56606     -1375.806 6        36.188                                                                    41235697.832 5 174481559.37005     -1117.811 5        33.938
C41        16.000    22680811.810 8 118104935.44208      -531.470 8        48.531                                                                    22680814.094 8  95969940.22208      -431.803 8        52.344
C59        22.000    36907543.605 7 192187269.42207       334.782 7        45.250                                                                    36907527.815 8 156167831.62608       272.053 8        50.125
C60        53.000    39490637.164 6 205638114.18206       326.380 6        38.250                                                                    39490623.418 7 167097753.72407       265.304 7        42.469
E04        20.000    24492831.528 7 128710731.40907      1490.103 7        44.500    24492830.312 6  96115167.74606      1112.607 6        38.938    24492829.099 6  98622517.53706      1141.808 6        41.094
E09        50.000    28497753.820 5 149756743.95905      2562.656 5        33.813                                                                    28497762.474 4 114748720.08204      1964.687 4        26.250
E10        18.000    23916151.887 7 125680233.00907       965.336 7        46.125    23916149.706 6  93852118.63706       720.740 6        40.531    23916148.979 7  96300431.17607       739.605 7        42.375
E11        29.000    24498883.249 6 128742529.86206      2303.819 6        40.844    24498878.666 5  96138902.44405      1720.332 5        32.719    24498877.896 5  98646867.47005      1765.203 5        34.219
E12        25.000    23730723.176 6 124705785.09306      -457.055 6        41.875    23730718.842 6  93124431.00906      -341.281 6        38.250    23730718.252 6  95553759.86606      -350.233 6        40.844
E19        12.000    23825894.210 7 125205915.89407      -961.088 7        42.281    23825890.952 5  93497910.00005      -717.417 5        35.469    23825889.949 6  95936982.67106      -736.067 6        37.063
E21         6.000    28275409.932 6 148588290.60906      2431.271 6        36.000    28275416.080 5 110958810.91905      1815.715 5        30.469    28275414.093 5                      1862.621 5        32.563
E27        45.000    28674474.824 6 150685387.21106      1085.387 6        36.906    28674478.746 4                       809.953 4        29.500    28674476.435 5                       831.318 5        30.750
E33        35.000    26135505.130 6 137342958.94206     -2617.526 6        40.906    26135507.322 5 102561285.38305     -1954.349 5        31.969    26135506.831 6 105236791.45306     -2005.487 6        36.469
G05         5.000    20437547.413 7 107400038.17107        38.942 7        46.875    20437541.891 8  83688317.19608        30.348 8        49.250    20437541.587 7  83688306.19707        30.408 7        46.719
G07         7.000    25976816.423 5 136509073.89905     -2651.756 5        33.250    25976814.223 2 106370684.81402     -2066.269 2        16.625    25976814.669 4 106370708.83804     -2065.694 4        24.813
G11        11.000    23423522.056 7 123091381.81607     -3255.160 7        42.000    23423521.335 4  95915329.64004     -2536.479 4        26.031    23423521.532 6  95915326.63406     -2536.505 6        39.281    23423526.760 5  91918871.95805     -2430.960 5        34.313
G13        13.000    19950177.950 7 104838901.99407      -650.816 7        46.688    19950171.483 6  81692627.47906      -507.127 6        39.094
G14        33.000    25036658.027 6 131568559.30406      2019.043 6        37.750    25036658.243 3 102520944.46303      1573.286 3        19.500    25036658.607 6 102520940.50306      1573.139 6        36.875    25036664.055 5  98249254.72005      1508.014 5        32.906
G15        15.000    20510067.121 7 107781166.77807      1623.084 7        47.125    20510062.295 7  83985318.88707      1264.740 7        46.906    20510061.832 7  83985315.89107      1264.779 7        44.406
G18        27.000    23009869.704 7 120917724.98207      3186.485 7        42.063    23009867.302 4  94221605.73504      2482.970 4        28.313    23009866.435 6  94221607.74706      2483.054 6        41.813    23009871.410 6  90295728.42906      2379.296 6        36.219
G20         4.000    21124510.917 7 111010037.48707     -1218.282 7        46.344    21124505.654 5  86501296.64105      -949.308 5        35.500
G22        52.000    25205420.959 5 132455386.69605      2304.267 5        35.969    25205420.913 2 103211994.74402      1795.513 2        14.688
G24         3.000    23564347.997 6 123831538.60106      4246.155 6        37.469    23564352.599 5  96492141.52105      3308.685 5        31.906    23564351.897 6  96492162.56606      3308.605 6        37.781    23564353.744 5  92471652.93305      3170.951 5        33.906
G29         8.000    23958446.370 6 125902440.84506     -1887.498 6        40.844    23958445.303 4  98105770.15104     -1470.776 4        29.656    23958445.955 5  98105764.15905     -1470.614 5        32.250
G30         1.000    23256795.966 7 122215276.39207     -1973.423 7        42.813    23256794.355 6  95232670.99306     -1537.729 6        40.063    23256794.250 6  95232657.99406     -1537.754 6        39.344    23256794.381 6  91264644.09406     -1473.637 6        36.500
J03        46.000    37053465.796 7 194717269.83307       547.429 7        44.313    37053462.651 7 151727721.72507       426.567 7        46.531    37053465.075 6 145405743.13506       408.916 6        40.156
J07        21.000    37132462.659 6 195132410.23706       322.256 6        38.438    37132458.250 7 152051204.04407       251.382 7        44.406    37132460.959 6 145715756.09106       240.761 6        39.656
R01        37.000    21339808.477 7 114073493.60007     -1675.259 7        45.469    21339806.106 6  88723802.60106     -1303.004 6        40.250
R02         2.000    20187999.975 8 107727046.50108       418.183 8        51.375    20187996.163 8  83787698.97308       325.205 8        48.219
R03        34.000    22568740.826 7 120812346.77207      2457.621 7        43.750    22568738.371 6  93965202.10806      1911.444 6        41.188
R11        36.000    22126410.624 7 118236867.16507       195.926 7        47.844    22126407.879 7  91962013.91807       152.394 7        44.219
R12        24.000    22130199.435 7 118215725.60007      3568.836 7        47.219    22130200.690 7  91945636.49807      2775.668 7        42.531
R13        55.000    24329952.717 5 129920603.05305      4330.347 5        32.969    24329962.890 5 101049408.53405      3367.845 5        30.000
R17        10.000    19959419.848 8 106806882.59308      -426.157 8        50.344    19959415.961 8  83072004.69008      -331.443 8        48.813
R18        57.000    21971403.107 7 117284864.58907      3107.124 7        45.063    21971401.467 7  91221576.60607      2416.658 7        43.469
R24        19.000    21721207.571 7 116152997.26107     -3740.225 7        46.281    21721207.467 7  90341191.04007     -2909.019 7        45.031
> 2024 06 24 08 20  6.0000000  0 57
C01         9.000    36688866.626 7 191048558.62807       304.982 7        43.344    36688860.940 6 147730844.63406       235.863 6        39.625    36688862.400 7 155242587.12507       247.843 7        46.000
C02        44.000    38962011.201 6 202885416.66706       354.179 6        36.094    38962006.409 5 156883857.09205       273.984 5        34.406    38962008.357 6 164861007.85406       287.632 6        38.281
C03        54.000    37375592.729 7 194624520.41607       316.099 7        42.094    37375585.698 6 150495999.54706       244.294 6        36.875    37375587.318 7 158148344.21807       256.873 7        44.500
C04        26.000    37590691.346 7 195744600.66007       290.271 7        42.281    37590684.498 6 151362110.58206       224.568 6        38.625    37590685.143 7 159058490.90107       235.833 7        43.625
C05        60.000    41654364.940 6 216905208.27206       357.963 6        36.125    41654366.498 5 167724873.68105       276.827 5        31.875    41654363.205 5 176253246.58305       290.908 5        35.531
C06        17.000    38926504.534 6 202700556.70106      1647.680 6        38.563    38926500.959 5 156740931.21205      1274.047 5        33.813    38926499.259 7 164710797.90407      1338.997 7        42.094
C07        40.000    41175135.162 5 214409649.34305     -1121.843 5        34.000    41175140.422 5                      -867.256 5        31.500    41175135.957 6 174225359.32706      -911.635 6        39.000
C08        39.000    36755985.722 7 191398070.76607      1030.339 7        42.781    36755975.712 6 148001091.51106       796.674 6        39.781    36755974.788 7 155526568.37107       837.158 7        46.750
C10        30.000    40680368.847 5 211833273.40305     -1250.205 5        32.344    40680374.279 5                      -966.467 5        30.438    40680369.702 5 172131864.51405     -1016.139 5        35.906
C13        32.000    37227022.168 7 193850885.69607      1080.250 7        44.031    37227021.303 6 149897796.32506       835.367 6        37.781    37227018.982 7 157519708.58607       877.690 7        46.000
C16        49.000    38991665.072 6 203039880.69906      1591.732 6        40.688    38991666.906 5 157003304.93905      1230.779 5        34.125    38991662.694 6 164986537.18706      1293.397 6        40.813
C23        47.000    24500083.697 7 127578489.64807      3048.201 7        44.094                                                                    24500075.272 7 103667990.28307      2476.974 7        46.188
C24        41.000    26037408.384 6 135583614.44906     -1475.523 6        40.250                                                                    26037404.095 6 110172775.74106     -1199.027 6        38.406
C25        48.000    23588271.157 7 122830360.56607       887.023 7        46.375                                                                    23588267.186 7  99809729.55907       720.765 7        47.219
C27        31.000    23507742.393 7 122410948.72207     -2094.741 7        44.750                                                                    23507740.499 7  99468900.13507     -1702.201 7        46.750
C28        23.000    25866164.549 6 134691801.59206     -2911.485 6        36.375                                                                    25866168.341 6 109448097.86506     -2365.833 6        38.938
C30        42.000    23957001.838 7 124750398.88907       266.291 7        46.188                                                                    23957001.177 7 101369918.25007       216.396 7        46.750
C32        43.000    23134797.499 7 120468987.10707      1595.226 7        46.906                                                                    23134794.539 8  97890922.61008      1296.225 8        49.938
C33        56.000    25892225.154 6 134827563.26106     -1795.637 6        41.656                                                                    25892236.792 6 109558470.73706     -1459.080 6        41.344
C38        51.000    36065783.569 7 187803999.62507       829.162 7        46.906                                                                    36065777.256 8 152606110.52808       673.785 8        51.750
C39        58.000    38053023.671 7 198152114.23307      1530.894 7        44.063                                                                    38053019.492 7 161014818.43407      1243.963 7        46.094
C40        59.000    41235953.925 6 214726291.88706     -1376.645 6        36.219                                                                    41235962.263 5 174482677.77205     -1118.752 5        34.219
C41        16.000    22680914.040 8 118105467.74008      -532.810 8        48.563                                                                    22680916.302 8  95970372.75408      -432.901 8        52.344
C59        22.000    36907479.504 7 192186935.48307       333.562 7        45.188                                                                    36907463.661 8 156167560.27708       270.973 8        50.125
C60        53.000    39490574.642 6 205637788.47706       325.174 6        38.375                                                                    39490560.887 7 167097489.05607       264.354 7        42.438
E04        20.000    24492548.144 7 128709242.30907      1488.579 7        44.500    24492546.897 6  96114055.75906      1111.392 6        39.000    24492545.728 6  98621376.54306      1140.576 6        41.500
E09        50.000    28497266.445 5 149754181.89405      2561.931 5        33.500                                                                    28497275.289 4 114746757.04404      1962.890 4        26.594
E10        18.000    23915968.375 7 125679268.69707       963.675 7        46.125    23915966.146 6  93851398.53406       719.473 6        40.594    23915965.437 7  96299692.29207       738.417 7        42.500
E11        29.000    24498445.087 6 128740226.98306      2302.328 6        41.000    24498440.309 5  96137182.75305      1719.409 5        32.656    24498439.869 5  98645102.90405      1764.183 5        34.469
E12        25.000    23730810.456 6 124706243.23106      -458.705 6        41.875    23730806.035 6  93124773.12506      -342.536 6        38.344    23730805.344 6  95554110.89606      -351.512 6        40.969
E19        12.000    23826077.289 7 125206877.80707      -962.348 7        42.438    23826074.072 5  93498628.33805      -718.669 5        35.188    23826072.930 6  95937719.74506      -737.304 6        37.344
E21         6.000    28274947.454 6 148585860.03906      2430.131 6        36.000    28274953.673 5 110956995.90605      1814.391 5        30.656    28274951.530 5                      1862.306 5        32.750
E27        45.000    28674268.334 6 150684302.85406      1083.673 6        37.031    28674272.313 4                       809.505 4        29.188    28674270.173 5                       830.829 5        31.000
E33        35.000    26136003.483 6 137345577.21506     -2618.832 6        40.938    26136005.643 5 102563240.61805     -1955.574 5        32.469    26136005.068 6 105238797.68606     -2006.818 6        36.688
G05         5.000    20437540.145 7 107400000.20707        37.329 7        46.875    20437534.669 8  83688287.61208        29.087 8        49.281    20437534.206 7  83688276.62007        29.103 7        46.625
G07         7.000    25977321.350 5 136511726.44905     -2653.012 5        34.156    25977319.087 2 106372751.75202     -2067.293 2        16.313    25977320.476 4 106372775.80404     -2067.493 4        24.375
G11        11.000    23424141.695 7 123094637.77107     -3256.436 7        42.000    23424140.896 4  95917866.73804     -2537.472 4        26.063    23424141.041 6  95917863.73506     -2537.476 6        39.125    23424146.470 5  91921303.32205     -2431.733 5        34.281
G13        13.000    19950302.194 7 104839553.87307      -652.515 7        46.719    19950295.531 6  81693135.43506      -508.453 6        39.125
G14        33.000    25036274.413 6 131566541.21806      2017.548 6        37.906    25036274.171 3 102519371.93703      1572.100 3        19.625    25036274.122 6 102519367.96306      1572.030 6        36.813    25036280.170 5  98247747.72305      1506.529 5        32.313
G15        15.000    20509758.453 7 107779544.70707      1621.500 7        47.000    20509753.619 7  83984054.93907      1263.500 7        46.906    20509753.266 7  83984051.94907      1263.476 7        44.250
G18        27.000    23009263.531 7 120914539.54007      3184.918 7        42.000    23009261.142 4  94219123.57404      2481.754 4        28.219    23009260.433 6  94219125.58706      2481.647 6        41.688    23009265.187 6  90293349.66606      2378.132 6        36.656
G20         4.000    21124742.986 7 111011256.76607     -1219.860 7        46.281    21124737.677 5  86502246.72705      -950.536 5        35.438
G22        52.000    25204982.633 5 132453083.44905      2302.585 5        35.563    25204982.609 2 103210199.97902      1794.236 2        14.406
G24         3.000    23563540.026 6 123827293.38806      4244.536 6        37.656    23563544.742 5  96488833.56305      3307.421 5        32.000    23563544.022 6  96488854.59506      3307.523 6        37.719    23563545.982 5  92468482.80805      3169.453 5        33.688
G29         8.000    23958805.826 6 125904329.11406     -1888.875 6        40.719    23958804.678 4  98107241.52604     -1471.843 4        29.656    23958804.584 5  98107235.49805     -1471.805 5        32.563
G30         1.000    23257171.662 7 122217250.82707     -1975.019 7        42.719    23257170.096 6  95234209.51306     -1538.980 6        40.063    23257170.005 6  95234196.53506     -1539.117 6        39.375    23257169.862 6  91266118.52306     -1474.876 6        36.406
J03        46.000    37053361.787 7 194716723.30507       546.114 7        44.313    37053358.627 7 151727295.85807       425.506 7        46.438    37053361.147 6 145405335.02906       407.666 6        40.156
J07        21.000    37132401.318 6 195132088.55706       321.547 6        38.375    37132397.007 7 152050953.40407       250.326 7        44.406    37132399.775 6 145715515.88306       239.893 6        39.594
R01        37.000    21340122.225 7 114075169.74207     -1676.602 7        45.438    21340119.706 6  88725106.29306     -1304.181 6        40.281
R02         2.000    20187921.711 8 107726629.27708       416.705 8        51.313    20187918.089 8  83787374.45708       324.168 8        48.219
R03        34.000    22568281.942 7 120809890.18907      2456.050 7        43.594    22568279.525 6  93963291.41706      1910.324 6        41.031
R11        36.000    22126374.140 7 118236672.50607       193.900 7        47.813    22126371.377 7  91961862.50907       150.822 7        44.375
R12        24.000    22129531.659 7 118212157.77207      3567.192 7        47.094    22129532.867 7  91942861.52607      2774.461 7        42.531
R13        55.000    24329141.385 5 129916273.33405      4329.236 5        32.844    24329152.178 4 101046040.99504      3367.649 4        29.156
R17        10.000    19959499.581 8 106807310.03908      -428.349 8        50.281    19959495.869 8  83072337.14908      -333.173 8        48.813
R18        57.000    21970821.431 7 117281758.59107      3105.238 7        45.094    21970819.631 7  91219160.83707      2415.193 7        43.594
R24        19.000    21721907.071 7 116156738.49807     -3741.807 7        46.313    21721907.171 7  90344100.88107     -2910.352 7        45.125
> 2024 06 24 08 20  7.0000000  0 57
C01         9.000    36688807.882 7 191048252.88807       305.444 7        43.344    36688802.071 6 147730608.21006       236.351 6        39.625    36688803.728 7 155242338.70207       248.332 7        45.969
C02        44.000    38961943.375 6 202885061.82506       354.800 6        36.031    38961938.155 5 156883582.75205       274.056 5        34.313    38961940.182 6 164860719.52706       288.273 6        38.313
C03        54.000    37375531.969 7 194624203.63307       316.548 7        42.094    37375524.803 6 150495754.58806       244.720 6        36.875    37375526.504 7 158148086.81007       257.259 7        44.344
C04        26.000    37590635.446 7 195744309.73407       290.647 7        42.188    37590628.432 6 151361885.62706       224.757 6        38.656    37590629.279 7 159058254.48707       236.267 7        43.500
C05        60.000    41654296.189 6 216904849.43106       358.494 6        36.094    41654297.161 5 167724596.24605       277.091 5        32.000    41654294.221 5 176252954.98805       291.568 5        35.281
C06        17.000    38926187.805 6 202698908.27806      1648.043 6        38.469    38926184.342 5 156739656.54405      1274.301 5        34.000    38926182.643 7 164709458.44407      1339.246 7        42.094
C07        40.000    41175350.497 5 214410770.51905     -1121.356 5        33.875    41175356.142 5                      -866.971 5        30.875    41175351.301 6 174226270.37806      -911.406 6        38.969
C08        39.000    36755787.643 7 191397039.76607      1030.751 7        42.719    36755777.605 6 148000294.27906       796.913 6        39.938    36755776.771 7 155525730.59407       837.639 7        46.688
C10        30.000    40680608.980 5 211834522.89405     -1249.750 5        32.281    40680615.443 5                      -966.228 5        30.375    40680609.647 6 172132879.82606     -1015.527 6        36.063
C13        32.000    37226814.615 7 193849804.84607      1080.648 7        44.063    37226813.529 6 149896960.54506       835.534 6        37.750    37226811.458 7 157518830.30907       878.068 7        45.906
C16        49.000    38991359.390 6 203038288.28706      1592.066 6        40.531    38991361.277 5 157002073.57905      1231.276 5        34.031    38991356.876 6 164985243.22506      1293.783 6        40.563
C23        47.000    24499498.263 7 127575440.82907      3048.520 7        44.000                                                                    24499489.766 7 103665512.86607      2477.152 7        46.000
C24        41.000    26037691.539 6 135585089.52506     -1475.572 6        40.250                                                                    26037687.345 6 110173974.33706     -1198.909 6        38.031
C25        48.000    23588100.788 7 122829473.00007       887.082 7        46.313                                                                    23588096.760 7  99809008.34407       720.735 7        47.156
C27        31.000    23508144.530 7 122413042.95907     -2094.675 7        44.781                                                                    23508142.699 7  99470601.86907     -1702.046 7        46.781
C28        23.000    25866724.000 6 134694712.32506     -2910.974 6        36.063                                                                    25866727.282 6 109450463.06506     -2365.498 6        38.656
C30        42.000    23956950.467 7 124750132.16907       266.156 7        46.313                                                                    23956949.942 7 101369701.52307       216.256 7        46.594
C32        43.000    23134491.041 7 120467391.26507      1595.509 7        46.875                                                                    23134488.114 8  97889625.85608      1296.553 8        49.781
C33        56.000    25892569.776 6 134829358.16906     -1795.197 6        41.813                                                                    25892581.524 6 109559929.24106     -1458.726 6        41.219
C38        51.000    36065624.238 7 187803169.75907       829.555 7        46.844                                                                    36065617.905 8 152605436.19908       674.106 8        51.625
C39        58.000    38052729.521 7 198150582.71107      1531.152 7        44.063                                                                    38052725.343 7 161013573.94807      1244.198 7        46.000
C40        59.000    41236218.038 6 214727667.83706     -1376.141 6        36.594                                                                    41236226.567 5 174483795.83805     -1118.210 5        34.406
C41        16.000    22681016.161 8 118105999.87308      -532.459 8        48.500                                                                    22681018.501 8  95970805.15608      -432.643 8        52.250
C59        22.000    36907415.301 7 192186601.28007       333.892 7        45.188                                                                    36907399.475 8 156167288.70408       271.325 8        50.063
C60        53.000    39490512.285 6 205637462.50006       325.736 6        38.375                                                                    39490498.302 7 167097224.18507       264.707 7        42.469
E04        20.000    24492264.705 7 128707753.16707      1488.735 7        44.656    24492263.472 6  96112943.73506      1111.796 6        38.906    24492262.402 6  98620235.51806      1140.705 6        41.250
E09        50.000    28496779.014 5 149751619.70405      2561.780 5        33.250                                                                    28496787.802 4 114744793.81604      1962.835 4        26.906
E10        18.000    23915784.886 7 125678304.56407       963.594 7        46.094    23915782.630 6  93850678.55406       719.616 6        40.313    23915781.902 7  96298953.53407       738.434 7        42.469
E11        29.000    24498006.819 6 128737924.14906      2302.310 6        41.063    24498002.184 5  96135463.10405      1719.346 5        33.094    24498001.641 5  98643338.39805      1764.407 5        34.531
E12        25.000    23730897.672 7 124706701.54507      -458.779 7        42.063    23730893.297 6  93125115.38206      -342.687 6        38.406    23730892.573 6  95554462.08506      -351.521 6        40.781
E19        12.000    23826260.418 7 125207839.63207      -962.185 7        42.344    23826257.066 5  93499346.57605      -718.480 5        35.438    23826255.969 6  95938456.73706      -737.476 6        37.219
E21         6.000    28274484.670 6 148583429.29506      2430.492 6        36.156    28274491.145 5 110955180.76005      1814.885 5        30.750    28274488.999 5                      1862.488 5        32.688
E27        45.000    28674061.967 6 150683218.60006      1083.729 6        36.906    28674065.997 4                       809.617 4        29.563    28674064.380 5                       830.506 5        31.156
E33        35.000    26136501.640 6 137348195.39806     -2618.470 6        41.063    26136503.798 5 102565195.74905     -1955.613 5        32.063    26136503.258 6 105240803.80306     -2006.271 6        36.594
G05         5.000    20437532.955 7 107399962.30707        37.524 7        46.656    20437527.456 8  83688258.07808        29.235 8        49.188    20437526.968 7  83688247.09207        29.186 7        46.563
G07         7.000    25977825.964 5 136514378.85305     -2652.500 5        32.969    25977823.857 2 106374818.59702     -2066.929 2        16.063    25977825.120 4 106374842.68304     -2067.008 4        25.281
G11        11.000    23424761.394 6 123097893.67106     -3256.308 6        41.844    23424760.479 4  95920403.79704     -2537.373 4        25.969    23424760.526 6  95920400.78206     -2537.306 6        39.375    23424766.114 5  91923734.69005     -2431.593 5        34.313
G13        13.000    19950426.297 7 104840205.89207      -652.561 7        46.625    19950419.614 6  81693643.50306      -508.492 6        39.031
G14        33.000    25035890.455 6 131564523.10106      2017.734 6        37.969    25035890.166 3 102517799.38603      1572.257 3        19.875    25035890.241 6 102517795.38506      1572.417 6        36.844    25035896.068 5  98246240.68505      1506.725 5        32.750
G15        15.000    20509449.871 7 107777922.73207      1621.594 7        47.031    20509444.961 7  83982791.06307      1263.577 7        46.844    20509444.557 7  83982788.08207      1263.470 7        44.281
G18        27.000    23008657.420 7 120911354.20107      3184.859 7        42.094    23008654.978 4  94216641.49704      2481.698 4        28.125    23008654.081 6  94216643.50706      2481.825 6        41.719    23008658.985 6  90290971.00506      2378.386 6        36.344
G20         4.000    21124975.114 7 111012476.13707     -1219.775 7        46.250    21124969.710 5  86503196.88105      -950.475 5        35.313
G22        52.000    25204544.097 5 132450779.93305      2303.215 5        35.063    25204544.255 2 103208405.01202      1794.691 2        13.500
G24         3.000    23562732.224 6 123823047.98606      4245.029 6        37.813    23562736.849 5  96485525.46705      3307.807 5        32.000    23562736.273 6  96485546.49706      3307.903 6        37.750    23562737.999 5  92465312.55805      3169.877 5        34.063
G29         8.000    23959165.262 6 125906217.39306     -1888.687 6        40.531    23959164.013 4  98108712.90304     -1471.699 4        29.594    23959163.575 5  98108706.89905     -1471.610 5        32.281
G30         1.000    23257547.438 7 122219225.43307     -1975.094 7        42.375    23257545.864 6  95235748.16606     -1539.036 6        39.969    23257545.854 6  95235735.16106     -1539.020 6        39.406    23257545.578 6  91267593.03506     -1474.760 6        36.344
J03        46.000    37053257.845 7 194716176.57207       546.423 7        44.250    37053254.678 7 151726869.83407       425.794 7        46.438    37053257.128 6 145404926.73806       408.161 6        40.156
J07        21.000    37132339.995 6 195131766.61406       321.807 6        38.750    37132335.900 7 152050702.53607       250.659 7        44.438    37132338.508 6 145715275.46106       240.258 6        39.719
R01        37.000    21340435.612 7 114076845.67207     -1676.146 7        45.438    21340433.176 6  88726409.77406     -1303.655 6        40.344
R02         2.000    20187843.516 8 107726212.00708       416.846 8        51.250    20187839.936 8  83787049.91608       324.277 8        48.250
R03        34.000    22567823.099 7 120807433.46107      2456.393 7        43.625    22567820.537 6  93961380.64006      1910.500 6        41.188
R11        36.000    22126337.811 7 118236478.37807       193.486 7        47.750    22126335.130 7  91961711.53107       150.416 7        44.500
R12        24.000    22128863.857 7 118208590.05307      3567.235 7        47.156    22128865.016 7  91940086.64107      2774.474 7        42.500
R13        55.000    24328330.374 5 129911943.13105      4330.144 5        33.406    24328341.101 4 101042673.09504      3367.379 4        29.031
R17        10.000    19959579.524 8 106807738.15808      -428.845 8        50.375    19959575.926 8  83072670.12708      -333.554 8        48.813
R18        57.000    21970239.838 7 117278652.98107      3104.984 7        45.063    21970238.032 7  91216745.37007      2415.036 7        43.563
R24        19.000    21722606.843 7 116160479.78807     -3741.720 7        46.219    21722606.951 7  90347010.76307     -2910.213 7        45.125
> 2024 06 24 08 20  8.0000000  0 57
C01         9.000    36688749.188 7 191047947.38507       305.762 7        43.344    36688743.354 6 147730371.99406       236.361 6        39.375    36688745.083 7 155242090.47507       248.582 7        45.875
C02        44.000    38961875.085 6 202884707.26106       354.785 6        36.125    38961870.208 5 156883308.54005       274.469 5        34.500    38961872.026 6 164860431.38606       288.520 6        38.063
C03        54.000    37375471.070 6 194623887.07906       316.920 6        41.938    37375464.002 6 150495509.80106       244.980 6        36.719    37375465.690 7 158147829.58207       257.485 7        44.313
C04        26.000    37590579.743 7 195744019.03607       291.053 7        42.219    37590572.761 6 151361660.82906       225.014 6        38.531    37590573.442 7 159058018.27807       236.453 7        43.438
C05        60.000    41654227.210 6 216904490.82006       358.961 6        36.000    41654228.451 5                       277.308 5        31.656    41654225.260 5 176252663.58005       291.857 5        35.094
C06        17.000    38925871.266 6 202697260.17706      1648.412 6        38.594    38925867.342 5 156738382.13705      1274.498 5        33.688    38925866.196 7 164708119.22507      1339.374 7        42.094
C07        40.000    41175565.651 5 214411891.82805     -1120.891 5        34.094    41175571.585 5                      -867.068 5        31.219    41175566.669 6 174227181.49706      -910.730 6        39.094
C08        39.000    36755589.774 7 191396008.97307      1031.055 7        42.625    36755579.691 6 147999497.20706       797.180 6        39.906    36755578.816 7 155524892.99407       837.832 7        46.813
C10        30.000    40680849.061 5 211835772.60605     -1249.432 5        32.313    40680855.350 5                      -966.407 5        30.375    40680849.544 5 172133895.30105     -1015.088 5        35.656
C13        32.000    37226607.148 7 193848724.17007      1081.109 7        44.000    37226606.118 6 149896124.90006       835.921 6        37.875    37226603.933 7 157517952.16807       878.407 7        45.906
C16        49.000    38991053.803 6 203036696.18406      1592.411 6        40.594    38991055.013 5 157000842.49405      1231.161 5        34.031    38991051.206 6 164983949.53506      1293.917 6        40.906
C23        47.000    24498912.872 7 127572392.40407      3048.676 7        44.031                                                                    24498904.337 7 103663035.77407      2477.289 7        46.094
C24        41.000    26037974.823 6 135586565.23806     -1475.638 6        40.219                                                                    26037970.601 6 110175173.49306     -1199.111 6        37.844
C25        48.000    23587930.455 7 122828586.17707       886.946 7        46.344                                                                    23587926.439 7  99808287.72607       720.709 7        47.156
C27        31.000    23508546.692 7 122415137.71807     -2094.649 7        44.750                                                                    23508544.982 7  99472304.03007     -1702.045 7        46.750
C28        23.000    25867283.114 5 134697623.20305     -2910.620 5        35.688                                                                    25867286.269 6 109452828.37706     -2364.897 6        38.375
C30        42.000    23956899.285 7 124749866.20007       265.984 7        46.250                                                                    23956898.810 7 101369485.40107       216.143 7        46.625
C32        43.000    23134184.663 7 120465795.74607      1595.792 7        46.906                                                                    23134181.741 8  97888329.37908      1296.645 8        49.875
C33        56.000    25892914.531 6 134831153.30706     -1794.822 6        41.625                                                                    25892926.207 6 109561387.93506     -1458.470 6        41.281
C38        51.000    36065464.990 7 187802340.12207       829.934 7        46.844                                                                    36065458.568 8 152604762.05208       674.363 8        51.656
C39        58.000    38052435.385 7 198149051.52007      1531.478 7        44.000                                                                    38052431.278 7 161012329.72507      1244.449 7        46.031
C40        59.000    41236482.233 6 214729043.89206     -1375.634 6        36.844                                                                    41236490.888 5 174484913.96905     -1117.731 5        34.625
C41        16.000    22681118.356 8 118106532.34608      -532.213 8        48.500                                                                    22681120.759 8  95971237.83708      -432.483 8        52.250
C59        22.000    36907351.160 7 192186267.27907       334.321 7        45.219                                                                    36907335.343 8 156167017.30608       271.662 8        50.063
C60        53.000    39490449.776 6 205637136.76306       326.131 6        38.313                                                                    39490435.775 7 167096959.48507       265.008 7        42.500
E04        20.000    24491981.436 7 128706264.46307      1488.827 7        44.656    24491980.201 6  96111832.04506      1111.830 6        38.969    24491979.095 6  98619094.81506      1141.024 6        41.406
E09        50.000    28496291.418 5 149749057.85705      2562.101 5        33.125
E10        18.000    23915601.561 7 125677341.10107       963.513 7        46.125    23915599.321 6  93849959.09006       719.578 6        40.469    23915598.557 7  96298215.29307       738.399 7        42.500
E11        29.000    24497568.602 6 128735621.85306      2302.426 6        40.969    24497563.940 5  96133743.88305      1719.142 5        32.813    24497563.471 5  98641574.31505      1764.265 5        34.688
E12        25.000    23730984.950 7 124707160.56507      -458.941 7        42.063    23730980.756 6  93125458.15106      -342.603 6        38.469    23730979.988 6  95554813.79606      -351.640 6        40.969
E19        12.000    23826443.449 7 125208801.80007      -961.848 7        42.313    23826440.110 5  93500065.07705      -718.140 5        35.406    23826438.964 6  95939193.97006      -737.104 6        37.406
E21         6.000    28274022.299 6 148580998.89006      2430.596 6        36.500    28274028.710 5 110953365.82505      1815.117 5        30.688    28274026.521 5                      1862.199 5        33.125
E27        45.000    28673855.819 6 150682134.92206      1083.974 6        36.688    28673860.347 4                       809.231 4        29.500    28673858.068 5                       830.268 5        31.188
E33        35.000    26136999.997 6 137350813.99006     -2618.487 6        41.156    26137002.245 5 102567151.18005     -1955.612 5        32.156    26137001.533 6 105242810.24006     -2006.339 6        36.625
G05         5.000    20437525.854 7 107399924.99907        37.484 7        46.781    20437520.364 8  83688229.00608        29.207 8        49.188    20437519.854 7  83688218.01507        29.182 7        46.563
G07         7.000    25978331.437 5 136517031.71405     -2653.048 5        31.469    25978328.721 2 106376885.78902     -2067.305 2        15.875    25978330.217 4 106376909.82704     -2066.312 4        26.125
G11        11.000    23425380.977 6 123101149.99606     -3256.090 6        41.688    23425380.148 4  95922941.18604     -2537.206 4        25.969    23425379.862 6  95922938.18006     -2537.181 6        39.031    23425385.831 5  91926166.36605     -2431.548 5        34.500
G13        13.000    19950550.460 7 104840858.56707      -652.575 7        46.500    19950543.831 6  81694152.08106      -508.501 6        39.063
G14        33.000    25035506.810 6 131562505.45606      2017.829 6        38.063    25035506.224 3 102516227.19703      1572.329 3        19.906    25035505.958 6 102516223.19706      1572.385 6        36.844    25035511.918 5  98244734.00405      1506.801 5        32.313
G15        15.000    20509141.428 7 107776301.34807      1621.536 7        47.156    20509136.419 7  83981527.64707      1263.533 7        46.844    20509136.115 7  83981524.66207      1263.606 7        44.313
G18        27.000    23008051.384 7 120908169.47807      3184.801 7        42.031    23008048.943 4  94214159.89804      2481.666 4        28.125    23008048.048 6  94214161.90306      2481.569 6        41.625    23008052.816 6  90288592.79106      2378.227 6        36.344
G20         4.000    21125207.282 7 111013696.09507     -1219.811 7        46.250    21125201.841 5  86504147.49505      -950.501 5        35.313
G22        52.000    25204105.798 5 132448476.76305      2303.473 5        35.438    25204105.983 2 103206610.37402      1794.847 2        12.969
G24         3.000    23561924.585 6 123818802.96806      4245.273 6        37.594    23561929.024 5  96482217.66605      3308.001 5        31.844    23561928.539 6  96482238.69906      3307.977 6        37.656    23561929.961 5  92462142.53505      3170.433 5        33.906
G29         8.000    23959524.907 6 125908106.16806     -1888.612 6        40.594    23959523.429 4  98110184.67104     -1471.639 4        29.563    23959523.252 5  98110178.68805     -1471.866 5        32.219
G30         1.000    23257923.422 7 122221200.66507     -1975.000 7        42.438    23257921.749 6  95237287.30606     -1538.960 6        39.875    23257921.703 6  95237274.31706     -1539.197 6        39.281    23257921.490 6  91269068.06806     -1474.715 6        36.188
J03        46.000    37053153.917 7 194715630.14207       546.732 7        44.219    37053150.705 7 151726444.04207       426.024 7        46.344    37053153.136 6 145404518.68706       408.326 6        40.063
J07        21.000    37132278.811 6 195131444.89706       322.084 6        38.344    37132274.686 7 152050451.83807       250.975 7        44.438    37132277.346 6 145715035.22306       240.486 6        39.781
R01        37.000    21340749.154 7 114078521.90307     -1675.912 7        45.313    21340747.001 6  88727713.51106     -1303.437 6        40.344
R02         2.000    20187765.395 8 107725795.20008       416.998 8        51.188    20187761.871 8  83786725.73308       324.389 8        48.156
R03        34.000    22567364.186 7 120804977.10807      2456.623 7        43.406    22567362.140 6  93959470.14606      1910.690 6        41.063
R11        36.000    22126301.679 7 118236285.29507       193.015 7        47.969    22126298.905 7  91961561.35407       150.061 7        44.594
R12        24.000    22128195.941 7 118205022.96007      3567.250 7        47.281    22128197.341 7  91937312.23307      2774.488 7        42.469
R13        55.000    24327519.939 5 129907612.98605      4330.601 5        32.813    24327529.006 4 101039305.19004      3368.236 4        29.250
R17        10.000    19959659.865 8 106808167.42508      -429.397 8        50.469    19959656.053 8  83073004.00008      -333.946 8        48.875
R18        57.000    21969658.560 7 117275548.27407      3104.736 7        45.031    21969656.196 7  91214330.60207      2414.725 7        43.563
R24        19.000    21723306.498 7 116164221.62007     -3741.708 7        46.281    21723306.569 7  90349921.06807     -2910.218 7        45.031
> 2024 06 24 08 20  9.0000000  0 57
C01         9.000    36688690.654 7 191047642.01307       305.020 7        43.281    36688684.678 6 147730135.84706       235.874 6        39.375    36688686.437 7 155241842.35007       247.798 7        45.938
C02        44.000    38961807.179 6 202884352.77206       354.334 6        36.031    38961801.775 5 156883034.42805       274.084 5        34.344    38961804.026 6 164860143.36106       287.740 6        38.250
C03        54.000    37375410.292 6 194623570.65406       316.139 6        41.906    37375403.327 6 150495265.11806       244.662 6        36.594    37375404.885 7 158147572.45607       256.859 7        44.406
C04        26.000    37590523.915 7 195743728.46807       290.142 7        42.156    37590516.986 6 151361436.15406       224.405 6        38.469    37590517.645 7 159057782.17207       235.707 7        43.625
C05        60.000    41654158.459 5 216904132.33805       358.026 5        35.813    41654159.802 5                       276.710 5        31.344    41654156.553 5 176252372.29105       291.027 5        35.188
C06        17.000    38925554.780 6 202695612.27406      1647.495 6        38.688    38925550.783 5 156737107.87005      1273.994 5        33.844    38925549.726 7 164706780.16107      1338.682 7        42.156
C07        40.000    41175780.921 5 214413013.15505     -1121.623 5        33.844    41175785.780 5                      -866.916 5        30.813    41175781.987 6 174228092.66206      -911.422 6        38.938
C08        39.000    36755391.759 7 191394978.26907      1030.315 7        42.656    36755381.797 6 147998700.19506       796.752 6        39.750    36755380.891 7 155524055.45707       837.298 7        46.781
C10        30.000    40681089.031 5 211837022.35805     -1250.215 5        32.313    40681095.637 4                      -966.333 4        29.688    40681089.610 5 172134910.81105     -1015.627 5        35.500
C13        32.000    37226399.640 7 193847643.58507      1080.199 7        43.969    37226398.317 6 149895289.32506       835.345 6        37.750    37226396.430 7 157517074.10207       877.816 7        45.938
C16        49.000    38990748.047 6 203035104.30706      1591.414 6        40.531    38990749.371 5 156999611.55805      1230.547 5        34.031    38990745.516 6 164982655.99306      1293.135 6        40.875
C23        47.000    24498327.539 7 127569344.26407      3047.581 7        44.031                                                                    24498318.957 7 103660558.91507      2476.513 7        46.094
C24        41.000    26038258.252 6 135588041.48106     -1476.813 6        40.344                                                                    26038253.859 6 110176373.06706     -1200.052 6        37.781
C25        48.000    23587760.301 7 122827699.98307       885.550 7        46.250                                                                    23587756.224 7  99807567.61807       719.594 7        47.094
C27        31.000    23508949.093 7 122417232.91307     -2095.727 7        44.625                                                                    23508947.338 7  99474006.54307     -1702.963 7        46.813
C28        23.000    25867842.424 5 134700534.12105     -2911.421 5        35.250                                                                    25867845.346 6 109455193.73606     -2365.744 6        38.219
C30        42.000    23956848.304 7 124749600.90507       264.578 7        46.250                                                                    23956847.836 7 101369269.81607       215.053 7        46.625
C32        43.000    23133878.363 7 120464200.46907      1594.914 7        46.906                                                                    23133875.371 8  97887033.07908      1295.970 8        49.844
C33        56.000    25893259.208 6 134832948.58706     -1795.642 6        41.281                                                                    25893270.955 6 109562846.74906     -1459.101 6        41.313
C38        51.000    36065305.646 7 187801510.62507       829.125 7        46.813                                                                    36065299.254 8 152604088.01508       673.715 8        51.594
C39        58.000    38052141.539 7 198147520.56707      1530.550 7        43.969                                                                    38052137.313 7 161011085.70007      1243.694 7        45.969
C40        59.000    41236746.642 6 214730419.94306     -1376.312 6        36.750                                                                    41236755.292 5 174486032.10305     -1118.161 5        35.031
C41        16.000    22681220.660 8 118107065.06708      -533.165 8        48.406                                                                    22681223.068 8  95971670.71208      -433.251 8        52.281
C59        22.000    36907287.045 7 192185933.41607       333.480 7        45.219                                                                    36907271.260 8 156166746.01708       270.952 8        50.094
C60        53.000    39490386.977 6 205636811.13506       325.329 6        38.125                                                                    39490373.262 7 167096694.89307       264.385 7        42.531
E04        20.000    24491698.222 7 128704776.11707      1487.771 7        44.656    24491697.020 6  96110720.61506      1111.060 6        38.906    24491695.887 6  98617954.41306      1139.889 6        41.281
E09        50.000    28495803.841 5 149746496.26205      2561.348 5        32.875                                                                    28495812.592 4 114740868.08204      1962.263 4        26.313
E10        18.000    23915418.324 7 125676378.21507       962.320 7        46.156    23915416.165 6  93849240.05706       718.533 6        40.406    23915415.348 7  96297477.49807       737.403 7        42.531
E11        29.000    24497130.641 6 128733320.02506      2301.174 6        40.781    24497125.998 5  96132024.96305      1718.447 5        32.500    24497125.501 5  98639810.58505      1763.180 5        34.656
E12        25.000    23731072.357 7 124707620.15507      -460.111 7        42.031    23731068.289 6  93125801.34706      -343.572 6        38.500    23731067.474 6  95555165.96206      -352.705 6        41.031
E19        12.000    23826626.635 7 125209764.23007      -962.846 7        42.344    23826623.278 5  93500783.76705      -718.896 5        35.375    23826622.081 6  95939931.42406      -737.969 6        37.281
E21         6.000    28273559.934 6 148578568.70106      2429.494 6        36.625    28273566.235 5 110951551.08805      1814.476 5        30.781    28273564.093 5                      1862.168 5        32.906
E27        45.000    28673649.858 6 150681051.77206      1082.610 6        36.844    28673653.874 4                       808.808 4        29.688    28673651.980 5                       829.888 5        31.438
E33        35.000    26137498.332 6 137353432.87406     -2619.412 6        41.125    26137500.727 5 102569106.84705     -1956.139 5        32.375    26137500.089 6 105244816.92006     -2007.111 6        36.531
G05         5.000    20437518.791 7 107399888.17407        36.315 7        46.906    20437513.357 8  83688200.31108        28.300 8        49.188    20437512.833 7  83688189.32007        28.241 7        46.531
G07         7.000    25978835.962 4 136519684.76204     -2653.376 4        29.375    25978833.585 2 106378953.13302     -2067.577 2        15.594    25978833.925 4 106378977.23604     -2068.195 4        27.125
G11        11.000    23426000.868 6 123104406.66106     -3257.070 6        41.531    23425999.879 4  95925478.84104     -2537.954 4        25.875    23425999.416 6  95925475.84406     -2538.012 6        38.969    23426005.638 5  91928598.26405     -2432.044 5        34.500
G13        13.000    19950674.688 7 104841511.79207      -653.825 7        46.469    19950668.137 6  81694661.09006      -509.471 6        39.063
G14        33.000    25035123.020 6 131560488.19206      2016.715 6        38.188    25035122.223 3 102514655.29303      1571.492 3        20.000    25035122.272 6 102514651.32206      1571.363 6        36.625    25035128.190 5  98243227.59605      1506.180 5        32.469
G15        15.000    20508832.925 7 107774680.47107      1620.273 7        47.125    20508827.971 7  83980264.62907      1262.549 7        46.813    20508827.658 7  83980261.63707      1262.597 7        44.219
G18        27.000    23007445.456 7 120904985.25107      3183.640 7        42.031    23007442.998 4  94211678.68904      2480.756 4        28.094    23007442.089 6  94211680.69506      2480.664 6        41.563    23007446.821 6  90286214.96706      2377.632 6        36.438
G20         4.000    21125439.551 7 111014916.54407     -1221.040 7        46.188    21125434.070 5  86505098.49405      -951.453 5        35.375
G22        52.000    25203667.496 5 132446173.79805      2302.622 5        35.125    25203667.750 2 103204815.84902      1794.256 2        12.156
G24         3.000    23561116.851 6 123814558.19306      4244.378 6        37.656    23561121.248 5  96478910.05505      3307.305 5        31.844    23561120.841 6  96478931.07806      3307.473 6        37.719    23561122.219 5  92458972.76305      3169.482 5        34.219
G29         8.000    23959884.235 6 125909995.38406     -1889.749 6        40.375    23959882.947 4  98111656.78004     -1472.525 4        29.531    23959882.661 5  98111650.74805     -1472.350 5        32.250
G30         1.000    23258299.327 7 122223176.45607     -1976.262 7        42.531    23258297.745 6  95238826.88306     -1539.940 6        39.844    23258297.493 6  95238813.89406     -1540.120 6        39.219    23258297.455 6  91270543.48406     -1475.907 6        36.594
J03        46.000    37053050.015 7 194715083.91207       545.821 7        44.250    37053046.765 7 151726018.40107       425.380 7        46.375    37053049.183 6 145404110.78906       407.695 6        40.188
J07        21.000    37132217.768 6 195131123.31206       321.161 6        38.344    37132213.400 7 152050201.25307       250.177 7        44.375    37132216.107 6 145714795.07006       240.023 6        39.688
R01        37.000    21341062.799 7 114080198.32807     -1676.839 7        45.375    21341060.533 6  88729017.40006     -1304.127 6        40.281
R02         2.000    20187687.403 8 107725378.76408       415.930 8        51.219    20187683.787 8  83786401.84208       323.458 8        48.219
R03        34.000    22566905.257 7 120802521.01807      2455.589 7        43.406    22566903.611 6  93957559.86006      1909.740 6        40.969
R11        36.000    22126265.664 7 118236093.16107       191.334 7        47.875    22126263.123 7  91961411.91407       148.833 7        44.438
R12        24.000    22127528.222 7 118201456.36707      3566.020 7        47.469    22127529.801 7  91934538.22907      2773.534 7        42.531
R13        55.000    24326709.485 5 129903282.79305      4329.620 5        32.469    24326718.669 4 101035937.25104      3367.892 4        28.500
R17        10.000    19959740.260 8 106808597.71508      -431.153 8        50.500    19959736.371 8  83073338.67308      -335.317 8        48.875
R18        57.000    21969077.122 7 117272444.36507      3103.215 7        45.000    21969074.626 7  91211916.43807      2413.654 7        43.438
R24        19.000    21724006.276 7 116167963.86507     -3742.853 7        46.219    21724006.298 7  90352831.69607     -2911.031 7        45.063
> 2024 06 24 08 20 10.0000000  0 57
C01         9.000    36688632.031 7 191047337.05707       304.549 7        43.250    36688626.193 6 147729900.04706       235.549 6        39.563    36688627.863 7 155241594.54707       247.474 7        45.906
C02        44.000    38961739.130 6 202883998.75106       353.696 6        36.125    38961733.913 5 156882760.68905       273.563 5        34.188    38961736.156 6 164859855.68406       287.400 6        38.250
C03        54.000    37375349.572 7 194623254.66507       315.625 7        42.031    37375342.356 6 150495020.77006       244.291 6        36.875    37375344.160 7 158147315.68807       256.602 7        44.344
C04        26.000    37590468.212 7 195743438.32607       289.823 7        42.094    37590461.350 6 151361211.78806       224.105 6        38.625    37590461.938 7 159057546.40107       235.456 7        43.438
C05        60.000    41654089.716 5 216903774.26405       357.787 5        35.875    41654091.172 5                       276.531 5        31.563    41654087.699 5 176252081.36305       290.753 5        35.250
C06        17.000    38925238.494 6 202693964.86006      1646.932 6        38.563    38925234.764 5 156735834.00805      1273.615 5        33.563    38925233.389 7 164705441.51207      1338.274 7        42.125
C07        40.000    41175996.095 5 214414134.78405     -1121.919 5        33.500    41176001.241 5                      -867.385 5        30.906    41175997.386 6 174229004.09206      -911.751 6        38.906
C08        39.000    36755193.828 7 191393947.94507      1030.115 7        42.625    36755184.028 6 147997903.49206       796.418 6        40.031    36755183.023 7 155523218.24407       836.973 7        46.719
C10        30.000    40681329.365 5 211838272.42705     -1250.362 5        32.344    40681335.915 4                      -966.841 4        29.719    40681329.713 5 172135926.59505     -1015.952 5        35.750
C13        32.000    37226192.217 7 193846563.41807      1079.822 7        43.844    37226190.790 6 149894454.07606       834.883 6        37.750    37226189.004 7 157516196.37507       877.480 7        45.938
C16        49.000    38990442.304 6 203033512.94606      1590.918 6        40.563    38990443.676 5 156998380.99405      1230.289 5        33.938    38990439.941 6 164981362.87406      1292.901 6        40.906
C23        47.000    24497742.429 7 127566296.71307      3047.148 7        44.000                                                                    24497733.688 7 103658082.54507      2475.985 7        46.063
C24        41.000    26038541.861 6 135589518.58906     -1477.651 6        40.375                                                                    26038537.404 6 110177573.32706     -1200.515 6        37.500
C25        48.000    23587590.319 7 122826814.72907       884.680 7        46.219                                                                    23587586.221 7  99806848.27607       718.918 7        47.000
C27        31.000    23509351.666 7 122419328.82607     -2096.393 7        44.656                                                                    23509349.831 7  99475709.63907     -1703.465 7        46.719
C28        23.000    25868401.363 5 134703445.37905     -2911.620 5        35.125                                                                    25868404.462 6 109457559.36506     -2365.862 6        38.156
C30        42.000    23956797.545 7 124749336.55007       263.808 7        46.219                                                                    23956797.077 7 101369055.01707       214.252 7        46.531
C32        43.000    23133572.215 7 120462605.73207      1594.339 7        46.938                                                                    23133569.101 8  97885737.22208      1295.532 8        49.844
C33        56.000    25893604.073 6 134834744.31606     -1796.077 6        41.250                                                                    25893615.845 6 109564305.92006     -1459.447 6        41.188
C38        51.000    36065146.519 7 187800681.56407       828.710 7        46.750                                                                    36065140.046 8 152603414.33408       673.430 8        51.563
C39        58.000    38051847.560 7 198145990.13907      1529.925 7        43.938                                                                    38051843.401 7 161009842.10807      1243.225 7        45.969
C40        59.000    41237010.996 6 214731796.31006     -1376.627 6        36.688                                                                    41237019.586 5 174487150.49905     -1118.343 5        35.156
C41        16.000    22681323.102 8 118107598.32308      -533.695 8        48.438                                                                    22681325.490 8  95972104.02408      -433.631 8        52.250
C59        22.000    36907222.972 7 192185599.98607       333.031 7        45.188                                                                    36907207.222 8 156166475.07408       270.641 8        50.031
C60        53.000    39490324.616 6 205636485.95906       324.870 6        38.219                                                                    39490310.789 7 167096430.65607       263.937 7        42.469
E04        20.000    24491415.135 7 128703288.43107      1487.313 7        44.531    24491413.900 6  96109609.67806      1110.729 6        38.969    24491412.801 6  98616814.48406      1139.693 6        41.313
E09        50.000    28495316.274 5 149743935.19005      2560.767 5        32.781                                                                    28495325.055 4 114738905.70804      1961.818 4        26.250
E10        18.000    23915235.270 7 125675416.21407       961.446 7        46.125    23915233.143 6  93848521.66906       717.984 6        40.469    23915232.293 7  96296740.38007       736.676 7        42.531
E11        29.000    24496692.759 6 128731018.92506      2300.591 6        41.031    24496688.111 5  96130306.61805      1718.104 5        32.688    24496687.449 5  98638047.38505      1762.957 5        34.500
E12        25.000    23731159.967 6 124708080.63406      -461.052 6        41.938    23731155.934 6  93126145.22106      -344.353 6        38.344    23731155.084 6  95555518.78006      -353.297 6        40.875
E19        12.000    23826809.780 7 125210727.22507      -963.326 7        42.406    23826806.698 5  93501502.89105      -719.505 5        35.688    23826805.270 6  95940669.29906      -738.297 6        37.188
E21         6.000    28273097.677 6 148576139.01206      2429.189 6        36.531    28273103.675 5 110949736.70605      1814.482 5        31.344    28273101.486 5                      1861.610 5        32.938
E27        45.000    28673444.017 6 150679969.42406      1081.635 6        36.344    28673447.871 4                       808.021 4        29.719    28673446.093 5                       829.089 5        31.875
E33        35.000    26137996.764 6 137356052.36206     -2619.914 6        41.219    26137999.288 5 102571062.94605     -1956.305 5        32.344    26137998.648 6 105246824.05906     -2007.543 6        36.563
G05         5.000    20437512.068 7 107399852.13007        35.526 7        46.938    20437506.498 8  83688172.22408        27.682 8        49.188    20437506.066 7  83688161.23007        27.639 7        46.469
G07         7.000    25979340.903 4 136522338.53904     -2654.071 4        27.531    25979338.633 2 106381021.04502     -2068.029 2        14.375    25979338.628 4 106381045.03804     -2068.618 4        28.594
G11        11.000    23426620.667 6 123107663.96406     -3257.691 6        41.500    23426619.704 4  95928016.98904     -2538.455 4        25.656    23426619.452 6  95928013.97306     -2538.578 6        38.875    23426625.661 5  91931030.65505     -2432.935 5        34.219
G13        13.000    19950799.147 7 104842165.87107      -654.638 7        46.406    19950792.618 6  81695170.76106      -510.107 6        39.031
G14        33.000    25034739.093 6 131558471.61006      2016.224 6        38.344    25034738.433 3 102513083.93203      1571.088 3        20.000    25034738.253 6 102513079.96406      1570.950 6        36.469    25034744.414 5  98241721.72005      1505.562 5        32.313
G15        15.000    20508524.586 7 107773060.38907      1619.538 7        47.031    20508519.675 7  83979002.23007      1261.976 7        46.813    20508519.262 7  83978999.23407      1262.038 7        44.125
G18        27.000    23006839.749 6 120901801.85706      3182.792 6        41.906    23006837.192 4  94209198.12204      2480.097 4        28.063    23006836.330 6  94209200.13106      2480.069 6        41.563    23006841.072 6  90283837.76006      2377.032 6        36.406
G20         4.000    21125671.970 7 111016137.78707     -1221.751 7        46.188    21125666.447 5  86506050.10805      -952.014 5        35.375
G22        52.000    25203229.614 5 132443871.35505      2301.997 5        34.969    25203229.643 2 103203021.76302      1793.803 2        12.219
G24         3.000    23560309.194 6 123810313.97606      4244.022 6        37.625    23560313.579 5  96475602.87905      3307.016 5        31.813    23560313.176 6  96475623.92806      3306.856 6        37.656    23560314.515 5  92455803.39905      3168.972 5        33.813
G29         8.000    23960243.743 6 125911885.29506     -1890.494 6        40.438    23960242.586 4  98113129.43104     -1473.109 4        29.563    23960241.826 5  98113123.41905     -1473.271 5        32.250
G30         1.000    23258675.419 7 122225153.09307     -1977.195 7        42.656    23258673.898 6  95240367.12006     -1540.670 6        39.813    23258673.550 6  95240354.12206     -1540.678 6        39.375    23258673.602 6  91272019.54406     -1476.467 6        36.563
J03        46.000    37052946.177 7 194714538.18607       545.388 7        44.313    37052942.836 7 151725593.16607       424.937 7        46.375    37052945.268 6 145403703.27506       407.235 6        40.125
J07        21.000    37132156.990 6 195130802.12906       320.888 6        38.375    37132152.256 7 152049950.99007       249.928 7        44.469    37132155.001 6 145714555.23706       239.607 6        39.719
R01        37.000    21341376.896 7 114081875.25907     -1677.348 7        45.531    21341374.401 6  88730321.68206     -1304.501 6        40.156
R02         2.000    20187609.371 8 107724962.98808       415.332 8        51.156    20187605.892 8  83786078.45808       323.059 8        48.188
R03        34.000    22566446.534 7 120800065.49507      2455.090 7        43.281    22566445.011 6  93955650.00706      1909.512 6        40.781
R11        36.000    22126229.803 7 118235902.32707       190.025 7        47.688    22126227.399 7  91961263.47007       147.930 7        44.531
R12        24.000    22126860.892 7 118197890.55607      3565.256 7        47.500    22126862.204 7  91931764.82707      2772.963 7        42.594
R13        55.000    24325899.237 5 129898952.77205      4329.574 5        32.563    24325907.936 4 101032569.48804      3367.983 4        28.656
R17        10.000    19959820.859 8 106809029.33908      -432.418 8        50.438    19959816.994 8  83073674.37908      -336.322 8        48.813
R18        57.000    21968495.896 7 117269341.54907      3102.161 7        44.938    21968493.375 7  91209503.14107      2412.863 7        43.313
R24        19.000    21724706.315 7 116171706.82007     -3743.411 7        46.094    21724706.270 7  90355742.88207     -2911.572 7        45.000
> 2024 06 24 08 20 11.0000000  0 57
C01         9.000    36688573.574 7 191047032.01007       304.815 7        43.281    36688567.866 6 147729664.16806       235.640 6        39.500    36688569.285 7 155241346.66607       247.690 7        45.938
C02        44.000    38961671.192 6 202883644.61206       354.006 6        36.125    38961665.869 5 156882486.85805       273.511 5        34.313    38961668.200 6 164859567.92006       287.544 6        38.219
C03        54.000    37375289.057 7 194622938.56407       315.827 7        42.000    37375281.600 6 150494776.35006       244.241 6        36.719    37375283.422 7 158147058.82807       256.634 7        44.469
C04        26.000    37590412.487 7 195743148.07007       289.993 7        42.094    37590405.419 6 151360987.34706       224.259 6        38.625    37590406.177 7 159057310.54707       235.663 7        43.406
C05        60.000    41654020.751 6 216903416.10706       358.032 6        36.063    41654022.103 5                       276.956 5        31.313    41654018.872 5 176251790.29805       291.202 5        34.969
C06        17.000    38924922.140 6 202692317.41206      1647.200 6        38.625    38924918.272 5 156734560.07605      1273.755 5        34.031    38924917.125 7 164704102.83307      1338.384 7        42.000
C07        40.000    41176211.169 5 214415256.21905     -1121.635 5        33.906    41176217.225 5                      -867.126 5        31.781    41176212.681 6 174229915.31006      -911.321 6        38.719
C08        39.000    36754995.981 7 191392917.51007      1030.125 7        42.656    36754986.253 6 147997106.69406       796.637 6        39.938    36754985.154 7 155522380.92707       837.187 7        46.719
C10        30.000    40681569.513 5 211839522.36105     -1250.303 5        32.000    40681574.910 4                      -966.308 4        29.906    40681569.724 5 172136942.25405     -1015.914 5        35.250
C13        32.000    37225984.570 7 193845483.07407      1080.158 7        43.938    37225983.278 6 149893618.68706       835.242 6        37.656    37225981.539 7 157515318.51107       877.657 7        45.906
C16        49.000    38990136.803 6 203031921.54906      1591.151 6        40.594    38990137.881 5 156997150.47305      1230.164 5        34.156    38990134.339 6 164980069.73806      1292.955 6        40.813
C23        47.000    24497157.205 7 127563249.24207      3047.146 7        44.063                                                                    24497148.435 7 103655606.22307      2476.040 7        46.031
C24        41.000    26038825.635 6 135590995.97906     -1477.815 6        40.125                                                                    26038820.916 6 110178773.83806     -1201.012 6        37.156
C25        48.000    23587420.329 7 122825929.88207       884.350 7        46.313                                                                    23587416.256 7  99806129.26707       718.622 7        47.031
C27        31.000    23509754.195 7 122421424.94207     -2096.537 7        44.781                                                                    23509752.342 7  99477412.90407     -1703.623 7        46.688
C28        23.000    25868960.391 5 134706356.44405     -2911.245 5        35.500                                                                    25868963.562 6 109459924.82606     -2365.558 6        38.313
C30        42.000    23956746.918 7 124749072.63807       263.385 7        46.250                                                                    23956746.389 7 101368840.56207       214.040 7        46.469
C32        43.000    23133266.007 7 120461010.98307      1594.412 7        47.063                                                                    23133262.850 8  97884441.36308      1295.613 8        49.875
C33        56.000    25893948.954 6 134836539.94706     -1795.902 6        41.500                                                                    25893960.618 6 109565765.00506     -1459.206 6        41.000
C38        51.000    36064987.315 7 187799852.41207       828.857 7        46.875                                                                    36064980.787 8 152602740.57808       673.560 8        51.625
C39        58.000    38051553.540 7 198144459.71307      1530.089 7        44.000                                                                    38051549.446 7 161008598.51107      1243.341 7        45.938
C40        59.000    41237275.229 6 214733172.43106     -1376.233 6        36.875                                                                    41237284.063 5 174488268.71005     -1118.289 5        35.250
C41        16.000    22681425.570 8 118108131.58908      -533.630 8        48.438                                                                    22681427.882 8  95972537.34608      -433.580 8        52.219
C59        22.000    36907158.951 7 192185266.45307       333.269 7        45.219                                                                    36907143.171 8 156166204.05008       270.841 8        49.969
C60        53.000    39490262.040 6 205636160.66606       325.220 6        38.281                                                                    39490248.316 7 167096166.32707       264.178 7        42.406
E04        20.000    24491132.092 7 128701800.85207      1487.156 7        44.625    24491130.843 6  96108498.82506      1110.637 6        38.906    24491129.710 6  98615674.66606      1139.554 6        41.375
E09        50.000    28494828.930 5 149741374.11205      2561.079 5        32.406                                                                    28494837.335 4 114736943.31404      1962.630 4        25.563
E10        18.000    23915052.201 7 125674454.55607       961.203 7        46.031    23915050.042 6  93847803.54806       717.763 6        40.500    23915049.291 7  96296003.53307       736.447 7        42.594
E11        29.000    24496254.922 6 128728718.04406      2300.426 6        40.688    24496250.448 5  96128588.42905      1717.744 5        32.906    24496249.566 5  98636284.38705      1762.673 5        34.500
E12        25.000    23731247.764 6 124708541.46706      -461.450 6        41.938    23731243.562 6  93126489.32906      -344.496 6        38.594    23731242.796 6  95555871.87606      -353.422 6        40.969
E19        12.000    23826993.020 7 125211690.24207      -963.156 7        42.281    23826990.073 5  93502222.01905      -719.327 5        35.500    23826988.612 6  95941407.20306      -738.180 6        37.250
E21         6.000    28272635.484 6 148573709.32306      2429.386 6        36.406    28272641.322 5 110947922.30605      1814.298 5        31.406    28272639.080 5                      1861.594 5        33.094
E27        45.000    28673238.203 6 150678887.34006      1081.667 6        36.031    28673241.877 4                       808.078 4        29.344    28673240.228 5                       828.892 5        31.344
E33        35.000    26138495.394 6 137358671.92306     -2619.921 6        41.188    26138497.869 5 102573019.10505     -1956.710 5        32.531    26138497.090 6 105248831.23406     -2007.497 6        36.750
G05         5.000    20437505.362 7 107399816.32607        35.393 7        46.969    20437499.687 8  83688144.32408        27.578 8        49.250    20437499.316 7  83688133.32707        27.599 7        46.469
G07         7.000    25979845.987 4 136524992.31904     -2654.010 4        27.406    25979843.662 2 106383088.87202     -2068.009 2        14.094    25979843.853 4 106383112.83804     -2067.928 4        29.125
G11        11.000    23427240.572 6 123110921.35806     -3257.699 6        41.625    23427239.565 4  95930555.21404     -2538.460 4        25.625    23427239.251 6  95930552.21306     -2538.537 6        38.750    23427245.489 5  91933463.12405     -2432.614 5        34.375
G13        13.000    19950923.750 7 104842820.26807      -654.869 7        46.438    19950917.162 6  81695680.67806      -510.286 6        39.063
G14        33.000    25034355.151 6 131556455.14906      2016.070 6        38.250    25034354.852 3 102511512.66503      1570.979 3        20.000    25034354.590 6 102511508.68006      1571.314 6        36.156    25034360.647 5  98240215.89905      1505.912 5        32.125
G15        15.000    20508216.374 7 107771440.56307      1619.379 7        47.125    20508211.428 7  83977740.02907      1261.851 7        46.813    20508211.083 7  83977737.03707      1261.898 7        44.000
G18        27.000    23006234.075 6 120898618.72506      3182.704 6        41.938    23006231.515 4  94206717.75904      2480.032 4        28.094    23006230.639 6  94206719.76206      2480.140 6        41.344    23006235.292 6  90281460.77306      2376.432 6        36.250
G20         4.000    21125904.430 7 111017359.29207     -1221.905 7        46.188    21125898.886 5  86507001.92705      -952.129 5        35.313
G22        52.000    25202791.569 5 132441568.86805      2302.295 5        35.281    25202791.509 1 103201227.64101      1793.963 1        11.313
G24         3.000    23559501.739 6 123806069.82206      4243.783 6        37.750    23559505.932 5  96472295.75705      3306.836 5        31.938    23559505.419 6  96472316.77906      3306.943 6        37.688    23559506.836 5  92452634.06305      3169.103 5        33.938
G29         8.000    23960603.456 6 125913775.38206     -1890.530 6        40.531    23960602.252 4  98114602.21904     -1473.129 4        29.563    23960601.755 5  98114596.22605     -1473.373 5        32.188
G30         1.000    23259051.659 7 122227130.05407     -1977.500 7        42.656    23259050.114 6  95241907.60706     -1540.907 6        39.875    23259049.775 6  95241894.60506     -1540.891 6        39.375    23259050.009 6  91273495.83706     -1476.605 6        36.656
J03        46.000    37052842.363 7 194713992.43007       545.499 7        44.313    37052838.956 7 151725167.89907       425.083 7        46.281    37052841.434 6 145403295.72106       407.370 6        40.156
J07        21.000    37132095.740 6 195130480.86406       320.991 6        38.406    37132091.101 7 152049700.64807       250.150 7        44.344    37132093.921 6 145714315.32606       239.799 6        39.719
R01        37.000    21341690.706 7 114083552.16407     -1677.122 7        45.563    21341688.179 6  88731625.93306     -1304.425 6        40.219
R02         2.000    20187531.400 8 107724547.29208       415.365 8        51.250    20187527.963 8  83785755.13708       323.057 8        48.281
R03        34.000    22565988.097 7 120797610.02707      2455.244 7        43.406    22565985.898 6  93953740.19606      1909.559 6        40.875
R11        36.000    22126194.234 7 118235712.21707       189.449 7        47.813    22126191.763 7  91961115.62707       147.315 7        44.500
R12        24.000    22126193.483 7 118194325.00707      3565.124 7        47.500    22126194.720 7  91928991.61807      2772.859 7        42.594
R13        55.000    24325088.477 5 129894622.47005      4330.154 5        32.781    24325097.890 4 101029201.50404      3367.995 4        29.875
R17        10.000    19959901.760 8 106809461.78908      -433.208 8        50.344    19959897.796 8  83074010.72508      -336.924 8        48.813
R18        57.000    21967914.548 7 117266239.29407      3101.637 7        44.938    21967912.094 7  91207090.27407      2412.399 7        43.438
R24        19.000    21725406.440 7 116175450.02007     -3743.738 7        46.156    21725406.399 7  90358654.24507     -2911.696 7        45.063
> 2024 06 24 08 20 12.0000000  0 57
C01         9.000    36688514.996 7 191046726.84107       305.173 7        43.313    36688509.189 6 147729428.18906       235.891 6        39.719    36688510.649 7 155241098.69607       247.980 7        45.906
C02        44.000    38961603.259 6 202883290.37306       354.258 6        36.219    38961598.043 5 156882212.92805       273.671 5        34.500    38961600.205 6 164859280.06806       287.727 6        38.031
C03        54.000    37375228.382 7 194622622.34407       316.206 7        42.031    37375220.907 6 150494531.84606       244.203 6        36.688    37375222.738 7 158146801.87407       256.973 7        44.406
C04        26.000    37590356.887 7 195742857.71407       290.293 7        42.063    37590349.600 6 151360762.82506       224.504 6        38.563    37590350.411 7 159057074.60207       235.858 7        43.344
C05        60.000    41653951.642 5 216903057.83105       358.365 5        35.875    41653952.963 5                       276.777 5        31.500    41653950.072 5 176251499.17405       290.973 5        35.313
C06        17.000    38924605.766 6 202690669.93606      1647.402 6        38.719    38924601.945 5 156733286.15305      1273.692 5        34.063    38924600.733 7 164702764.11407      1338.720 7        42.156
C07        40.000    41176426.338 5 214416377.42305     -1121.068 5        33.219    41176432.824 5                      -866.849 5        30.719    41176427.919 6 174230826.38306      -910.866 6        38.750
C08        39.000    36754798.088 7 191391886.93007      1030.691 7        42.750    36754788.280 6 147996309.78506       796.978 6        39.875    36754787.228 7 155521543.50407       837.430 7        46.719
C10        30.000    40681809.239 5 211840772.05805     -1249.612 5        32.313    40681814.571 4                      -966.290 4        29.781    40681809.738 5 172137957.74805     -1015.469 5        35.344
C13        32.000    37225776.984 7 193844402.58907      1080.424 7        43.875    37225775.949 6 149892783.18506       835.488 6        37.781    37225773.984 7 157514440.52407       878.059 7        45.781
C16        49.000    38989831.141 6 203030330.12006      1591.457 6        40.563    38989832.536 5 156995919.87305      1230.531 5        34.281    38989828.686 6 164978776.58506      1293.174 6        40.938
C23        47.000    24496571.950 7 127560201.81307      3047.320 7        44.156                                                                    24496563.207 7 103653129.94407      2476.235 7        46.125
C24        41.000    26039109.366 6 135592473.68106     -1477.909 6        40.000                                                                    26039104.477 6 110179974.58006     -1200.936 6        37.063
C25        48.000    23587250.438 7 122825045.42907       884.176 7        46.313                                                                    23587246.388 7  99805410.58307       718.411 7        47.031
C27        31.000    23510156.716 7 122423521.23707     -2096.494 7        44.750                                                                    23510154.921 7  99479116.30807     -1703.541 7        46.688
C28        23.000    25869519.060 5 134709267.33705     -2911.005 5        35.313                                                                    25869522.570 6 109462290.13906     -2365.338 6        38.219
C30        42.000    23956696.428 7 124748809.14207       263.168 7        46.250                                                                    23956695.788 7 101368626.44807       213.864 7        46.500
C32        43.000    23132959.816 7 120459416.23607      1594.651 7        47.063                                                                    23132956.572 8  97883145.50408      1295.781 8        49.844
C33        56.000    25894293.904 6 134838335.48106     -1795.529 6        41.281                                                                    25894305.409 6 109567224.03506     -1459.078 6        41.094
C38        51.000    36064828.016 7 187799023.14807       829.245 7        46.781                                                                    36064821.528 8 152602066.73608       673.838 8        51.594
C39        58.000    38051259.520 7 198142929.27907      1530.397 7        44.000                                                                    38051255.533 7 161007354.91207      1243.583 7        46.000
C40        59.000    41237539.383 6 214734548.33306     -1375.734 6        36.969                                                                    41237548.322 5 174489386.71405     -1117.882 5        35.250
C41        16.000    22681527.937 8 118108664.86008      -533.322 8        48.375                                                                    22681530.281 8  95972970.67608      -433.391 8        52.188
C59        22.000    36907094.936 7 192184932.80107       333.597 7        45.156                                                                    36907079.088 8 156165932.93608       271.064 8        50.031
C60        53.000    39490199.504 6 205635835.26506       325.342 6        38.250                                                                    39490185.896 7 167095901.91607       264.385 7        42.313
E04        20.000    24490849.054 7 128700313.40507      1487.337 7        44.500    24490847.861 6  96107388.08006      1110.613 6        38.938    24490846.512 6  98614534.93106      1139.629 6        41.344
E09        50.000    28494341.425 5 149738813.04605      2561.203 5        32.906                                                                    28494349.962 4 114734980.93504      1962.860 4        25.281
E10        18.000    23914869.268 7 125673493.22907       961.073 7        46.031    23914867.082 6  93847085.67306       717.739 6        40.531    23914866.368 7  96295266.93007       736.275 7        42.438
E11        29.000    24495817.038 6 128726417.33906      2300.521 6        40.813    24495812.840 5  96126870.36405      1717.917 5        32.750    24495811.622 5  98634521.52105      1762.480 5        34.594
E12        25.000    23731335.567 6 124709002.61906      -461.472 6        41.813    23731331.260 6  93126833.70606      -344.507 6        38.500    23731330.542 6  95556225.23006      -353.500 6        40.969
E19        12.000    23827176.396 7 125212653.31707      -963.155 7        42.219    23827173.366 5  93502941.19105      -719.122 5        35.406    23827171.885 6  95942145.12906      -737.912 6        37.344
E21         6.000    28272173.171 6 148571279.61006      2429.675 6        36.188    28272179.104 5 110946107.94605      1814.106 5        31.063    28272176.629 5                      1861.698 5        33.031
E27        45.000    28673032.402 5 150677805.53905      1081.387 5        35.969    28673036.102 4                       807.795 4        29.500    28673034.247 5                       828.678 5        31.188
E33        35.000    26138994.022 6 137361291.53406     -2619.639 6        41.219    26138996.266 5 102574975.27305     -1956.167 5        32.313    26138995.503 6 105250838.46806     -2007.299 6        36.281
G05         5.000    20437498.563 7 107399780.75607        35.391 7        46.906    20437492.917 8  83688116.60708        27.578 8        49.250    20437492.650 7  83688105.60907        27.533 7        46.438
G07         7.000    25980351.395 5 136527646.13705     -2653.496 5        31.469    25980348.629 2 106385156.76102     -2067.626 2        14.563    25980348.384 4 106385180.74004     -2068.155 4        29.438
G11        11.000    23427860.477 6 123114178.84306     -3257.623 6        41.875    23427859.475 4  95933093.51404     -2538.400 4        25.625    23427859.313 6  95933090.50806     -2538.237 6        38.875    23427865.330 5  91935895.66405     -2432.675 5        34.250
G13        13.000    19951048.388 7 104843474.96707      -654.897 7        46.406    19951041.759 6  81696190.83306      -510.310 6        39.031
G14        33.000    25033971.396 6 131554438.84706      2016.084 6        38.156    25033971.201 3 102509941.52603      1570.980 3        20.063    25033970.460 6 102509937.54106      1571.106 6        36.500    25033976.536 5  98238710.22705      1505.673 5        32.188
G15        15.000    20507908.159 7 107769821.00507      1619.343 7        47.188    20507903.230 7  83976478.03807      1261.826 7        46.813    20507902.989 7  83976475.04607      1261.908 7        44.094
G18        27.000    23005628.319 6 120895435.86906      3182.608 6        41.906    23005625.842 4  94204237.61604      2479.951 4        28.063    23005624.939 6  94204239.62006      2480.047 6        41.375    23005629.679 6  90279083.93606      2376.868 6        36.313
G20         4.000    21126136.890 7 111018581.04807     -1221.955 7        46.313    21126131.375 5  86507953.94005      -952.169 5        35.281
G22        52.000    25202353.524 5 132439266.35405      2302.539 5        35.250    25202353.371 1 103199433.47101      1794.114 1        10.813
G24         3.000    23558694.142 6 123801825.65106      4244.007 6        37.781    23558698.281 5  96468988.62005      3307.010 5        32.000    23558697.799 6  96469009.66206      3306.861 6        37.500    23558699.396 5  92449464.72405      3169.131 5        34.125
G29         8.000    23960963.273 6 125915665.63406     -1890.359 6        40.531    23960961.941 4  98116075.14004     -1473.003 4        29.469    23960961.156 5  98116069.10305     -1472.561 5        32.156
G30         1.000    23259428.132 7 122229107.30307     -1977.470 7        42.688    23259426.387 6  95243448.32306     -1540.882 6        39.875    23259426.224 6  95243435.32906     -1540.919 6        39.375    23259426.278 6  91274972.37906     -1476.791 6        36.500
J03        46.000    37052738.501 7 194713446.64707       545.669 7        44.375    37052735.063 7 151724742.61207       425.232 7        46.313    37052737.588 6 145402888.15506       407.517 6        40.281
J07        21.000    37132034.362 6 195130159.47406       321.311 6        38.500    37132029.991 7 152049450.21707       250.398 7        44.313    37132032.826 6 145714075.32006       240.133 6        39.656
R01        37.000    21342004.415 7 114085229.01207     -1676.905 7        45.688    21342002.052 6  88732930.15406     -1304.303 6        40.219
R02         2.000    20187453.445 8 107724131.63808       415.550 8        51.156    20187450.013 8  83785431.85208       323.230 8        48.250
R03        34.000    22565529.593 7 120795154.61707      2455.283 7        43.281    22565527.168 6  93951830.43406      1909.627 6        40.906
R11        36.000    22126158.791 7 118235522.81107       188.974 7        47.906    22126156.034 7  91960968.31207       146.934 7        44.438
R12        24.000    22125526.118 7 118190759.73007      3565.033 7        47.281    22125527.418 7  91926218.64107      2772.849 7        42.594
R13        55.000    24324276.997 5 129890291.84905      4330.623 5        32.969    24324288.212 5 101025833.27005      3368.513 5        30.656
R17        10.000    19959982.711 8 106809895.03208      -433.718 8        50.313    19959978.697 8  83074347.69608      -337.355 8        48.813
R18        57.000    21967333.316 7 117263137.57107      3101.315 7        44.906    21967330.901 7  91204677.82807      2412.152 7        43.531
R24        19.000    21726106.629 7 116179193.45507     -3743.702 7        46.250    21726106.248 7  90361565.81407     -2911.716 7        45.000
> 2024 06 24 08 20 13.0000000  0 57
C01         9.000    36688456.301 7 191046421.47907       305.285 7        43.313    36688450.566 6 147729192.05806       236.159 6        39.563    36688451.977 7 155240850.55307       248.112 7        45.906
C02        44.000    38961535.255 5 202882935.93605       354.485 5        35.688    38961529.775 5 156881938.85305       273.990 5        34.313    38961532.066 6 164858992.05506       287.997 6        38.281
C03        54.000    37375167.585 6 194622305.92006       316.543 6        41.906    37375160.084 6 150494287.13806       244.851 6        36.688    37375161.960 7 158146544.76307       257.131 7        44.375
C04        26.000    37590301.219 7 195742567.14007       290.581 7        42.063    37590293.803 6 151360538.14506       224.489 6        38.344    37590294.628 7 159056838.47907       236.231 7        43.500
C05        60.000    41653882.761 5 216902699.34405       358.447 5        35.844    41653883.845 5                       277.379 5        31.313    41653881.209 5 176251207.87605       291.258 5        35.250
C06        17.000    38924289.323 6 202689022.31706      1647.539 6        38.844    38924285.446 5 156732012.10205      1274.182 5        34.094    38924284.322 7 164701425.29507      1338.815 7        42.094
C07        40.000    41176641.749 5 214417498.33605     -1120.867 5        33.250    41176647.435 5                      -866.634 5        30.313    41176643.232 6 174231737.20006      -910.737 6        38.625
C08        39.000    36754600.290 7 191390856.10807      1030.802 7        42.688    36754590.315 6 147995512.68506       796.967 6        39.813    36754589.298 7 155520705.86707       837.624 7        46.656
C10        30.000    40682049.289 5 211842021.51005     -1249.456 5        32.219    40682054.590 5                      -965.895 5        30.188    40682049.613 5 172138973.01905     -1015.359 5        35.281
C13        32.000    37225569.389 7 193843321.85907      1080.808 7        43.938    37225568.419 6 149891947.49406       835.690 6        37.781    37225566.441 7 157513562.34407       878.219 7        45.938
C16        49.000    38989525.564 6 203028738.59306      1591.360 6        40.563    38989526.557 5 156994689.17505      1230.840 5        34.094    38989523.140 6 164977483.33706      1293.124 6        40.844
C23        47.000    24495986.708 7 127557154.34307      3047.338 7        44.125                                                                    24495977.977 7 103650653.62207      2476.301 7        46.125
C24        41.000    26039393.230 6 135593951.59806     -1478.141 6        39.969                                                                    26039388.083 6 110181175.50506     -1201.145 6        37.094
C25        48.000    23587080.651 7 122824161.27307       883.872 7        46.281                                                                    23587076.580 7  99804692.13107       718.251 7        46.969
C27        31.000    23510559.325 7 122425617.62107     -2096.484 7        44.719                                                                    23510557.521 7  99480819.79707     -1703.668 7        46.719
C28        23.000    25870078.059 5 134712177.92605     -2910.723 5        35.344                                                                    25870081.523 6 109464655.22906     -2365.061 6        38.313
C30        42.000    23956645.883 7 124748545.96907       262.888 7        46.281                                                                    23956645.275 7 101368412.59407       213.634 7        46.469
C32        43.000    23132653.664 7 120457821.38307      1594.819 7        47.125                                                                    23132650.290 8  97881849.55508      1295.903 8        49.906
C33        56.000    25894638.932 6 134840130.82306     -1795.335 6        41.281                                                                    25894650.114 6 109568682.88606     -1458.809 6        41.094
C38        51.000    36064668.750 7 187798193.68207       829.492 7        46.719                                                                    36064662.252 8 152601392.72508       673.979 8        51.563
C39        58.000    38050965.600 7 198141398.75007      1530.526 7        44.094                                                                    38050961.623 7 161006111.23507      1243.603 7        45.938
C40        59.000    41237803.546 6 214735923.90006     -1375.426 6        37.219                                                                    41237812.462 5 174490504.48105     -1117.997 5        35.188
C41        16.000    22681630.346 8 118109198.03608      -533.215 8        48.313                                                                    22681632.669 8  95973403.92008      -433.291 8        52.188
C59        22.000    36907030.799 7 192184598.94407       333.831 7        45.156                                                                    36907014.969 8 156165661.64408       271.271 8        50.031
C60        53.000    39490137.277 6 205635509.66206       325.536 6        38.000                                                                    39490123.312 7 167095637.32907       264.614 7        42.344
E04        20.000    24490566.051 7 128698825.95807      1487.250 7        44.594    24490564.785 6  96106277.32606      1110.497 6        38.781    24490563.497 6  98613395.20406      1139.588 6        41.219
E09        50.000    28493854.290 5 149736251.91805      2560.706 5        32.656                                                                    28493862.641 4 114733018.53604      1962.679 4        26.406
E10        18.000    23914686.460 7 125672532.14207       960.865 7        46.063    23914684.304 6  93846367.98206       717.573 6        40.594    23914683.511 7  96294530.50807       736.270 7        42.438
E11        29.000    24495379.130 6 128724116.75506      2300.412 6        40.844    24495375.094 5  96125152.39705      1717.914 5        32.875    24495373.760 5  98632758.70805      1762.729 5        34.281
E12        25.000    23731423.372 6 124709464.04406      -461.617 6        41.906    23731419.095 6  93127178.27906      -344.813 6        38.594    23731418.365 6  95556578.79806      -353.817 6        40.969
E19        12.000    23827359.658 7 125213616.34107      -963.020 7        42.375    23827356.471 5  93503660.34005      -719.149 5        35.375    23827355.163 6  95942883.02106      -737.805 6        37.469
E21         6.000    28271710.942 6 148568849.77506      2429.689 6        36.406    28271716.658 5 110944293.45705      1814.798 5        31.094    28271714.290 5                      1861.826 5        33.281
E27        45.000    28672826.492 6 150676723.87806      1081.468 6        36.156    28672830.018 4                       807.646 4        29.094    28672828.204 5                       828.381 5        30.594
E33        35.000    26139492.432 6 137363911.11106     -2619.720 6        41.125    26139494.835 5 102576931.47805     -1956.124 5        32.281    26139493.986 6 105252845.68606     -2007.403 6        36.375
G05         5.000    20437491.888 7 107399745.32907        35.259 7        46.906    20437486.174 8  83688089.00008        27.473 8        49.250    20437485.924 7  83688078.01107        27.428 7        46.375
G07         7.000    25980855.926 5 136530299.82205     -2654.110 5        32.750    25980853.560 2 106387224.51902     -2068.086 2        15.219    25980854.152 4 106387248.53104     -2067.926 4        29.625
G11        11.000    23428480.301 6 123117436.32406     -3257.570 6        41.813    23428479.358 4  95935631.80804     -2538.371 4        25.813    23428479.490 6  95935628.80406     -2538.437 6        39.063    23428485.015 5  91938328.17805     -2432.620 5        34.594
G13        13.000    19951173.121 7 104844129.88607      -655.190 7        46.375    19951166.401 6  81696701.16006      -510.540 6        39.031
G14        33.000    25033587.637 6 131552422.56406      2016.236 6        38.531    25033587.562 3 102508370.39803      1571.091 3        20.031    25033586.433 6 102508366.42706      1571.122 6        36.281    25033592.713 5  98237204.57105      1505.444 5        31.844
G15        15.000    20507599.934 7 107768201.59607      1619.298 7        47.094    20507595.059 7  83975216.16207      1261.789 7        46.844    20507594.732 7  83975213.17707      1261.669 7        44.031
G18        27.000    23005022.752 6 120892253.18306      3182.441 6        41.844    23005020.139 4  94201757.60504      2479.812 4        28.063    23005019.173 6  94201759.61106      2479.880 6        41.219    23005023.965 6  90276707.27106      2376.403 6        36.438
G20         4.000    21126369.423 7 111019802.95607     -1222.110 7        46.250    21126363.890 5  86508906.07505      -952.292 5        35.313
G22        52.000    25201915.512 5 132436963.68905      2302.606 5        34.656    25201915.241 1 103197639.21601      1794.223 1        11.250
G24         3.000    23557886.512 6 123797581.40606      4244.125 6        37.750    23557890.612 5  96465681.42705      3307.097 5        32.094    23557889.907 6  96465702.46906      3307.107 6        37.656    23557891.618 5  92446295.32005      3169.656 5        33.750
G29         8.000    23961323.154 6 125917555.95506     -1890.470 6        40.344    23961321.705 4  98117548.11404     -1473.091 4        29.625    23961321.191 5  98117542.08805     -1472.923 5        31.906
G30         1.000    23259804.556 7 122231084.76907     -1977.666 7        42.625    23259802.710 6  95244989.20206     -1541.036 6        39.875    23259802.771 6  95244976.19206     -1541.038 6        39.469    23259802.705 6  91276449.03006     -1476.687 6        36.594
J03        46.000    37052634.584 7 194712900.71407       545.831 7        44.344    37052631.202 7 151724317.21007       425.349 7        46.344    37052633.742 6 145402480.47406       407.650 6        40.250
J07        21.000    37131973.182 6 195129837.86806       321.527 6        38.438    37131968.930 7 152049199.61507       250.624 7        44.313    37131971.514 6 145713835.15806       240.209 6        39.750
R01        37.000    21342318.200 7 114086905.71407     -1676.792 7        45.938    21342315.660 6  88734234.24606     -1304.124 6        40.031
R02         2.000    20187375.587 8 107723715.93908       415.565 8        51.094    20187372.154 8  83785108.53208       323.194 8        48.281
R03        34.000    22565071.081 7 120792699.14707      2455.403 7        43.375    22565068.324 6  93949920.63506      1909.730 6        40.906
R11        36.000    22126123.565 7 118235334.03007       188.393 7        47.938    22126120.708 7  91960821.46907       146.511 7        44.469
R12        24.000    22124858.758 7 118187194.64907      3564.857 7        47.156    22124860.154 7  91923445.79907      2772.698 7        42.625
R13        55.000    24323465.271 5 129885960.79705      4331.298 5        33.156    24323477.020 5 101022464.71005      3368.537 5        30.906
R17        10.000    19960063.698 8 106810329.00508      -434.443 8        50.406    19960059.875 8  83074685.22108      -337.883 8        48.875
R18        57.000    21966752.437 7 117260036.32407      3100.859 7        44.938    21966749.875 7  91202265.74607      2411.781 7        43.313
R24        19.000    21726806.638 7 116182937.02207     -3743.705 7        46.219    21726806.319 7  90364477.46507     -2911.813 7        45.000
> 2024 06 24 08 20 14.0000000  0 57
C01         9.000    36688397.571 7 191046116.08607       304.967 7        43.250    36688391.755 6 147728955.91506       235.792 6        39.563    36688393.318 7 155240602.40207       247.864 7        45.875
C02        44.000    38961467.282 6 202882581.45706       354.286 6        36.094    38961462.025 5 156881664.74405       273.614 5        34.438    38961464.031 6 164858704.00906       287.773 6        38.344
C03        54.000    37375106.834 7 194621989.48707       316.208 7        42.031    37375099.418 6 150494042.48006       244.259 6        36.750    37375101.181 7 158146287.63607       256.816 7        44.313
C04        26.000    37590245.396 7 195742276.56307       290.108 7        42.125    37590237.935 6 151360313.42706       224.455 6        38.500    37590238.858 7 159056602.36107       235.789 7        43.469
C05        60.000    41653813.956 5 216902340.84705       358.071 5        35.938    41653814.633 5                       277.342 5        31.688    41653812.458 5 176250916.58405       290.821 5        34.938
C06        17.000    38923973.093 6 202687374.76806      1647.173 6        38.625    38923968.759 5 156730738.12905      1273.414 5        34.281    38923967.923 7 164700086.54207      1338.370 7        42.156
C07        40.000    41176857.221 5 214418619.11005     -1121.026 5        32.938    41176862.833 5                      -866.452 5        30.063    41176858.431 6 174232647.91006      -911.017 6        38.438
C08        39.000    36754402.349 7 191389825.24007      1030.468 7        42.625    36754392.271 6 147994715.54106       796.935 6        39.844    36754391.351 7 155519868.19907       837.348 7        46.719
C10        30.000    40682289.382 5 211843270.87105     -1249.883 5        32.156    40682294.792 5                      -965.965 5        30.094    40682289.542 5 172139988.22805     -1015.529 5        35.406
C13        32.000    37225361.747 7 193842241.06507      1080.561 7        43.906    37225360.782 6 149891111.75106       835.603 6        37.781    37225358.896 7 157512684.11607       877.952 7        45.844
C16        49.000    38989219.931 6 203027147.10406      1591.126 6        40.594    38989220.999 5 156993458.55005      1230.235 5        34.000    38989217.498 6 164976190.12106      1292.965 6        40.938
C23        47.000    24495401.525 7 127554107.02407      3046.859 7        44.063                                                                    24495392.736 7 103648177.43707      2475.774 7        46.094
C24        41.000    26039677.053 6 135595429.90606     -1478.825 6        40.125                                                                    26039672.028 6 110182376.74906     -1201.673 6        36.938
C25        48.000    23586911.043 7 122823277.61407       883.066 7        46.344                                                                    23586906.856 7  99803974.08407       717.553 7        47.031
C27        31.000    23510961.961 7 122427714.30507     -2097.172 7        44.688                                                                    23510960.122 7  99482523.51707     -1704.195 7        46.625
C28        23.000    25870636.913 5 134715088.42005     -2910.927 5        35.500                                                                    25870640.470 6 109467020.22906     -2365.250 6        38.313
C30        42.000    23956595.480 7 124748283.32407       262.014 7        46.219                                                                    23956594.786 7 101368199.17507       212.892 7        46.469
C32        43.000    23132347.443 7 120456226.62107      1594.361 7        47.094                                                                    23132344.026 8  97880553.68408      1295.514 8        49.844
C33        56.000    25894983.811 6 134841926.16806     -1795.746 6        40.906                                                                    25894994.871 6 109570141.75306     -1459.263 6        40.969
C38        51.000    36064509.461 7 187797364.21207       829.097 7        46.781                                                                    36064502.970 8 152600718.71508       673.707 8        51.563
C39        58.000    38050671.697 7 198139868.30907      1530.050 7        43.938                                                                    38050667.721 7 161004867.62907      1243.182 7        45.906
C40        59.000    41238067.542 6 214737299.33906     -1375.777 6        37.094                                                                    41238076.517 5 174491622.09505     -1117.898 5        35.406
C41        16.000    22681732.793 8 118109731.31708      -533.718 8        48.375                                                                    22681735.062 8  95973837.25008      -433.677 8        52.188
C59        22.000    36906966.707 7 192184265.08207       333.432 7        45.094                                                                    36906950.819 8 156165390.34808       271.021 8        49.969
C60        53.000    39490074.522 6 205635184.03206       325.167 6        38.094                                                                    39490060.762 7 167095372.73707       264.383 7        42.469
E04        20.000    24490283.036 7 128697338.72707      1486.719 7        44.563    24490281.752 6  96105166.72806      1110.357 6        38.781    24490280.516 6  98612255.63006      1139.173 6        41.344
E09        50.000    28493366.993 5 149733690.85505      2560.630 5        32.313                                                                    28493375.458 4 114731056.20004      1962.024 4        26.500
E10        18.000    23914503.691 7 125671571.49507       960.029 7        46.031    23914501.445 6  93845650.61806       716.904 6        40.563    23914500.682 7  96293794.42607       735.676 7        42.531
E11        29.000    24494941.476 6 128721816.46806      2299.726 6        40.781    24494937.358 5  96123434.64705      1717.586 5        32.875    24494936.112 5  98630996.17205      1761.979 5        34.469
E12        25.000    23731511.209 6 124709925.90706      -462.453 6        41.750    23731506.950 6  93127523.15906      -345.320 6        38.406    23731506.264 6  95556932.68106      -354.402 6        41.063
E19        12.000    23827543.039 7 125214579.47207      -963.570 7        42.250    23827539.791 5  93504379.56005      -719.381 5        35.344    23827538.467 6  95943621.01406      -738.446 6        37.375
E21         6.000    28271248.594 6 148566420.03306      2429.243 6        36.469    28271254.321 5 110942479.01905      1814.200 5        31.063    28271252.067 5                      1861.837 5        33.188
E27        45.000    28672620.603 6 150675642.60406      1080.544 6        36.156    28672624.011 4                       807.654 4        28.719    28672622.214 5                       828.288 5        31.063
E33        35.000    26139990.902 6 137366530.85306     -2620.333 6        41.219    26139993.442 5 102578887.78905     -1956.981 5        31.938    26139992.448 6 105254852.98906     -2007.538 6        36.688
G05         5.000    20437485.249 7 107399710.24507        34.498 7        46.875    20437479.494 8  83688061.66308        26.880 8        49.313    20437479.198 7  83688050.66507        26.935 7        46.375
G07         7.000    25981360.528 5 136532953.64405     -2654.341 5        32.719    25981358.509 2 106389292.43502     -2068.306 2        15.594    25981358.888 4 106389316.41504     -2068.345 4        28.719
G11        11.000    23429100.311 6 123120693.99806     -3258.196 6        41.688    23429099.281 4  95938170.25204     -2538.850 4        26.000    23429099.404 6  95938167.22606     -2538.577 6        39.063    23429105.033 5  91940760.84405     -2432.898 5        34.500
G13        13.000    19951297.841 7 104844785.21607      -655.933 7        46.375    19951291.115 6  81697211.80606      -511.117 6        39.125
G14        33.000    25033203.932 6 131550406.52406      2015.532 6        38.438    25033203.888 3 102506799.46403      1570.546 3        19.906    25033202.910 6 102506795.49006      1570.670 6        36.094    25033208.840 5  98235699.09605      1505.204 5        32.125
G15        15.000    20507291.911 7 107766582.55007      1618.469 7        47.063    20507286.951 7  83973954.57007      1261.142 7        46.906    20507286.624 7  83973951.57807      1261.213 7        44.063
G18        27.000    23004416.934 6 120889070.87006      3181.731 6        41.781    23004414.520 4  94199277.88204      2479.264 4        28.031    23004413.738 6  94199279.89006      2479.249 6        41.313    23004418.360 6  90274330.86706      2376.085 6        36.469
G20         4.000    21126602.015 7 111021025.21407     -1222.821 7        46.250    21126596.477 5  86509858.48205      -952.845 5        35.375
G22        52.000    25201477.097 5 132434661.11005      2302.256 5        34.750    25201477.080 1 103195844.97401      1793.974 1        11.313
G24         3.000    23557078.962 6 123793337.27306      4243.822 6        37.531    23557082.957 5  96462374.32005      3306.871 5        32.250    23557082.180 6  96462395.35006      3306.844 6        37.656    23557083.996 5  92443126.03605      3168.952 5        33.875
G29         8.000    23961683.068 6 125919446.54406     -1891.162 6        40.313    23961681.496 4  98119021.29904     -1473.631 4        29.563    23961681.150 5  98119015.26605     -1473.089 5        32.063
G30         1.000    23260180.877 7 122233062.65007     -1978.483 7        42.875    23260179.105 6  95246530.40706     -1541.673 6        40.000    23260178.901 6  95246517.40406     -1541.578 6        39.344    23260179.299 6  91277926.02406     -1477.452 6        36.500
J03        46.000    37052530.785 7 194712354.84307       545.481 7        44.375    37052527.316 7 151723891.86207       425.000 7        46.344    37052529.819 6 145402072.85006       407.360 6        40.094
J07        21.000    37131911.804 6 195129516.25506       321.197 6        38.531    37131907.884 7 152048948.99707       250.363 7        44.281    37131910.248 6 145713594.99906       239.847 6        39.844
R01        37.000    21342631.817 7 114088582.47407     -1677.129 7        45.625    21342629.420 6  88735538.40006     -1304.579 6        40.219
R02         2.000    20187297.766 8 107723300.45708       414.925 8        51.031    20187294.283 8  83784785.38008       322.809 8        48.281
R03        34.000    22564612.658 7 120790243.83007      2454.867 7        43.594    22564609.663 6  93948010.94406      1909.396 6        41.000
R11        36.000    22126088.426 8 118235146.06608       187.148 8        48.000    22126085.555 7  91960675.27807       145.672 7        44.281
R12        24.000    22124191.400 7 118183629.93607      3564.133 7        47.188    22124192.784 7  91920673.25807      2772.074 7        42.438
R13        55.000    24322652.878 5 129881629.57405      4330.922 5        32.844    24322665.372 5 101019095.99005      3368.344 5        31.719
R17        10.000    19960144.871 8 106810763.85708      -435.665 8        50.469    19960141.100 8  83075023.44508      -338.851 8        48.906
R18        57.000    21966171.528 7 117256935.72207      3099.889 7        44.969    21966169.190 7  91199854.16107      2411.058 7        43.313
R24        19.000    21727506.813 7 116186680.86907     -3744.365 7        46.313    21727506.557 7  90367389.32807     -2912.289 7        44.906
> 2024 06 24 08 20 15.0000000  0 57
C01         9.000    36688338.881 7 191045810.86607       304.862 7        43.188    36688333.244 6 147728719.89006       235.748 6        39.594    36688334.699 7 155240354.39007       247.758 7        45.813
C02        44.000    38961399.421 6 202882227.16806       354.186 6        36.000    38961394.088 5 156881390.75905       273.837 5        34.500    38961395.959 6 164858416.12506       287.495 6        38.219
C03        54.000    37375046.024 7 194621673.23307       315.794 7        42.188    37375038.858 6 150493797.91206       244.246 6        36.969    37375040.466 7 158146030.63807       256.839 7        44.313
C04        26.000    37590189.581 7 195741986.13107       290.146 7        42.094    37590182.276 6 151360088.86706       224.316 6        38.656    37590183.101 7 159056366.37207       235.704 7        43.406
C05        60.000    41653745.191 5 216901982.50005       358.023 5        35.813    41653746.231 5                       276.719 5        31.781    41653743.720 5 176250625.39305       290.964 5        34.969
C06        17.000    38923656.871 6 202685727.47506      1646.876 6        38.813    38923652.264 5 156729464.30905      1273.737 5        34.250    38923651.571 7 164698747.97707      1338.130 7        42.125
C07        40.000    41177072.239 5 214419739.91405     -1121.060 5        33.000    41177077.959 4                      -866.649 4        29.938    41177073.632 6 174233558.67506      -911.121 6        38.438
C08        39.000    36754204.516 7 191388794.49707      1030.430 7        42.625    36754194.292 6 147993918.50706       796.836 6        39.844    36754193.414 7 155519030.63707       837.287 7        46.688
C10        30.000    40682529.358 5 211844520.32205     -1249.738 5        32.656    40682534.462 5                      -966.216 5        30.156    40682529.457 5 172141003.47405     -1015.479 5        35.469
C13        32.000    37225154.201 7 193841160.41307      1080.458 7        43.906    37225153.223 6 149890276.09706       835.473 6        37.750    37225151.323 7 157511805.99007       877.900 7        45.813
C16        49.000    38988914.344 6 203025555.90006      1590.844 6        40.625    38988915.357 5 156992228.13205      1230.208 5        34.125    38988911.953 6 164974897.14306      1292.637 6        40.969
C23        47.000    24494816.303 7 127551060.03807      3046.637 7        43.969                                                                    24494807.564 7 103645701.51907      2475.541 7        46.000
C24        41.000    26039961.006 6 135596908.79906     -1479.333 6        40.063                                                                    26039956.036 6 110183578.46406     -1202.202 6        36.938
C25        48.000    23586741.468 7 122822394.62607       882.399 7        46.469                                                                    23586737.310 7  99803256.58807       716.956 7        47.031
C27        31.000    23511364.731 7 122429811.44307     -2097.598 7        44.594                                                                    23511362.860 7  99484227.61307     -1704.493 7        46.688
C28        23.000    25871195.935 5 134717998.99305     -2910.953 5        35.281                                                                    25871199.266 6 109469385.30606     -2365.326 6        38.281
C30        42.000    23956545.166 7 124748021.38207       261.375 7        46.250                                                                    23956544.493 7 101367986.32107       212.346 7        46.406
C32        43.000    23132041.237 7 120454632.13607      1594.104 7        47.156                                                                    23132037.833 8  97879258.03008      1295.322 8        49.938
C33        56.000    25895328.617 6 134843721.68806     -1795.891 6        40.750                                                                    25895339.714 6 109571600.75106     -1459.303 6        40.875
C38        51.000    36064350.262 7 187796534.92007       828.988 7        46.875                                                                    36064343.719 8 152600044.85108       673.553 8        51.563
C39        58.000    38050377.793 7 198138338.14307      1529.811 7        43.875                                                                    38050373.851 7 161003624.24507      1243.063 7        45.938
C40        59.000    41238331.757 6 214738674.80606     -1375.666 6        36.719                                                                    41238340.622 5 174492739.78105     -1117.978 5        35.406
C41        16.000    22681835.305 8 118110264.86808      -533.872 8        48.344                                                                    22681837.543 8  95974270.81208      -433.898 8        52.125
C59        22.000    36906902.589 7 192183931.37207       333.440 7        45.219                                                                    36906886.723 8 156165119.19208       270.887 8        50.031
C60        53.000    39490011.812 6 205634858.56806       325.271 6        38.219                                                                    39489998.339 7 167095108.27907       264.114 7        42.313
E04        20.000    24490000.054 7 128695851.88907      1486.383 7        44.500    24489998.763 6  96104056.43206      1109.974 6        38.875    24489997.625 6  98611116.36906      1138.880 6        41.469
E09        50.000    28492879.648 5 149731130.07005      2560.743 5        32.000                                                                    28492888.337 4 114729094.09404      1961.303 4        26.375
E10        18.000    23914321.007 7 125670611.46307       959.436 7        46.031    23914318.729 6  93844933.70706       716.502 6        40.375    23914317.946 7  96293058.82007       735.110 7        42.531
E11        29.000    24494503.827 6 128719516.68006      2299.367 6        40.813    24494499.659 5  96121717.29405      1716.871 5        32.500    24494498.570 5  98629233.98905      1761.857 5        34.438
E12        25.000    23731599.097 6 124710388.37706      -462.968 6        41.688    23731594.926 6  93127868.51906      -345.683 6        38.281    23731594.256 6  95557287.04506      -354.741 6        40.906
E19        12.000    23827726.331 7 125215542.91007      -963.966 7        42.188    23827722.902 5  93505099.01105      -719.669 5        35.219    23827721.785 6  95944359.22206      -738.536 6        37.344
E21         6.000    28270786.309 6 148563990.54006      2428.984 6        36.125    28270791.958 5 110940664.82905      1814.003 5        31.313    28270789.684 5                      1861.415 5        32.938
E27        45.000    28672414.918 6 150674561.83306      1080.391 6        36.219    28672418.258 4                       806.818 4        28.875    28672416.412 5                       827.916 5        30.750
E33        35.000    26140489.416 6 137369150.93506     -2620.506 6        41.156    26140492.075 5 102580844.30505     -1956.850 5        32.281    26140491.008 6 105256860.59706     -2007.935 6        36.656
G05         5.000    20437478.600 7 107399675.68107        34.086 7        46.844    20437472.916 8  83688034.72908        26.561 8        49.313    20437472.641 7  83688023.73307        26.612 7        46.469
G07         7.000    25981865.853 5 136535607.75805     -2654.236 5        33.469    25981863.548 2 106391360.55902     -2068.214 2        16.000    25981863.257 4 106391384.51304     -2068.479 4        27.313
G11        11.000    23429720.239 6 123123952.03706     -3258.368 6        41.594    23429719.285 4  95940708.97704     -2538.976 4        25.844    23429719.623 6  95940705.96906     -2539.121 6        39.000    23429725.059 5  91943193.79705     -2433.103 5        34.563
G13        13.000    19951422.706 7 104845441.14007      -656.486 7        46.344    19951415.949 6  81697722.91806      -511.550 6        39.125
G14        33.000    25032820.327 6 131548390.88706      2015.251 6        38.313    25032820.267 3 102505228.84003      1570.307 3        20.094    25032819.090 6 102505224.89506      1570.088 6        36.031    25032825.197 5  98234193.94905      1504.646 5        31.781
G15        15.000    20506983.942 7 107764964.03807      1617.970 7        47.000    20506978.941 7  83972693.39007      1260.753 7        46.906    20506978.546 7  83972690.40507      1260.782 7        44.000
G18        27.000    23003811.324 6 120885889.10806      3181.369 6        41.781    23003809.085 4  94196798.58704      2478.989 4        28.125    23003808.292 6  94196800.59206      2478.901 6        41.250    23003812.869 6  90271954.88806      2375.467 6        36.313
G20         4.000    21126834.667 7 111022248.00307     -1223.253 7        46.250    21126829.171 5  86510811.30205      -953.184 5        35.375
G22        52.000    25201039.032 5 132432358.78105      2301.960 5        34.531    25201038.937 1 103194050.93901      1793.721 1        11.313
G24         3.000    23556271.316 6 123789093.46406      4243.403 6        37.750    23556275.364 5  96459067.45905      3306.541 5        32.219    23556274.535 6  96459088.50506      3306.483 6        37.625    23556276.461 5  92439956.94905      3169.024 5        33.625
G29         8.000    23962043.204 6 125921337.59506     -1891.559 6        40.219    23962041.359 4  98120494.83604     -1473.939 4        29.469    23962040.827 5  98120488.83605     -1473.702 5        32.250
G30         1.000    23260557.346 7 122235041.10207     -1978.941 7        42.938    23260555.597 6  95248072.05406     -1542.029 6        40.000    23260555.424 6  95248059.06406     -1542.185 6        39.219    23260555.671 6  91279403.44806     -1477.799 6        36.344
J03        46.000    37052426.890 7 194711809.22407       545.228 7        44.281    37052423.506 7 151723466.70407       424.820 7        46.406    37052425.955 6 145401665.40006       407.263 6        40.125
J07        21.000    37131850.334 6 195129194.78506       321.153 6        38.531    37131846.631 7 152048698.51907       250.211 7        44.375    37131849.043 6 145713354.95606       239.689 6        39.813
R01        37.000    21342945.363 7 114090259.48907     -1677.472 7        45.656    21342943.049 6  88736842.74006     -1304.712 6        40.250
R02         2.000    20187219.900 8 107722885.39608       414.608 8        51.000    20187216.566 8  83784462.56308       322.440 8        48.188
R03        34.000    22564153.796 7 120787788.80907      2454.546 7        43.813    22564150.917 6  93946101.48806      1909.176 6        41.125
R11        36.000    22126053.577 7 118234959.12207       186.234 7        47.875    22126050.745 7  91960529.87507       144.857 7        44.500
R12        24.000    22123524.080 7 118180065.74607      3563.700 7        47.250    22123525.562 7  91917901.10707      2771.776 7        42.469
R13        55.000    24321842.001 5 129877298.30605      4330.877 5        33.000    24321854.266 5 101015727.26005      3368.415 5        31.750
R17        10.000    19960226.235 8 106811199.79908      -436.716 8        50.469    19960222.635 8  83075362.50908      -339.719 8        48.938
R18        57.000    21965590.586 7 117253835.94707      3099.081 7        44.750    21965588.610 7  91197443.24507      2410.354 7        43.469
R24        19.000    21728206.842 7 116190425.14007     -3744.745 7        46.219    21728206.529 7  90370301.54107     -2912.671 7        44.813
> 2024 06 24 08 20 16.0000000  0 57
C01         9.000    36688280.146 7 191045505.36307       305.622 7        43.406    36688274.608 6 147728483.66306       236.283 6        39.563    36688276.023 7 155240106.10307       248.383 7        46.000
C02        44.000    38961331.385 6 202881872.57406       354.641 6        36.281    38961326.048 5 156881116.57605       274.320 5        34.563    38961327.896 6 164858127.98506       288.193 6        38.313
C03        54.000    37374985.273 7 194621356.66307       316.536 7        42.031    37374978.080 6 150493553.12206       244.839 6        36.813    37374979.634 7 158145773.41707       257.181 7        44.375
C04        26.000    37590133.645 7 195741695.43307       290.648 7        42.125    37590126.470 6 151359864.07206       224.663 6        38.594    37590127.237 7 159056130.15407       236.135 7        43.469
C05        60.000    41653676.226 5 216901623.87805       358.709 5        35.688    41653677.551 5 167722102.02705       277.183 5        31.469    41653674.866 5 176250333.97805       291.338 5        35.000
C06        17.000    38923340.381 6 202684079.95906      1647.419 6        38.625    38923336.038 5 156728190.36705      1273.806 5        33.844    38923335.171 7 164697409.22507      1338.683 7        42.031
C07        40.000    41177287.288 5 214420860.39205     -1120.372 5        33.063    41177292.945 5                      -866.040 5        30.625    41177288.792 6 174234469.12806      -910.518 6        38.281
C08        39.000    36754006.359 7 191387763.46507      1031.023 7        42.625    36753996.299 6 147993121.24206       797.313 6        39.781    36753995.440 7 155518192.83307       837.813 7        46.563
C10        30.000    40682768.874 5 211845769.40805     -1248.980 5        32.406    40682775.071 5                      -966.115 5        30.125    40682769.401 5 172142018.47405     -1014.946 5        35.250
C13        32.000    37224946.628 7 193840079.42407      1080.919 7        43.875    37224945.532 6 149889440.21506       836.033 6        37.875    37224943.731 7 157510927.59507       878.438 7        45.813
C16        49.000    38988608.772 6 203023964.47506      1591.399 6        40.500    38988609.722 5 156990997.54105      1230.621 5        34.063    38988606.344 6 164973603.97406      1293.136 6        40.750
C23        47.000    24494231.191 7 127548012.93407      3046.949 7        44.031                                                                    24494222.380 7 103643225.49707      2475.893 7        46.063
C24        41.000    26040245.040 6 135598387.82606     -1479.365 6        40.125                                                                    26040240.195 6 110184780.28706     -1202.044 6        37.250
C25        48.000    23586571.956 7 122821511.86207       882.480 7        46.469                                                                    23586567.807 7  99802539.26907       717.085 7        47.125
C27        31.000    23511767.445 7 122431908.59707     -2097.380 7        44.688                                                                    23511765.586 7  99485931.71207     -1704.244 7        46.656
C28        23.000    25871754.809 5 134720909.20605     -2910.281 5        35.594                                                                    25871758.146 6 109471750.07206     -2364.796 6        38.375
C30        42.000    23956494.974 7 124747759.67407       261.449 7        46.313                                                                    23956494.194 7 101367773.66207       212.472 7        46.500
C32        43.000    23131734.975 7 120453037.47107      1594.518 7        47.156                                                                    23131731.608 8  97877962.23708      1295.702 8        49.875
C33        56.000    25895673.203 6 134845516.93606     -1795.255 6        40.750                                                                    25895684.470 6 109573059.54406     -1458.905 6        40.906
C38        51.000    36064190.987 7 187795705.35207       829.503 7        46.844                                                                    36064184.417 8 152599370.75508       674.036 8        51.563
C39        58.000    38050083.983 7 198136807.80207      1530.235 7        44.094                                                                    38050079.943 7 161002380.71407      1243.445 7        45.938
C40        59.000    41238595.918 6 214740049.88206     -1375.196 6        36.719                                                                    41238604.778 5 174493857.13205     -1117.272 5        35.250
C41        16.000    22681937.786 8 118110798.25808      -533.473 8        48.344                                                                    22681939.989 8  95974704.23008      -433.526 8        52.188
C59        22.000    36906838.461 7 192183597.39307       333.901 7        45.250                                                                    36906822.569 8 156164847.80108       271.397 8        50.063
C60        53.000    39489949.200 6 205634532.84406       325.677 6        38.219                                                                    39489935.745 7 167094843.59207       264.775 7        42.250
E04        20.000    24489717.127 7 128694364.96607      1486.806 7        44.469    24489715.834 6  96102946.06406      1110.333 6        38.938    24489714.702 6  98609977.04406      1139.234 6        41.438
E09        50.000    28492392.050 5 149728569.17305      2560.608 5        32.094                                                                    28492401.382 4 114727131.72704      1962.143 4        26.406
E10        18.000    23914138.372 7 125669651.58707       959.576 7        46.125    23914136.031 6  93844216.92006       716.593 6        40.344    23914135.340 7  96292323.32207       735.395 7        42.406
E11        29.000    24494066.273 6 128717216.89306      2299.794 6        40.844    24494061.764 5  96119999.91405      1717.235 5        32.656    24494061.061 5  98627471.83405      1761.899 5        34.719
E12        25.000    23731687.136 6 124710851.01406      -462.780 6        41.844    23731682.925 6  93128213.99806      -345.580 6        38.281    23731682.322 6  95557641.54206      -354.705 6        40.938
E19        12.000    23827909.595 7 125216506.19207      -963.430 7        42.250    23827906.244 5  93505818.33505      -719.486 5        35.156    23827905.067 6  95945097.32506      -738.174 6        37.344
E21         6.000    28270323.803 6 148561560.84606      2429.676 6        36.000    28270329.721 5 110938850.42105      1814.256 5        30.656    28270327.501 5                      1861.635 5        33.031
E27        45.000    28672209.443 5 150673481.16705      1080.427 5        35.313    28672212.568 4                       807.093 4        28.938    28672210.579 5                       828.139 5        30.938
E33        35.000    26140987.923 6 137371770.91306     -2620.098 6        41.000    26140990.648 5 102582800.76305     -1956.364 5        32.031    26140989.488 6 105258868.10606     -2007.668 6        36.625
G05         5.000    20437472.069 7 107399641.17707        34.315 7        46.906    20437466.347 8  83688007.84308        26.739 8        49.344    20437466.024 7  83687996.85107        26.698 7        46.594
G07         7.000    25982371.173 5 136538261.80005     -2654.145 5        33.656    25982368.559 2 106393428.61902     -2068.104 2        15.750
G11        11.000    23430340.108 6 123127210.00006     -3258.090 6        41.813    23430339.289 4  95943247.63704     -2538.770 4        25.813    23430339.505 6  95943244.62906     -2538.707 6        39.219    23430345.065 5  91945626.67105     -2433.094 5        34.469
G13        13.000    19951547.429 7 104846097.18807      -656.275 7        46.375    19951540.810 6  81698234.12306      -511.385 6        39.156
G14        33.000    25032436.556 6 131546375.24606      2015.633 6        38.438    25032436.674 3 102503658.21503      1570.621 3        20.125    25032435.739 6 102503654.24806      1570.362 6        36.438    25032441.826 5  98232688.73405      1505.205 5        32.094
G15        15.000    20506675.948 7 107763345.60107      1618.192 7        47.063    20506670.954 7  83971432.27307      1260.925 7        46.906    20506670.609 7  83971429.28507      1260.898 7        44.000
G18        27.000    23003205.891 6 120882707.44406      3181.451 6        41.969    23003203.618 4  94194319.37004      2479.048 4        28.188    23003202.715 6  94194321.37506      2479.083 6        41.281    23003207.459 6  90269578.95406      2375.836 6        36.344
G20         4.000    21127067.412 7 111023470.87207     -1223.066 7        46.188    21127061.870 5  86511764.18505      -953.041 5        35.375
G22        52.000    25200600.609 5 132430056.22805      2302.237 5        34.813    25200600.776 1 103192256.75301      1793.888 1        10.938
G24         3.000    23555463.493 6 123784849.49906      4243.834 6        37.688    23555467.735 5  96455760.48405      3306.874 5        32.156    23555467.075 6  96455781.51206      3306.857 6        37.531    23555469.007 5  92436787.74305      3169.480 5        33.844
G29         8.000    23962403.193 6 125923228.61906     -1891.192 6        40.250    23962401.200 4  98121968.36204     -1473.648 4        29.469    23962400.894 5  98121962.36305     -1473.652 5        32.094
G30         1.000    23260933.897 7 122237019.70007     -1978.879 7        42.844    23260932.126 6  95249613.81806     -1541.985 6        40.000    23260932.085 6  95249600.81506     -1541.932 6        39.531    23260932.182 6  91280880.95306     -1477.607 6        36.500
J03        46.000    37052323.005 7 194711263.39107       545.745 7        44.250    37052319.688 7 151723041.37007       425.246 7        46.313    37052321.985 6 145401257.79106       407.783 6        40.188
J07        21.000    37131789.118 6 195128873.04806       321.669 6        38.438    37131785.368 7 152048447.80507       250.696 7        44.406    37131787.844 6 145713114.68806       240.177 6        39.750
R01        37.000    21343258.846 7 114091936.26307     -1676.839 7        45.781    21343256.579 6  88738146.89706     -1304.261 6        40.406
R02         2.000    20187142.105 8 107722470.29508       414.948 8        50.969    20187138.677 8  83784139.70408       322.723 8        48.125
R03        34.000    22563695.062 7 120785333.65107      2455.042 7        43.781    22563692.379 6  93944191.92406      1909.527 6        41.250
R11        36.000    22126018.567 8 118234772.70008       186.025 8        48.000    22126015.994 7  91960384.90207       144.590 7        44.594
R12        24.000    22122856.802 7 118176501.60007      3564.002 7        47.219    22122858.162 7  91915129.00307      2771.954 7        42.438
R13        55.000    24321030.137 5 129872966.60805      4331.382 5        32.969    24321042.381 5 101012358.18205      3369.002 5        32.125
R17        10.000    19960307.884 8 106811636.39008      -437.048 8        50.438    19960304.325 8  83075702.08008      -339.942 8        48.938
R18        57.000    21965010.056 7 117250736.56607      3099.040 7        44.750    21965008.359 7  91195032.61807      2410.343 7        43.406
R24        19.000    21728906.854 7 116194169.44407     -3744.515 7        46.313    21728906.808 7  90373213.76807     -2912.398 7        44.750
> 2024 06 24 08 20 17.0000000  0 57
C01         9.000    36688221.353 7 191045199.79707       306.051 7        43.313    36688215.846 6 147728247.36506       236.857 6        39.688    36688217.342 7 155239857.80507       248.761 7        45.875
C02        44.000    38961263.286 6 202881517.91906       355.007 6        36.406    38961257.981 5 156880842.32905       274.979 5        34.438    38961259.807 6 164857839.78806       288.706 6        38.250
C03        54.000    37374924.459 7 194621040.05707       317.173 7        42.250    37374917.262 6 150493308.28806       245.239 6        36.813    37374918.838 7 158145516.14607       257.699 7        44.313
C04        26.000    37590077.625 7 195741404.65907       291.265 7        42.188    37590070.575 6 151359639.22106       225.423 6        38.469    37590071.382 7 159055893.87107       236.834 7        43.344
C05        60.000    41653607.304 5 216901265.19905       359.207 5        35.750    41653608.639 5 167721824.64505       278.066 5        31.625    41653605.909 5 176250042.51505       291.904 5        35.188
C06        17.000    38923024.086 6 202682432.42206      1647.972 6        38.625    38923019.582 5 156726916.41205      1274.280 5        34.125    38923018.737 7 164696070.49007      1339.188 7        42.000
C07        40.000    41177502.400 5 214421980.65005     -1119.607 5        33.188    41177507.999 5                      -866.171 5        30.063    41177504.022 6 174235379.42506      -909.627 6        38.094
C08        39.000    36753808.270 7 191386732.31207      1031.666 7        42.781    36753798.361 6 147992323.90606       797.810 6        39.813    36753797.416 7 155517354.93907       838.398 7        46.594
C10        30.000    40683008.935 5 211847018.33305     -1248.029 5        32.688    40683015.179 5                      -965.728 5        30.125    40683009.185 5 172143033.33205     -1014.526 5        35.281
C13        32.000    37224739.112 7 193838998.32607      1081.611 7        43.813    37224737.850 6 149888604.25106       836.461 6        37.844    37224736.138 7 157510049.11507       878.964 7        45.781
C16        49.000    38988303.174 6 203022373.07806      1591.927 6        40.563    38988304.207 5 156989766.98305      1230.775 5        33.844    38988300.660 6 164972310.84106      1293.628 6        40.781
C23        47.000    24493645.943 7 127544965.92407      3047.573 7        44.219                                                                    24493637.217 7 103640749.55607      2476.376 7        46.000
C24        41.000    26040529.073 6 135599867.17906     -1478.987 6        40.156                                                                    26040524.643 6 110185982.38606     -1201.717 6        37.375
C25        48.000    23586402.484 7 122820629.53807       882.601 7        46.531                                                                    23586398.388 7  99801822.31107       717.197 7        47.063
C27        31.000    23512170.072 7 122434005.97407     -2096.949 7        44.875                                                                    23512168.342 7  99487636.01307     -1704.017 7        46.688
C28        23.000    25872313.795 6 134723819.25406     -2909.711 6        36.000                                                                    25872317.052 6 109474114.71706     -2364.186 6        38.125
C30        42.000    23956444.864 7 124747498.43907       261.568 7        46.406                                                                    23956444.046 7 101367561.39207       212.432 7        46.438
C32        43.000    23131428.691 7 120451442.83807      1595.148 7        47.156                                                                    23131425.379 8  97876666.46708      1296.177 8        49.813
C33        56.000    25896017.933 6 134847312.13606     -1794.739 6        41.000                                                                    25896029.310 6 109574518.27606     -1458.286 6        40.938
C38        51.000    36064031.609 7 187794875.71507       830.157 7        46.906                                                                    36064025.105 8 152598696.60908       674.605 8        51.469
C39        58.000    38049790.202 7 198135277.49207      1530.821 7        44.094                                                                    38049786.084 7 161001137.21907      1243.885 7        45.844
C40        59.000    41238859.776 6 214741424.73006     -1373.998 6        36.531                                                                    41238868.712 5 174494974.30905     -1116.704 5        34.781
C41        16.000    22682040.195 8 118111331.68908      -532.930 8        48.438                                                                    22682042.425 8  95975137.68808      -433.045 8        52.125
C59        22.000    36906774.289 7 192183263.33207       334.571 7        45.281                                                                    36906758.441 8 156164576.35508       271.871 8        50.000
C60        53.000    39489886.803 6 205634207.02606       326.498 6        38.313                                                                    39489873.138 7 167094578.84507       265.246 7        42.344
E04        20.000    24489434.176 7 128692878.22707      1487.225 7        44.563    24489432.939 6  96101835.84606      1110.524 6        39.063    24489431.761 6  98608837.85506      1139.547 6        41.406
E09        50.000    28491904.267 5 149726008.24005      2561.142 5        32.000                                                                    28491914.261 4 114725169.55604      1962.404 4        26.281
E10        18.000    23913955.778 7 125668692.08907       959.867 7        46.125    23913953.492 6  93843500.40406       716.864 6        40.375    23913952.763 7  96291588.14007       735.417 7        42.531
E11        29.000    24493628.676 6 128714917.39506      2299.966 6        40.875    24493624.326 5  96118282.75205      1717.426 5        32.375    24493623.418 5  98625709.88405      1761.819 5        34.406
E12        25.000    23731775.275 6 124711314.06006      -462.675 6        41.781    23731771.022 6  93128559.78406      -345.658 6        38.281    23731770.416 6  95557996.33606      -354.625 6        41.000
E19        12.000    23828092.975 7 125217469.54907      -962.909 7        42.281    23828089.690 5  93506537.73505      -718.905 5        35.313    23828088.388 6  95945835.48906      -737.899 6        37.594
E21         6.000    28269861.307 6 148559131.18006      2430.091 6        36.000    28269867.349 5 110937036.08105      1814.450 5        30.781    28269865.247 5                      1861.683 5        33.281
E27        45.000    28672003.608 5 150672400.82805      1080.632 5        35.156    28672007.347 4                       806.953 4        28.219    28672005.072 5                       827.923 5        30.375
E33        35.000    26141486.455 6 137374390.97206     -2619.605 6        41.125    26141489.280 5 102584757.32105     -1956.008 5        31.844    26141488.159 6 105260875.69906     -2007.364 6        36.813
G05         5.000    20437465.509 7 107399606.95507        34.613 7        46.875    20437459.836 8  83687981.17608        26.969 8        49.313    20437459.500 7  83687970.18807        26.958 7        46.563
G07         7.000    25982876.670 5 136540915.90905     -2653.735 5        32.938    25982873.598 2 106395496.74902     -2067.906 2        14.313
G11        11.000    23430959.999 6 123130468.09706     -3257.737 6        41.750    23430959.320 4  95945786.41104     -2538.485 4        25.813    23430959.539 6  95945783.39606     -2538.429 6        39.219    23430965.130 5  91948059.66505     -2432.564 5        34.531
G13        13.000    19951672.294 7 104846753.59607      -656.089 7        46.406    19951665.734 6  81698745.60906      -511.239 6        39.188
G14        33.000    25032053.265 6 131544359.75806      2015.968 6        38.656    25032053.071 3 102502087.71303      1570.881 3        20.188    25032052.490 6 102502083.72706      1570.963 6        36.438    25032058.493 5  98231183.67205      1505.459 5        32.375
G15        15.000    20506368.084 7 107761727.46707      1618.516 7        47.094    20506363.020 7  83970171.39107      1261.181 7        46.906    20506362.603 7  83970168.40407      1261.205 7        44.000
G18        27.000    23002600.493 7 120879526.08107      3181.771 7        42.094    23002598.205 4  94191840.38904      2479.302 4        28.000    23002597.386 6  94191842.39906      2479.099 6        41.188    23002602.103 6  90267203.27506      2376.023 6        36.469
G20         4.000    21127300.236 7 111024694.03207     -1222.833 7        46.156    21127294.632 5  86512717.29605      -952.852 5        35.344
G22        52.000    25200162.382 5 132427753.68205      2303.196 5        35.156    25200162.620 2 103190462.57202      1794.685 2        12.000
G24         3.000    23554655.851 6 123780605.56206      4244.438 6        37.688    23554660.093 5  96452453.53005      3307.347 5        32.125    23554659.399 6  96452474.55406      3307.331 6        37.281    23554661.482 5  92433618.61805      3169.346 5        33.781
G29         8.000    23962763.066 6 125925119.88706     -1890.936 6        40.281    23962761.089 4  98123442.06904     -1473.458 4        29.375    23962760.371 5  98123436.04905     -1473.367 5        32.250
G30         1.000    23261310.286 7 122238998.63907     -1978.629 7        42.875    23261308.717 6  95251155.84906     -1541.789 6        39.969    23261308.602 6  95251142.84506     -1541.612 6        39.344    23261308.802 6  91282358.73606     -1477.470 6        36.250
J03        46.000    37052219.184 7 194710717.55307       546.291 7        44.281    37052215.708 7 151722616.04507       425.767 7        46.438    37052218.215 6 145400850.19106       407.940 6        40.313
J07        21.000    37131727.843 6 195128551.22406       322.463 6        38.250    37131723.967 7 152048197.03907       251.161 7        44.406    37131726.584 6 145712874.35806       240.745 6        39.813
R01        37.000    21343572.450 7 114093613.03607     -1676.203 7        45.719    21343570.223 6  88739451.04006     -1303.594 6        40.469
R02         2.000    20187064.290 8 107722055.35308       415.400 8        50.938    20187060.927 8  83783816.97308       323.091 8        48.094
R03        34.000    22563236.409 7 120782878.55607      2455.581 7        43.563    22563234.062 6  93942282.40806      1909.949 6        41.375
R11        36.000    22125983.851 7 118234587.04407       185.792 7        47.906    22125981.321 7  91960240.48907       144.532 7        44.969
R12        24.000    22122189.748 7 118172937.75907      3564.181 7        47.219    22122190.877 7  91912357.12507      2772.155 7        42.656
R13        55.000    24320218.880 5 129868634.60605      4332.867 5        33.344    24320230.407 5 101008988.90205      3369.791 5        32.000
R17        10.000    19960389.782 8 106812073.85708      -437.341 8        50.438    19960386.058 8  83076042.32708      -340.148 8        48.906
R18        57.000    21964429.416 7 117247637.78407      3099.024 7        44.844    21964427.686 7  91192622.45207      2410.360 7        43.500
R24        19.000    21729607.112 7 116197914.03007     -3744.213 7        46.344    21729606.869 7  90376126.21807     -2912.203 7        44.844
> 2024 06 24 08 20 18.0000000  0 57
C01         9.000    36688162.650 7 191044894.23107       305.475 7        43.313    36688157.192 6 147728011.09206       236.301 6        39.719    36688158.665 7 155239609.52107       248.397 7        45.875
C02        44.000    38961195.018 5 202881163.27005       354.485 5        35.938    38961190.021 5 156880568.09605       274.294 5        34.719    38961191.660 6 164857551.62206       288.118 6        38.188
C03        54.000    37374863.658 7 194620723.45307       316.609 7        42.063    37374856.108 6 150493063.48506       244.854 6        36.781    37374858.050 7 158145258.86807       257.220 7        44.313
C04        26.000    37590021.734 7 195741113.88607       290.842 7        42.219    37590014.505 6 151359414.40106       224.700 6        38.688    37590015.531 7 159055657.60107       236.340 7        43.375
C05        60.000    41653538.477 5 216900906.50505       358.648 5        35.906    41653540.496 5 167721547.28105       277.466 5        31.531    41653537.095 5 176249751.04405       291.519 5        34.938
C06        17.000    38922707.770 6 202680784.99806      1647.327 6        38.656    38922703.070 5 156725642.51205      1273.907 5        33.906    38922702.265 6 164694731.81806      1338.602 6        41.875
C07        40.000    41177717.520 5 214423100.82505     -1120.098 5        33.250    41177723.370 4                      -866.167 4        29.938    41177719.099 6 174236289.67606      -910.235 6        37.781
C08        39.000    36753610.111 7 191385701.15807      1031.177 7        42.625    36753600.556 6 147991526.54706       797.431 6        39.969    36753599.377 7 155516517.04307       837.869 7        46.625
C10        30.000    40683248.905 5 211848267.25205     -1249.104 5        32.656    40683255.462 5                      -965.458 5        30.125    40683248.961 5 172144048.15805     -1014.816 5        35.188
C13        32.000    37224531.554 7 193837917.20407      1081.167 7        43.875    37224530.306 6 149887768.24606       836.074 6        37.875    37224528.516 7 157509170.61707       878.467 7        45.719
C16        49.000    38987997.660 6 203020781.77706      1591.213 6        40.531    38987999.170 5 156988536.47705      1230.468 5        33.750    38987995.057 6 164971017.77706      1293.035 6        40.813
C23        47.000    24493060.773 7 127541919.09207      3046.790 7        44.000                                                                    24493052.071 7 103638273.76207      2475.688 7        45.969
C24        41.000    26040812.948 6 135601346.97706     -1480.137 6        40.031                                                                    26040809.216 6 110187184.84506     -1202.511 6        37.281
C25        48.000    23586233.081 7 122819747.73007       881.584 7        46.531                                                                    23586229.021 7  99801105.76307       716.390 7        47.031
C27        31.000    23512573.043 7 122436103.67807     -2097.855 7        44.875                                                                    23512571.181 7  99489340.55207     -1704.650 7        46.625
C28        23.000    25872872.435 5 134726729.23205     -2909.941 5        35.781                                                                    25872876.066 6 109476479.28806     -2364.356 6        38.000
C30        42.000    23956394.800 7 124747237.73607       260.414 7        46.500                                                                    23956394.009 7 101367349.54707       211.640 7        46.438
C32        43.000    23131122.391 7 120449848.32407      1594.485 7        47.281                                                                    23131119.170 8  97875370.79308      1295.690 8        49.781
C33        56.000    25896362.644 6 134849107.33706     -1795.216 6        41.000                                                                    25896374.056 6 109575977.02906     -1458.823 6        40.875
C38        51.000    36063872.176 7 187794046.09207       829.638 7        46.938                                                                    36063865.791 8 152598022.47408       674.126 8        51.531
C39        58.000    38049496.395 7 198133747.30107      1530.106 7        44.031                                                                    38049492.253 7 160999893.81007      1243.338 7        45.938
C40        59.000    41239123.805 6 214742799.51906     -1374.905 6        36.156                                                                    41239132.701 5 174496091.40605     -1117.056 5        34.719
C41        16.000    22682142.687 8 118111865.24308      -533.586 8        48.375                                                                    22682144.872 8  95975571.23908      -433.557 8        52.094
C59        22.000    36906710.068 7 192182929.29007       334.057 7        45.219                                                                    36906694.314 8 156164304.91208       271.477 8        49.969
C60        53.000    39489824.312 6 205633881.24106       325.691 6        38.156                                                                    39489810.571 7 167094314.10707       264.733 7        42.281
E04        20.000    24489151.301 7 128691391.71807      1486.474 7        44.563    24489149.973 6  96100725.80206      1109.847 6        38.875    24489148.854 6  98607698.84706      1138.920 6        41.500
E09        50.000    28491416.971 5 149723447.43405      2560.494 5        32.188                                                                    28491426.558 4 114723207.35604      1961.943 4        26.188
E10        18.000    23913773.306 7 125667733.05607       958.863 7        46.188    23913770.980 6  93842784.25006       716.091 6        40.438    23913770.247 7  96290853.28807       734.635 7        42.594
E11        29.000    24493191.084 6 128712618.19806      2299.019 6        41.000    24493186.830 5  96116565.83705      1716.620 5        32.688    24493185.858 5  98623948.15305      1761.601 5        34.563
E12        25.000    23731863.462 7 124711777.56707      -463.764 7        42.000    23731859.198 6  93128905.89306      -346.320 6        38.406    23731858.474 6  95558351.47806      -355.362 6        40.844
E19        12.000    23828276.236 7 125218433.06207      -963.544 7        42.188    23828273.063 5  93507257.26505      -719.664 5        35.500    23828271.705 6  95946573.77306      -738.422 6        37.438
E21         6.000    28269398.806 5 148556701.62405      2429.576 5        35.938    28269404.929 5 110935221.77905      1814.589 5        31.156    28269403.069 5                      1861.529 5        33.469
E27        45.000    28671797.838 5 150671320.85105      1079.769 5        34.844    28671801.961 4                       806.279 4        28.688    28671799.449 5                       827.127 5        30.563
E33        35.000    26141985.055 6 137377011.21806     -2620.234 6        41.219    26141987.995 5 102586713.99305     -1956.749 5        31.969    26141986.829 6 105262883.38706     -2007.886 6        37.000
G05         5.000    20437459.058 7 107399573.11107        33.703 7        46.906    20437453.397 8  83687954.80408        26.263 8        49.313    20437453.181 7  83687943.81607        26.218 7        46.594
G07         7.000    25983381.951 4 136543570.22404     -2654.805 4        29.688    25983378.690 2 106397565.02402     -2068.374 2        12.906
G11        11.000    23431580.128 6 123133726.39506     -3258.387 6        41.719    23431579.391 4  95948325.34004     -2538.996 4        25.813    23431579.303 6  95948322.32306     -2538.877 6        39.094    23431585.211 5  91950492.81105     -2433.145 5        34.469
G13        13.000    19951797.295 7 104847410.43707      -657.065 7        46.438    19951790.734 6  81699257.43306      -511.997 6        39.188
G14        33.000    25031670.203 6 131542344.54906      2015.046 6        38.281    25031669.603 3 102500517.43103      1570.156 3        20.219    25031669.402 6 102500513.43506      1570.099 6        36.125    25031675.029 5  98229678.81605      1504.638 5        32.531
G15        15.000    20506060.217 7 107760109.71007      1617.593 7        47.125    20506055.158 7  83968910.80307      1260.461 7        46.875    20506054.785 7  83968907.81907      1260.398 7        44.063
G18        27.000    23001995.167 7 120876345.11407      3180.810 7        42.063    23001992.877 4  94189361.71904      2478.551 4        28.125    23001991.897 6  94189363.72806      2478.489 6        41.281    23001996.862 6  90264827.89806      2375.100 6        36.344
G20         4.000    21127533.103 7 111025917.56707     -1223.748 7        46.188    21127527.442 5  86513670.69705      -953.564 5        35.344
G22        52.000    25199724.280 5 132425451.21905      2302.495 5        35.500    25199724.490 2 103188668.44302      1794.161 2        12.906
G24         3.000    23553848.196 6 123776361.80006      4243.605 6        37.656    23553852.518 5  96449146.70705      3306.701 5        32.063    23553851.969 6  96449167.74806      3306.745 6        37.469    23553853.780 5  92430449.57905      3168.973 5        33.875
G29         8.000    23963122.988 6 125927011.41706     -1891.539 6        40.250    23963121.059 4  98124915.98104     -1473.923 4        29.344    23963121.304 5  98124909.98405     -1474.082 5        32.594
G30         1.000    23261686.805 7 122240978.00907     -1979.577 7        42.844    23261685.389 6  95252698.21206     -1542.525 6        39.906    23261685.179 6  95252685.20706     -1542.480 6        39.219    23261685.485 6  91283836.84006     -1478.319 6        36.281
J03        46.000    37052115.210 7 194710171.80307       545.722 7        44.188    37052111.887 7 151722190.78507       425.256 7        46.344    37052114.419 6 145400442.66406       407.409 6        40.313
J07        21.000    37131666.429 6 195128229.41306       321.805 6        38.469    37131662.554 7 152047946.27307       250.752 7        44.406    37131665.436 6 145712634.05006       240.226 6        39.875
R01        37.000    21343886.165 7 114095289.88607     -1676.860 7        45.813    21343884.104 6  88740755.25506     -1304.182 6        40.406
R02         2.000    20186986.644 8 107721640.59508       414.699 8        50.938    20186983.237 8  83783494.38408       322.553 8        48.156
R03        34.000    22562777.529 7 120780423.61707      2454.915 7        43.625    22562775.551 6  93940373.02506      1909.376 6        41.469
R11        36.000    22125949.112 7 118234402.22107       184.349 7        47.750    22125946.910 7  91960096.72507       143.441 7        45.094
R12        24.000    22121522.671 7 118169374.28607      3563.312 7        47.094    22121523.841 7  91909585.54707      2771.395 7        42.781
R13        55.000    24319407.803 5 129864302.48005      4332.303 5        33.438    24319419.687 5 101005619.50605      3369.194 5        30.875
R17        10.000    19960471.773 8 106812512.22008      -438.784 8        50.438    19960468.018 8  83076383.27608      -341.295 8        48.844
R18        57.000    21963849.009 7 117244539.67107      3097.839 7        44.844    21963847.307 7  91190212.80907      2409.409 7        43.531
R24        19.000    21730307.515 7 116201658.99007     -3745.062 7        46.281    21730307.577 7  90379038.95607     -2912.845 7        44.844
> 2024 06 24 08 20 19.0000000  0 57
C01         9.000    36688103.964 7 191044588.67607       305.485 7        43.344    36688098.546 6 147727774.82406       236.294 6        39.625    36688099.993 7 155239361.22207       248.260 7        45.844
C02        44.000    38961126.973 6 202880808.63206       354.684 6        36.094    38961121.806 5 156880293.86405       274.269 5        34.469    38961123.588 6 164857263.45006       288.117 6        38.250
C03        54.000    37374802.889 7 194620406.84107       316.671 7        42.188    37374795.226 6 150492818.64906       245.025 6        36.719    37374797.290 7 158145001.60507       257.343 7        44.281
C04        26.000    37589965.807 7 195740823.13607       290.654 7        42.125    37589958.785 6 151359189.55506       224.849 6        38.625    37589959.712 7 159055421.34407       236.259 7        43.406
C05        60.000    41653469.534 5 216900547.80905       358.788 5        35.719    41653472.062 5 167721269.93505       277.183 5        31.938    41653468.160 5 176249459.58205       291.573 5        34.750
C06        17.000    38922391.439 6 202679137.64206      1647.318 6        38.563    38922386.562 5 156724368.66305      1273.877 5        34.031    38922385.888 6 164693393.21206      1338.561 6        41.938
C07        40.000    41177932.531 5 214424220.92905     -1120.231 5        33.000    41177938.826 5                      -865.976 5        30.188    41177934.158 6 174237199.81306      -910.136 6        37.750
C08        39.000    36753412.096 7 191384669.98507      1031.142 7        42.563    36753402.561 6 147990729.18006       797.367 6        40.000    36753401.304 7 155515679.13007       837.990 7        46.656
C10        30.000    40683488.725 5 211849516.09305     -1248.914 5        32.438    40683494.944 4                      -965.511 4        29.781    40683488.804 5 172145062.90005     -1014.675 5        35.438
C13        32.000    37224323.930 7 193836836.04707      1081.120 7        43.844    37224322.843 6 149886932.24306       835.964 6        37.969    37224320.901 7 157508292.08707       878.570 7        45.688
C16        49.000    38987692.076 6 203019190.56506      1591.023 6        40.531    38987693.664 5 156987306.07605      1230.157 5        33.906    38987689.498 6 164969724.79206      1292.888 6        40.750
C23        47.000    24492475.620 7 127538872.42807      3046.654 7        43.969                                                                    24492467.016 7 103635798.10407      2475.595 7        45.844
C24        41.000    26041097.216 6 135602827.17606     -1480.508 6        40.344                                                                    26041093.741 6 110188387.63606     -1202.957 6        37.375
C25        48.000    23586063.866 7 122818866.44807       881.080 7        46.531                                                                    23586059.791 7  99800389.66107       715.941 7        47.094
C27        31.000    23512975.965 7 122438201.67507     -2098.106 7        44.781                                                                    23512974.088 7  99491045.35307     -1704.888 7        46.531
C28        23.000    25873431.014 5 134729639.11305     -2909.604 5        35.469                                                                    25873434.990 6 109478843.82506     -2364.439 6        38.094
C30        42.000    23956344.826 7 124746977.58207       259.922 7        46.469                                                                    23956344.060 7 101367138.14807       211.192 7        46.375
C32        43.000    23130816.170 7 120448253.91907      1594.362 7        47.219                                                                    23130812.978 8  97874075.21608      1295.536 8        49.781
C33        56.000    25896707.359 6 134850902.58106     -1795.291 6        41.031                                                                    25896718.802 6 109577435.80806     -1458.782 6        40.938
C38        51.000    36063712.860 7 187793216.49507       829.682 7        46.781                                                                    36063706.450 8 152597348.35508       674.179 8        51.500
C39        58.000    38049202.543 7 198132217.21607      1530.077 7        43.906                                                                    38049198.381 7 160998650.49407      1243.315 7        45.813
C40        59.000    41239387.588 5 214744174.16505     -1374.532 5        35.719                                                                    41239396.716 5 174497208.41205     -1116.969 5        34.469
C41        16.000    22682245.146 8 118112398.91908      -533.676 8        48.375                                                                    22682247.337 8  95976004.89608      -433.648 8        52.094
C59        22.000    36906645.927 7 192182595.25007       334.069 7        45.219                                                                    36906630.155 8 156164033.48408       271.485 8        49.969
C60        53.000    39489761.804 6 205633555.44606       325.701 6        38.063                                                                    39489748.031 7 167094049.37407       264.842 7        42.219
E04        20.000    24488868.374 7 128689905.42807      1486.121 7        44.688    24488867.183 6  96099615.89606      1109.743 6        38.844    24488866.085 6  98606559.99406      1138.744 6        41.500
E09        50.000    28490930.069 5 149720886.75605      2560.565 5        32.500                                                                    28490939.229 4 114721245.36504      1961.686 4        26.250
E10        18.000    23913590.874 7 125666774.48007       958.371 7        46.250    23913588.556 6  93842068.43806       715.556 6        40.438    23913587.844 7  96290118.79507       734.293 7        42.656
E11        29.000    24492753.672 6 128710319.32906      2298.642 6        41.063    24492749.359 5  96114849.12805      1716.571 5        32.219    24492748.417 5  98622186.66805      1761.264 5        34.656
E12        25.000    23731951.651 6 124712241.52506      -464.131 6        41.969    23731947.586 6  93129252.35606      -346.440 6        38.375    23731946.782 6  95558706.98806      -355.665 6        41.094
E19        12.000    23828459.618 7 125219396.71207      -963.733 7        42.344    23828456.355 5  93507976.85405      -719.698 5        35.500    23828455.075 6  95947312.13906      -738.434 6        37.500
E21         6.000    28268936.451 5 148554272.15205      2429.291 5        35.813    28268942.449 5 110933407.58505      1814.155 5        31.406    28268940.815 5                      1861.513 5        33.469
E27        45.000    28671592.320 5 150670241.27705      1079.443 5        34.875    28671596.235 4                       805.977 4        28.063    28671593.965 5                       827.246 5        30.250
E33        35.000    26142483.652 6 137379631.65306     -2620.589 6        41.344    26142486.678 5 102588670.79905     -1956.708 5        32.094    26142485.497 6 105264891.24706     -2007.906 6        36.469
G05         5.000    20437452.767 7 107399539.64007        33.359 7        47.094    20437447.030 8  83687928.72008        25.995 8        49.375    20437446.728 7  83687917.73507        25.951 7        46.563
G07         7.000    25983888.089 4                     -2665.106 4        25.250                                                                    25983883.348 4                     -2068.708 4        26.063
G11        11.000    23432200.155 7 123136984.91007     -3258.587 7        42.031    23432199.511 4  95950864.43604     -2539.153 4        25.844    23432199.281 6  95950861.42406     -2539.046 6        39.156    23432205.127 5  91952926.11305     -2433.353 5        34.406
G13        13.000    19951922.394 7 104848067.69207      -657.505 7        46.469    19951915.819 6  81699769.58006      -512.343 6        39.250
G14        33.000    25031286.923 6 131540329.57206      2014.890 6        38.344    25031286.233 3 102498947.32703      1570.058 3        20.000    25031286.279 5 102498943.32605      1570.146 5        35.781    25031291.697 5  98228174.11905      1504.676 5        32.031
G15        15.000    20505752.383 7 107758492.32807      1617.260 7        47.281    20505747.367 7  83967650.50807      1260.203 7        46.938    20505746.971 7  83967647.52507      1260.166 7        44.000
G18        27.000    23001389.915 7 120873164.54907      3180.426 7        42.125    23001387.634 4  94186883.35904      2478.245 4        28.094    23001386.756 6  94186885.36806      2478.224 6        41.281    23001391.615 6  90262452.78006      2374.938 6        36.281
G20         4.000    21127765.973 7 111027141.46807     -1224.043 7        46.219    21127760.329 5  86514624.38605      -953.798 5        35.344
G22        52.000    25199286.484 6 132423148.85606      2302.093 6        36.219    25199286.370 2 103186874.38302      1793.862 2        13.188
G24         3.000    23553040.553 6 123772118.16706      4243.508 6        37.875    23553044.947 5  96445839.99305      3306.616 5        32.031    23553044.304 6  96445861.01406      3306.693 6        37.156    23553046.247 5  92427280.63205      3168.864 5        33.969
G29         8.000    23963482.890 6 125928903.25106     -1892.058 6        40.125    23963481.101 4  98126390.13104     -1474.320 4        29.375    23963480.743 5  98126384.11505     -1474.005 5        32.281
G30         1.000    23262063.562 7 122242957.80107     -1980.054 7        42.938    23262062.132 6  95254240.90306     -1542.896 6        39.938    23262061.904 6  95254227.89406     -1542.756 6        39.344    23262062.323 6  91285315.26306     -1478.663 6        36.344
J03        46.000    37052011.392 7 194709626.13107       545.730 7        44.375    37052008.114 7 151721765.58607       425.212 7        46.406    37052010.610 6 145400035.18006       407.263 6        40.344
J07        21.000    37131605.195 6 195127907.59206       321.742 6        38.500    37131601.400 7 152047695.51507       250.810 7        44.469    37131604.339 6 145712393.73706       240.292 6        40.000
R01        37.000    21344199.987 7 114096966.81707     -1676.963 7        45.906    21344197.856 6  88742059.54006     -1304.256 6        40.500
R02         2.000    20186909.005 8 107721226.02208       414.524 8        51.031    20186905.540 8  83783171.94108       322.443 8        48.156
R03        34.000    22562318.877 7 120777968.84107      2454.664 7        43.688    22562317.252 6  93938463.75806      1909.223 6        41.625
R11        36.000    22125914.563 7 118234218.23407       183.513 7        47.688    22125912.472 7  91959953.63807       142.695 7        44.906
R12        24.000    22120855.566 7 118165811.21307      3562.921 7        47.094    22120856.961 7  91906814.27507      2771.143 7        42.813
R13        55.000    24318597.140 5 129859970.15005      4332.451 5        33.781    24318607.788 5 101002249.86405      3369.945 5        31.094
R17        10.000    19960553.901 8 106812951.45808      -439.630 8        50.531    19960550.122 8  83076724.90108      -341.909 8        48.813
R18        57.000    21963268.673 7 117241442.22807      3097.122 7        44.906    21963267.143 7  91187803.69407      2408.838 7        43.688
R24        19.000    21731008.016 7 116205404.28207     -3745.434 7        46.250    21731007.815 7  90381951.94407     -2913.055 7        44.875
> 2024 06 24 08 20 20.0000000  0 57
C01         9.000    36688045.381 7 191044283.08907       305.373 7        43.375    36688039.709 6 147727538.52506       236.151 6        39.656    36688041.312 7 155239112.91107       248.182 7        45.656
C02        44.000    38961058.428 6 202880453.98206       354.450 6        36.125    38961053.829 5 156880019.62305       274.285 5        34.469    38961055.436 6 164856975.27006       287.915 6        38.156
C03        54.000    37374742.115 6 194620090.21006       316.518 6        41.938    37374734.560 6 150492573.83206       244.582 6        36.844    37374736.521 7 158144744.31207       257.207 7        44.125
C04        26.000    37589909.894 7 195740532.34107       290.659 7        42.156    37589902.836 6 151358964.69506       224.633 6        38.688    37589903.879 7 159055185.05707       236.120 7        43.313
C05        60.000    41653400.554 5 216900189.08505       358.654 5        35.906    41653402.649 5 167720992.54705       277.220 5        31.750    41653399.195 5 176249168.09005       291.313 5        35.031
C06        17.000    38922074.922 6 202677490.29906      1647.222 6        38.594    38922070.382 5 156723094.85505      1273.680 5        34.031    38922069.525 6 164692054.63506      1338.363 6        41.906
C07        40.000    41178147.404 5 214425340.86205     -1120.267 5        32.594    41178153.907 5                      -866.114 5        30.063    41178149.228 6 174238109.85206      -910.130 6        37.500
C08        39.000    36753214.019 7 191383638.74407      1031.091 7        42.656    36753204.479 6 147989931.76406       797.206 6        39.969    36753203.276 7 155514841.17207       837.835 7        46.531
C10        30.000    40683728.545 5 211850764.77405     -1248.785 5        32.781    40683734.413 5                      -965.547 5        30.125    40683728.677 5 172146077.58205     -1014.794 5        35.406
C13        32.000    37224116.346 7 193835754.83307      1081.148 7        43.906    37224115.259 6 149886096.17906       836.006 6        37.781    37224113.252 7 157507413.52107       878.493 7        45.813
C16        49.000    38987386.465 6 203017599.39606      1590.903 6        40.594    38987387.740 5 156986075.66705      1230.421 5        33.594    38987383.958 6 164968431.84106      1292.657 6        40.688
C23        47.000    24491890.555 7 127535825.90807      3046.274 7        43.938                                                                    24491881.964 7 103633322.55607      2475.358 7        45.844
C24        41.000    26041381.511 6 135604307.75306     -1480.959 6        40.594                                                                    26041378.218 6 110189590.73306     -1203.402 6        37.469
C25        48.000    23585894.805 7 122817985.63507       880.394 7        46.563                                                                    23585890.631 7  99799673.93007       715.340 7        47.031
C27        31.000    23513378.983 7 122440299.94207     -2098.541 7        44.781                                                                    23513377.073 7  99492750.35707     -1705.234 7        46.625
C28        23.000    25873989.891 5 134732548.93305     -2910.242 5        35.063                                                                    25873993.930 6 109481208.25406     -2364.424 6        38.031
C30        42.000    23956294.887 7 124746717.92207       259.279 7        46.563                                                                    23956294.213 7 101366927.15707       210.639 7        46.406
C32        43.000    23130509.957 7 120446659.59607      1594.107 7        47.281                                                                    23130506.826 8  97872779.69508      1295.351 8        49.750
C33        56.000    25897052.235 6 134852697.80006     -1795.386 6        40.875                                                                    25897063.570 6 109578894.55906     -1458.990 6        40.750
C38        51.000    36063553.518 7 187792386.86907       829.481 7        46.844                                                                    36063547.118 8 152596674.21808       673.986 8        51.313
C39        58.000    38048908.766 7 198130687.20907      1529.770 7        43.969                                                                    38048904.584 7 160997407.24807      1242.997 7        45.656
C40        59.000    41239651.414 5 214745548.64105     -1374.725 5        35.906                                                                    41239660.739 5 174498325.29405     -1116.813 5        34.563
C41        16.000    22682347.626 8 118112932.68108      -534.015 8        48.344                                                                    22682349.854 8  95976438.61908      -433.924 8        51.969
C59        22.000    36906581.866 7 192182261.19407       333.799 7        45.281                                                                    36906566.032 8 156163762.02708       271.312 8        49.844
C60        53.000    39489699.192 6 205633229.62406       325.772 6        38.219                                                                    39489685.473 7 167093784.62207       264.611 7        42.188
E04        20.000    24488585.493 7 128688419.33407      1485.827 7        44.750    24488584.405 6  96098506.15606      1109.374 6        38.938    24488583.290 6  98605421.30406      1138.380 6        41.594
E09        50.000    28490442.835 5 149718326.17305      2560.301 5        32.094                                                                    28490451.249 4 114719283.29804      1962.302 4        26.250
E10        18.000    23913408.555 7 125665816.31407       957.776 7        46.219    23913406.240 6  93841352.91506       715.236 6        40.406    23913405.462 7  96289384.61607       733.921 7        42.656
E11        29.000    24492316.346 6 128708020.73306      2298.166 6        40.969    24492311.883 5  96113132.65805      1716.046 5        32.781    24492310.933 5  98620425.39305      1761.258 5        34.469
E12        25.000    23732040.046 7 124712705.91907      -464.729 7        42.000    23732036.013 6  93129599.15406      -347.195 6        38.281    23732035.157 6  95559062.83006      -356.183 6        41.094
E19        12.000    23828642.954 7 125220360.46507      -963.992 7        42.406    23828639.656 5  93508696.52905      -719.616 5        35.625    23828638.421 6  95948050.59606      -738.557 6        37.625
E21         6.000    28268473.840 5 148551842.73505      2429.127 5        35.781    28268480.032 5 110931593.40305      1814.397 5        30.875    28268478.508 5                      1861.475 5        33.438
E27        45.000    28671386.999 5 150669162.02005      1078.987 5        35.031    28671390.531 4                       805.837 4        28.063    28671388.780 5                       826.910 5        30.375
E33        35.000    26142982.331 6 137382252.22306     -2620.862 6        41.344    26142985.250 5 102590627.71405     -1957.104 5        31.875    26142984.043 6 105266899.21706     -2008.136 6        36.813
G05         5.000    20437446.415 7 107399506.49207        32.862 7        47.031    20437440.720 8  83687902.89108        25.607 8        49.406    20437440.426 7  83687891.90207        25.563 7        46.500
G07         7.000    25984392.254 4                     -2654.866 4        26.031                                                                    25984388.154 4                     -2068.145 4        28.844
G11        11.000    23432820.160 6 123140243.59606     -3259.016 6        41.844    23432819.649 4  95953403.66204     -2539.480 4        25.750    23432819.308 6  95953400.65206     -2539.367 6        39.000    23432825.097 5  91955359.52505     -2433.758 5        34.625
G13        13.000    19952047.509 7 104848725.34507      -657.984 7        46.500    19952040.979 6  81700282.03706      -512.712 6        39.281
G14        33.000    25030903.493 6 131538314.83506      2014.474 6        38.438    25030902.907 3 102497377.39603      1569.730 3        19.781    25030902.776 5 102497373.39405      1569.868 5        35.594    25030908.475 5  98226669.63005      1504.130 5        32.188
G15        15.000    20505444.645 7 107756875.28207      1616.720 7        47.313    20505439.639 7  83966390.47407      1259.783 7        46.938    20505439.286 7  83966387.48607      1259.761 7        44.000
G18        27.000    23000784.821 7 120869984.33107      3179.833 7        42.094    23000782.436 4  94184405.26804      2477.795 4        27.906    23000781.833 6  94184407.26406      2477.768 6        41.313    23000786.410 6  90260077.95006      2374.556 6        36.344
G20         4.000    21127998.871 7 111028365.69307     -1224.620 7        46.219    21127993.287 5  86515578.32705      -954.248 5        35.344
G22        52.000    25198848.364 6 132420846.51506      2302.229 6        36.750    25198848.245 2 103185080.35302      1793.932 2        13.250
G24         3.000    23552233.363 6 123767874.64406      4243.101 6        37.875    23552237.426 5  96442533.35905      3306.317 5        32.000    23552236.963 6  96442554.37506      3306.421 6        37.406    23552238.692 5  92424111.77105      3168.542 5        33.875
G29         8.000    23963843.028 6 125930795.32806     -1892.340 6        40.031    23963841.178 4  98127864.47704     -1474.540 4        29.375    23963840.589 5  98127858.44505     -1474.322 5        32.563
G30         1.000    23262440.356 7 122244937.99407     -1980.645 7        43.063    23262438.964 6  95255783.90806     -1543.358 6        39.969    23262438.922 6  95255770.90606     -1543.359 6        39.344    23262439.072 6  91286793.97006     -1479.139 6        36.250
J03        46.000    37051907.485 7 194709080.50607       545.452 7        44.375    37051904.232 7 151721340.42407       424.975 7        46.500    37051906.782 6 145399627.71806       407.298 6        40.125
J07        21.000    37131543.886 6 195127585.75406       321.632 6        38.375    37131540.253 7 152047444.71307       250.662 7        44.469    37131543.140 6 145712153.39006       240.140 6        39.781
R01        37.000    21344513.690 7 114098643.76507     -1677.104 7        45.563    21344511.274 6  88743363.82806     -1304.501 6        40.406
R02         2.000    20186831.359 8 107720811.61908       414.085 8        51.000    20186827.799 8  83782849.62708       322.051 8        48.219
R03        34.000    22561860.324 7 120775514.19507      2454.409 7        43.781    22561858.611 6  93936554.60006      1909.021 6        41.750
R11        36.000    22125880.208 7 118234035.05007       182.589 7        47.750    22125878.067 7  91959811.16707       141.960 7        44.656
R12        24.000    22120188.624 7 118162248.48607      3562.381 7        47.063    22120190.146 7  91904043.28007      2770.696 7        42.875
R13        55.000    24317785.790 5 129855637.56305      4332.610 5        34.219    24317796.693 5 100998880.09605      3369.559 5        31.219
R17        10.000    19960636.247 8 106813391.55908      -440.743 8        50.563    19960632.272 8  83077067.20408      -342.858 8        48.813
R18        57.000    21962688.443 7 117238345.41507      3096.326 7        45.250    21962686.975 7  91185395.05607      2408.304 7        43.719
R24        19.000    21731708.442 7 116209149.80707     -3745.802 7        46.125    21731708.232 7  90384865.13007     -2913.403 7        44.781
> 2024 06 24 08 20 21.0000000  0 57
C01         9.000    36687986.696 7 191043977.23007       306.267 7        43.281    36687981.041 6 147727302.00706       236.755 6        39.594    36687982.590 7 155238864.38007       248.736 7        45.656
C02        44.000    38960990.075 6 202880099.04906       355.292 6        36.063    38960985.605 5 156879745.17005       274.568 5        34.438    38960987.248 6 164856686.83806       288.707 6        38.125
C03        54.000    37374681.180 7 194619773.31207       317.155 7        42.094    37374674.095 6 150492328.76906       245.288 6        36.781    37374675.644 7 158144486.81207       257.647 7        44.156
C04        26.000    37589853.927 7 195740241.27407       291.456 7        42.094    37589846.918 6 151358739.64006       225.323 6        38.625    37589847.975 7 159054948.54507       236.729 7        43.281
C05        60.000    41653331.759 5 216899830.08905       359.275 5        35.438    41653333.683 5 167720714.96505       277.826 5        32.000    41653330.291 5 176248876.39305       291.883 5        34.719
C06        17.000    38921758.459 6 202675842.78106      1647.697 6        38.688    38921754.152 5 156721820.90605      1273.972 5        33.875    38921753.142 6 164690715.88506      1338.975 6        41.938
C07        40.000    41178362.325 5 214426460.44605     -1119.257 5        32.656    41178368.782 4                      -865.555 4        29.906    41178364.140 6 174239019.60106      -909.535 6        37.438
C08        39.000    36753015.940 7 191382607.22707      1031.894 7        42.750    36753006.158 6 147989134.11806       797.890 6        40.031    36753005.218 7 155514002.97707       838.417 7        46.563
C10        30.000    40683968.148 5 211852013.13605     -1248.191 5        32.938    40683973.578 5                      -965.273 5        30.438    40683968.371 5 172147091.97905     -1014.200 5        35.063
C13        32.000    37223908.668 7 193834673.29007      1081.821 7        43.875    37223907.517 6 149885259.87206       836.430 6        37.875    37223905.601 7 157506534.68507       878.988 7        45.594
C16        49.000    38987080.809 6 203016008.05206      1591.556 6        40.500    38987082.132 5 156984845.14005      1230.938 5        33.781    38987078.297 6 164967138.73906      1293.428 6        40.656
C23        47.000    24491305.533 7 127532779.27607      3046.792 7        44.063                                                                    24491296.890 7 103630846.92907      2475.770 7        45.750
C24        41.000    26041666.029 6 135605788.47706     -1480.621 6        40.563                                                                    26041662.638 6 110190793.94906     -1203.302 6        37.469
C25        48.000    23585725.658 7 122817105.05407       880.649 7        46.531                                                                    23585721.503 7  99798958.38807       715.515 7        46.875
C27        31.000    23513781.934 7 122442398.24307     -2098.137 7        44.719                                                                    23513780.005 7  99494455.39607     -1704.908 7        46.469
C28        23.000    25874548.488 5 134735458.35405     -2909.126 5        35.031                                                                    25874552.737 6 109483572.39806     -2364.122 6        37.813
C30        42.000    23956245.058 7 124746458.53007       259.519 7        46.625                                                                    23956244.398 7 101366716.38007       210.776 7        46.313
C32        43.000    23130203.785 7 120445065.09907      1594.734 7        47.281                                                                    23130200.623 8  97871484.04108      1295.825 8        49.594
C33        56.000    25897396.981 6 134854492.76406     -1794.679 6        40.781                                                                    25897408.272 6 109580353.10506     -1458.313 6        40.688
C38        51.000    36063394.140 7 187791556.98007       830.183 7        46.906                                                                    36063387.756 8 152595999.86708       674.595 8        51.344
C39        58.000    38048614.977 7 198129157.04507      1530.386 7        43.969                                                                    38048610.730 7 160996163.85707      1243.525 7        45.719
C40        59.000    41239915.417 5 214746922.73405     -1373.811 5        35.531                                                                    41239924.643 5 174499441.81705     -1115.976 5        34.469
C41        16.000    22682450.089 8 118113466.27908      -533.316 8        48.344                                                                    22682452.350 8  95976872.21308      -433.405 8        51.906
C59        22.000    36906517.595 7 192181926.83607       334.711 7        45.219                                                                    36906501.837 8 156163490.34708       271.887 8        49.813
C60        53.000    39489636.571 6 205632903.53106       326.457 6        38.063                                                                    39489622.807 7 167093519.65107       265.129 7        42.125
E04        20.000    24488302.690 7 128686933.19707      1486.363 7        44.656    24488301.624 6  96097396.37606      1109.966 6        38.969    24488300.540 6  98604282.57606      1138.979 6        41.531
E09        50.000    28489955.445 5 149715765.44205      2560.709 5        32.375                                                                    28489963.558 4 114717321.18004      1962.634 4        26.469
E10        18.000    23913226.226 7 125664858.32707       958.038 7        46.344    23913223.912 6  93840637.54106       715.342 6        40.469    23913223.166 7  96288650.56607       734.059 7        42.688
E11        29.000    24491878.834 6 128705722.17006      2298.645 6        40.938    24491874.602 5  96111416.20405      1716.527 5        32.563    24491873.436 5  98618664.18905      1761.055 5        34.438
E12        25.000    23732128.516 6 124713170.49606      -464.443 6        41.875    23732124.449 6  93129946.07106      -346.901 6        38.344    23732123.629 6  95559418.79506      -355.812 6        41.125
E19        12.000    23828826.350 7 125221324.08107      -963.365 7        42.469    23828823.069 5  93509416.12305      -719.407 5        35.500    23828821.731 6  95948788.95606      -738.140 6        37.281
E21         6.000    28268011.245 5 148549413.14505      2429.893 5        35.875    28268017.765 5 110929779.08705      1814.547 5        31.094    28268015.945 5                      1861.592 5        33.500
E27        45.000    28671181.766 5 150668082.87005      1079.198 5        34.938    28671185.351 4                       805.483 4        28.031    28671183.376 5                       826.649 5        30.094
E33        35.000    26143480.977 6 137384872.69106     -2620.222 6        41.594    26143483.773 5 102592584.56505     -1956.720 5        32.094    26143482.766 6 105268907.10906     -2007.717 6        36.563
G05         5.000    20437440.147 7 107399473.42607        33.206 7        46.969    20437434.429 8  83687877.12408        25.873 8        49.313    20437434.127 7  83687866.12907        25.883 7        46.469
G07         7.000    25984896.854 5                     -2654.894 5        32.188                                                                    25984892.674 5                     -2068.280 5        30.438
G11        11.000    23433440.479 6 123143502.20706     -3258.440 6        41.813    23433439.738 4  95955942.83204     -2539.051 4        25.719    23433439.380 6  95955939.83106     -2539.162 6        39.188    23433445.294 5  91957792.89605     -2433.149 5        34.250
G13        13.000    19952172.620 7 104849383.15507      -657.669 7        46.531    19952166.180 6  81700794.61406      -512.472 6        39.219
G14        33.000    25030520.202 6 131536300.09006      2014.897 6        38.500    25030519.568 3 102495807.46203      1570.042 3        19.563    25030519.270 5 102495803.44405      1570.209 5        35.281    25030525.126 5  98225165.08205      1504.820 5        32.375
G15        15.000    20505136.904 7 107755258.33007      1617.092 7        47.188    20505131.929 7  83965130.51307      1260.068 7        46.906    20505131.539 7  83965127.52707      1260.058 7        44.000
G18        27.000    23000179.571 7 120866804.21107      3180.205 7        42.063    23000177.251 4  94181927.25004      2478.079 4        27.906    23000176.662 6  94181929.26306      2478.121 6        41.375    23000181.260 6  90257703.17906      2374.971 6        36.250
G20         4.000    21128231.813 7 111029590.01307     -1224.226 7        46.188    21128226.258 5  86516532.33805      -953.942 5        35.313
G22        52.000    25198410.317 6 132418543.98806      2302.845 6        37.156    25198410.093 2 103183286.18102      1794.391 2        13.625
G24         3.000    23551425.650 6 123763630.95106      4243.922 6        38.094    23551429.837 5  96439226.58905      3306.946 5        31.938    23551429.423 6  96439247.63406      3306.860 6        37.563    23551431.117 5  92420942.79905      3169.035 5        33.844
G29         8.000    23964202.726 6 125932687.41506     -1891.799 6        40.094    23964201.256 4  98129338.82504     -1474.125 4        29.281    23964201.138 5  98129332.82105     -1474.224 5        32.750
G30         1.000    23262817.074 7 122246918.31407     -1980.163 7        42.969    23262815.833 6  95257327.01506     -1542.983 6        39.938    23262815.685 6  95257314.01306     -1542.868 6        39.250    23262815.769 6  91288272.77506     -1478.674 6        36.469
J03        46.000    37051803.585 7 194708534.67607       546.068 7        44.375    37051800.495 7 151720915.10307       425.534 7        46.469    37051802.779 6 145399220.11506       407.918 6        40.094
J07        21.000    37131482.970 6 195127263.62206       322.412 6        38.313    37131478.967 7 152047193.70807       251.217 7        44.594    37131481.771 6 145711912.84006       240.846 6        39.969
R01        37.000    21344827.388 7 114100320.50807     -1676.571 7        45.531    21344824.838 6  88744667.96906     -1303.964 6        40.406
R02         2.000    20186753.639 8 107720397.15608       414.657 8        51.000    20186750.124 8  83782527.26608       322.549 8        48.125
R03        34.000    22561401.634 7 120773059.44607      2454.827 7        43.875    22561399.991 6  93934645.33306      1909.428 6        41.688
R11        36.000    22125846.082 7 118233852.40607       182.615 7        47.719    22125843.551 7  91959669.10307       142.013 7        44.719
R12        24.000    22119521.792 7 118158685.86007      3562.775 7        47.031    22119523.166 7  91901272.34607      2771.037 7        42.688
R13        55.000    24316973.885 5 129851304.49305      4333.409 5        34.438    24316984.779 5 100995509.95405      3370.836 5        31.594
R17        10.000    19960718.698 8 106813832.32308      -440.922 8        50.563    19960714.577 8  83077410.02308      -342.922 8        48.813
R18        57.000    21962108.326 7 117235249.00307      3096.364 7        45.344    21962106.751 7  91182986.74007      2408.307 7        43.781
R24        19.000    21732408.912 7 116212895.38207     -3745.478 7        46.156    21732408.741 7  90387778.34607     -2913.161 7        44.781
> 2024 06 24 08 20 22.0000000  0 57
C01         9.000    36687928.037 7 191043671.15007       306.636 7        43.344    36687922.253 6 147727065.33606       237.089 6        39.781    36687923.820 7 155238615.65907       249.129 7        45.750
C02        44.000    38960921.735 6 202879743.87006       355.925 6        36.094    38960917.601 5 156879470.53505       275.161 5        34.563    38960919.034 6 164856398.24106       289.138 6        38.188
C03        54.000    37374620.415 7 194619456.17707       317.813 7        42.000    37374613.723 6 150492083.54606       245.660 6        37.094    37374614.749 7 158144229.10907       258.314 7        44.125
C04        26.000    37589798.019 7 195739949.98907       291.924 7        42.094    37589790.902 6 151358514.39506       225.591 6        38.781    37589792.031 7 159054711.84607       237.223 7        43.250
C05        60.000    41653262.887 5 216899470.87505       359.719 5        35.313    41653264.387 5 167720437.18105       278.113 5        31.906    41653261.276 5 176248584.49805       292.389 5        34.813
C06        17.000    38921442.059 6 202674195.12006      1648.256 6        38.750    38921437.550 5 156720546.82205      1274.571 5        34.000    38921436.790 7 164689377.02807      1339.277 7        42.031
C07        40.000    41178577.294 5 214427579.66905     -1118.559 5        32.750    41178583.066 4                      -865.482 4        29.438    41178579.077 6 174239929.03806      -908.702 6        37.250
C08        39.000    36752817.680 7 191381575.45007      1032.471 7        42.563    36752808.016 6 147988336.29506       798.305 6        40.125    36752807.065 7 155513164.56507       838.979 7        46.500
C10        30.000    40684207.881 5 211853261.22005     -1247.594 5        32.813    40684213.208 5                      -964.875 5        30.656    40684208.128 5 172148106.08805     -1013.464 5        35.313
C13        32.000    37223700.894 7 193833591.48207      1082.453 7        43.875    37223699.830 6 149884423.32606       837.066 6        37.750    37223697.870 7 157505655.62307       879.492 7        45.531
C16        49.000    38986775.252 6 203014416.55506      1591.970 6        40.406    38986776.344 5 156983614.50505      1231.223 5        33.438    38986772.724 6 164965845.53306      1293.709 6        40.563
C23        47.000    24490720.481 7 127529732.59307      3047.207 7        43.844                                                                    24490711.825 7 103628371.24907      2476.108 7        45.875
C24        41.000    26041950.649 6 135607269.39206     -1480.390 6        40.438                                                                    26041946.924 6 110191997.30806     -1202.906 6        37.563
C25        48.000    23585556.608 7 122816224.76207       880.591 7        46.406                                                                    23585552.488 7  99798243.07207       715.621 7        46.938
C27        31.000    23514184.908 7 122444496.60807     -2097.944 7        44.656                                                                    23514183.005 7  99496160.48907     -1704.680 7        46.469
C28        23.000    25875106.881 5 134738367.48205     -2908.249 5        34.844                                                                    25875111.376 6 109485936.28406     -2363.401 6        37.906
C30        42.000    23956195.346 7 124746199.44407       259.540 7        46.563                                                                    23956194.653 7 101366505.84807       210.805 7        46.375
C32        43.000    23129897.543 7 120443470.48507      1595.257 7        47.188                                                                    23129894.424 8  97870188.29008      1296.154 8        49.688
C33        56.000    25897741.693 6 134856287.50706     -1793.966 6        40.656                                                                    25897752.930 6 109581811.48606     -1457.895 6        40.750
C38        51.000    36063234.742 7 187790726.87107       830.739 7        46.813                                                                    36063228.360 8 152595325.33508       675.069 8        51.406
C39        58.000    38048321.100 7 198127626.74607      1530.842 7        43.906                                                                    38048316.880 7 160994920.36607      1243.965 7        45.813
C40        59.000    41240179.603 5 214748296.48305     -1373.052 5        35.156                                                                    41240188.431 5 174500558.11105     -1115.457 5        34.719
C41        16.000    22682552.505 8 118113999.77308      -532.919 8        48.344                                                                    22682554.806 8  95977305.71708      -433.030 8        52.031
C59        22.000    36906453.329 7 192181592.27207       335.214 7        45.250                                                                    36906437.562 8 156163218.48308       272.376 8        49.813
C60        53.000    39489573.982 6 205632577.23306       326.793 6        38.156                                                                    39489560.129 7 167093254.48407       265.791 7        42.188
E04        20.000    24488019.874 7 128685447.05407      1486.642 7        44.625    24488018.913 6  96096286.60606      1110.006 6        38.906    24488017.773 6  98603143.84906      1138.976 6        41.719
E09        50.000    28489468.300 5 149713204.54905      2561.527 5        32.313                                                                    28489476.413 4 114715358.99504      1962.525 4        25.594
E10        18.000    23913043.988 7 125663900.55607       958.184 7        46.344    23913041.672 6  93839922.31106       715.556 6        40.563    23913040.885 7  96287916.69907       734.265 7        42.781
E11        29.000    24491441.466 6 128703423.69406      2299.029 6        40.844    24491437.117 5  96109699.79105      1717.195 5        32.781    24491436.065 5  98616903.01305      1761.480 5        34.438
E12        25.000    23732216.896 6 124713635.30406      -464.426 6        41.844    23732212.869 6  93130293.16006      -346.699 6        38.281    23732212.029 6  95559774.94306      -355.840 6        41.063
E19        12.000    23829009.770 7 125222287.62607      -963.111 7        42.313    23829006.405 5  93510135.66005      -719.214 5        35.313    23829005.191 6  95949527.25506      -737.973 6        37.469
E21         6.000    28267548.781 5 148546983.42105      2430.427 5        35.906    28267555.529 5 110927964.70805      1814.665 5        30.844    28267553.575 5                      1861.826 5        33.531
E27        45.000    28670976.250 5 150667003.86705      1079.176 5        34.875    28670980.408 4                       805.971 4        27.938    28670978.254 4                       826.254 4        29.906
E33        35.000    26143979.581 6 137387493.12106     -2619.880 6        41.500    26143982.546 5 102594541.35805     -1956.237 5        31.938    26143981.435 6 105270914.95406     -2007.445 6        36.469
G05         5.000    20437433.847 7 107399440.47707        33.398 7        47.063    20437428.164 8  83687851.44708        26.025 8        49.344    20437427.807 7  83687840.45107        26.011 7        46.469
G07         7.000    25985401.857 6                     -2653.406 6        36.375                                                                    25985398.271 5                     -2068.343 5        32.000
G11        11.000    23434060.480 6 123146760.79206     -3258.070 6        41.844    23434059.845 4  95958481.98904     -2538.750 4        25.750    23434059.481 6  95958478.97406     -2538.687 6        38.938    23434065.327 5  91960226.25505     -2432.781 5        34.313
G13        13.000    19952297.819 7 104850041.16007      -657.571 7        46.469    19952291.399 6  81701307.34406      -512.393 6        39.281
G14        33.000    25030136.952 6 131534285.34606      2015.249 6        38.531    25030136.073 3 102494237.52403      1570.330 3        19.688    25030135.886 5 102494233.53405      1570.337 5        35.156    25030141.796 5  98223660.57305      1505.027 5        32.125
G15        15.000    20504829.277 7 107753641.52107      1617.291 7        47.281    20504824.245 7  83963870.66207      1260.223 7        46.906    20504823.737 7  83963867.67907      1260.209 7        43.938
G18        27.000    22999574.319 6 120863624.25406      3180.384 6        41.969    22999572.084 4  94179449.36504      2478.219 4        27.875    22999571.613 6  94179451.36906      2478.274 6        41.281    22999576.225 6  90255328.53506      2375.147 6        36.375
G20         4.000    21128464.776 7 111030814.45907     -1223.932 7        46.125    21128459.243 5  86517486.44805      -953.712 5        35.313
G22        52.000    25197972.218 6 132416241.29906      2303.365 6        36.844    25197971.936 2 103181491.86402      1794.859 2        13.750
G24         3.000    23550618.009 6 123759387.19606      4244.280 6        38.094    23550622.276 5  96435919.77905      3307.221 5        32.000    23550621.673 6  96435940.81106      3307.241 6        37.625    23550623.503 5  92417773.76705      3169.314 5        34.219
G29         8.000    23964562.711 6 125934579.54906     -1891.552 6        40.125    23964561.333 4  98130813.21004     -1473.939 4        29.344    23964560.966 5  98130807.19005     -1473.783 5        32.313
G30         1.000    23263193.893 7 122248898.83607     -1980.115 7        42.844    23263192.723 6  95258870.27806     -1542.943 6        39.906    23263192.346 6  95258857.29206     -1543.026 6        39.250    23263192.645 6  91289751.71906     -1478.523 6        36.188
J03        46.000    37051699.683 7 194707988.70007       546.590 7        44.438    37051696.735 7 151720489.66307       425.892 7        46.406    37051698.972 6 145398812.40806       408.107 6        40.219
J07        21.000    37131421.790 6 195126941.26106       323.070 6        38.625    37131417.676 7 152046942.52907       251.675 7        44.469    37131420.376 6 145711672.12206       241.210 6        39.719
R01        37.000    21345141.070 7 114101997.08307     -1675.909 7        45.781    21345138.223 6  88745971.97306     -1303.602 6        40.594
R02         2.000    20186676.009 8 107719982.67508       415.076 8        51.000    20186672.596 8  83782204.89108       322.778 8        48.156
R03        34.000    22560943.187 7 120770604.59207      2455.456 7        43.719    22560941.113 6  93932736.01606      1909.732 6        41.688
R11        36.000    22125811.850 7 118233670.37707       182.343 7        47.625    22125809.463 7  91959527.51507       141.842 7        44.563
R12        24.000    22118855.003 7 118155123.39507      3562.949 7        47.031    22118856.053 7  91898501.53407      2771.201 7        42.938
R13        55.000    24316162.028 5 129846970.98505      4334.189 5        34.500    24316173.955 5 100992139.47005      3371.078 5        32.000
R17        10.000    19960801.198 8 106814273.78808      -441.197 8        50.531    19960796.934 8  83077753.38108      -343.188 8        48.844
R18        57.000    21961528.393 7 117232153.01807      3096.279 7        45.188    21961526.741 7  91180578.75207      2408.203 7        43.719
R24        19.000    21733109.420 7 116216641.03907     -3745.160 7        46.281    21733109.364 7  90390691.63007     -2912.891 7        44.750
> 2024 06 24 08 20 23.0000000  0 57
C01         9.000    36687869.155 7 191043365.04807       306.128 7        43.375    36687863.554 6 147726828.63506       236.683 6        39.594    36687865.045 7 155238366.95307       248.640 7        45.594
C02        44.000    38960853.520 6 202879388.66906       355.076 6        36.125    38960849.082 5 156879195.85705       274.815 5        34.375    38960850.864 6 164856109.61006       288.664 6        38.063
C03        54.000    37374559.552 6 194619139.02606       317.142 6        41.906    37374552.945 6 150491838.30406       245.396 6        36.750    37374553.864 7 158143971.41307       257.674 7        44.063
C04        26.000    37589742.047 7 195739658.68307       291.221 7        42.156    37589734.949 6 151358289.13306       225.358 6        38.688    37589736.118 7 159054475.13307       236.720 7        43.375
C05        60.000    41653193.907 5 216899111.64305       359.146 5        35.563    41653195.841 5 167720159.38305       278.163 5        31.781    41653192.302 5 176248292.58305       291.913 5        34.719
C06        17.000    38921125.542 6 202672547.50206      1647.537 6        38.563    38921121.487 5 156719272.77305      1274.086 5        34.094    38921120.398 6 164688038.20106      1338.829 6        41.844
C07        40.000    41178792.426 5 214428698.79105     -1119.103 5        32.750    41178797.830 4                      -865.171 4        29.906    41178793.914 6 174240838.42106      -909.415 6        37.375
C08        39.000    36752619.417 7 191380543.60607      1031.885 7        42.688    36752609.744 6 147987538.40606       797.862 6        40.156    36752608.881 7 155512326.11607       838.466 7        46.500
C10        30.000    40684447.734 5 211854509.16805     -1247.611 5        32.469    40684453.258 5                      -964.836 5        30.688    40684447.923 5 172149120.17905     -1014.070 5        35.219
C13        32.000    37223493.150 7 193832509.62007      1081.891 7        43.875    37223492.095 6 149883586.76606       836.625 6        37.813    37223490.087 7 157504776.52507       879.021 7        45.625
C16        49.000    38986469.476 6 203012825.13806      1591.325 6        40.344    38986470.563 5 156982383.93105      1230.407 5        33.844    38986467.228 6 164964552.37006      1293.110 6        40.563
C23        47.000    24490135.468 7 127526686.06107      3046.446 7        43.906                                                                    24490126.792 7 103625895.69207      2475.483 7        45.844
C24        41.000    26042235.221 6 135608750.70706     -1481.503 6        40.438                                                                    26042231.376 6 110193200.98806     -1203.713 6        37.281
C25        48.000    23585387.621 7 122815344.95507       879.506 7        46.469                                                                    23585383.547 7  99797528.15907       714.672 7        46.938
C27        31.000    23514588.038 7 122446595.25707     -2098.800 7        44.656                                                                    23514586.090 7  99497865.81107     -1705.435 7        46.500
C28        23.000    25875665.416 5 134741276.52605     -2909.132 5        35.313                                                                    25875670.182 6 109488300.09306     -2363.820 6        38.250
C30        42.000    23956145.660 7 124745940.87707       258.243 7        46.500                                                                    23956144.995 7 101366295.73707       209.917 7        46.344
C32        43.000    23129591.322 7 120441875.96407      1594.470 7        47.281                                                                    23129588.223 8  97868892.60208      1295.631 8        49.688
C33        56.000    25898086.290 6 134858082.24806     -1794.786 6        40.719                                                                    25898097.622 6 109583269.85406     -1458.313 6        40.625
C38        51.000    36063075.235 7 187789896.75307       830.162 7        46.844                                                                    36063068.956 8 152594650.79308       674.545 8        51.406
C39        58.000    38048027.225 7 198126096.53707      1530.179 7        43.781                                                                    38048023.006 7 160993676.95007      1243.398 7        45.750
C40        59.000    41240443.399 5 214749670.08505     -1373.502 5        35.250                                                                    41240452.059 5 174501674.27905     -1116.216 5        34.625
C41        16.000    22682655.012 8 118114533.35908      -533.692 8        48.344                                                                    22682657.276 8  95977739.29808      -433.640 8        52.031
C59        22.000    36906389.054 7 192181257.68307       334.637 7        45.188                                                                    36906373.287 8 156162946.60908       271.853 8        49.781
C60        53.000    39489511.357 6 205632250.87706       326.504 6        38.063                                                                    39489497.477 7 167092989.32207       265.127 7        42.156
E04        20.000    24487737.130 7 128683961.11507      1485.753 7        44.688    24487736.181 6  96095176.96806      1109.461 6        38.844    24487735.001 6  98602005.26206      1138.520 6        41.594
E09        50.000    28488981.223 5 149710643.79505      2560.696 5        32.219                                                                    28488988.855 4 114713396.85804      1961.708 4        25.781
E10        18.000    23912861.804 7 125662943.21607       957.160 7        46.406    23912859.588 6  93839207.41506       714.752 6        40.438    23912858.716 7  96287183.15107       733.323 7        42.688
E11        29.000    24491004.150 6 128701125.54206      2298.082 6        41.000    24490999.696 5  96107983.65005      1716.130 5        32.188    24490998.862 5  98615142.08905      1760.822 5        34.625
E12        25.000    23732305.427 6 124714100.53406      -465.530 6        41.875    23732301.298 6  93130640.57906      -347.687 6        38.188    23732300.538 6  95560131.41506      -356.702 6        40.969
E19        12.000    23829193.118 7 125223251.25807      -963.666 7        42.281    23829189.666 5  93510855.25005      -719.743 5        35.344    23829188.548 6  95950265.62506      -738.659 6        37.656
E21         6.000    28267086.486 6 148544553.79006      2429.433 6        36.188    28267093.201 5 110926150.35605      1814.235 5        30.469    28267091.374 5                      1861.717 5        33.469
E27        45.000    28670771.034 5 150665925.22305      1078.368 5        35.219    28670775.482 4                       805.176 4        27.031    28670773.292 5                       826.429 5        30.219
E33        35.000    26144478.280 6 137390113.68706     -2620.735 6        41.438    26144481.249 5 102596498.27805     -1957.152 5        31.875    26144480.253 6 105272922.91506     -2008.045 6        36.625
G05         5.000    20437427.635 7 107399407.85207        32.393 7        47.094    20437421.957 8  83687826.02508        25.241 8        49.344    20437421.611 7  83687815.02707        25.270 7        46.375
G07         7.000    25985906.985 6                     -2654.485 6        38.281                                                                    25985903.359 5                     -2068.432 5        33.375
G11        11.000    23434680.634 6 123150019.56706     -3258.944 6        41.906    23434679.978 4  95961021.28804     -2539.441 4        25.813    23434679.656 6  95961018.28106     -2539.407 6        39.000    23434685.392 5  91962659.75705     -2433.869 5        34.375
G13        13.000    19952423.308 7 104850699.56607      -658.593 7        46.406    19952416.698 6  81701820.38806      -513.189 6        39.250
G14        33.000    25029753.416 6 131532270.85006      2014.300 6        38.563    25029752.645 3 102492667.78903      1569.608 3        19.500    25029752.231 5 102492663.78405      1569.376 5        34.875    25029758.589 5  98222156.22605      1504.487 5        32.531
G15        15.000    20504521.697 7 107752025.06407      1616.274 7        47.313    20504516.629 7  83962611.08807      1259.433 7        46.938    20504516.231 7  83962608.10807      1259.407 7        43.875
G18        27.000    22998969.272 6 120860444.66006      3179.487 6        41.750    22998966.988 4  94176971.76304      2477.515 4        27.844    22998966.556 6  94176973.77906      2477.421 6        41.188    22998971.152 6  90252954.17506      2374.247 6        36.500
G20         4.000    21128697.765 7 111032039.26007     -1224.950 7        46.094    21128692.309 5  86518440.83705      -954.505 5        35.281
G22        52.000    25197534.017 6 132413938.66706      2302.787 6        36.375    25197533.816 2 103179697.62802      1794.340 2        13.938
G24         3.000    23549810.529 6 123755143.53206      4243.677 6        37.938    23549814.692 5  96432613.03505      3306.756 5        32.031    23549814.214 6  96432634.06006      3306.676 6        37.531    23549816.157 5  92414604.79605      3168.827 5        34.281
G29         8.000    23964922.767 6 125936471.96506     -1892.557 6        40.094    23964921.455 4  98132287.81604     -1474.715 4        29.281    23964921.702 5  98132281.80205     -1474.928 5        32.406
G30         1.000    23263570.856 7 122250879.75207     -1981.070 7        42.906    23263569.686 6  95260413.84706     -1543.688 6        39.906    23263569.181 6  95260400.85206     -1543.747 6        39.219    23263569.560 6  91291230.99006     -1479.271 6        36.063
J03        46.000    37051595.828 7 194707442.77007       545.894 7        44.406    37051592.736 7 151720064.26407       425.330 7        46.469    37051595.099 6 145398404.73006       407.680 6        40.031
J07        21.000    37131360.416 6 195126618.88406       322.188 6        38.500    37131356.148 7 152046691.32507       251.203 7        44.469    37131359.055 6 145711431.38106       240.838 6        39.813
R01        37.000    21345454.649 7 114103673.71307     -1676.709 7        45.625    21345451.659 6  88747276.00706     -1304.091 6        40.438
R02         2.000    20186598.371 8 107719568.39508       414.190 8        51.031    20186594.946 8  83781882.67608       322.104 8        48.156
R03        34.000    22560484.428 7 120768149.86907      2454.628 7        43.594    22560482.356 6  93930826.80206      1909.189 6        41.781
R11        36.000    22125778.017 7 118233489.15707       180.698 7        47.531    22125775.457 7  91959386.57807       140.622 7        44.469
R12        24.000    22118188.017 7 118151561.26007      3561.959 7        46.969    22118189.185 7  91895731.00107      2770.346 7        43.188
R13        55.000    24315351.215 5 129842637.28305      4333.798 5        34.531    24315362.636 5 100988768.84405      3370.671 5        31.594
R17        10.000    19960883.861 8 106814716.14708      -442.801 8        50.531    19960879.600 8  83078097.43108      -344.392 8        48.813
R18        57.000    21960948.638 7 117229057.67907      3094.976 7        45.250    21960946.915 7  91178171.26107      2407.245 7        43.688
R24        19.000    21733810.055 7 116220386.99407     -3746.107 7        46.281    21733809.837 7  90393605.14207     -2913.602 7        44.750
> 2024 06 24 08 20 24.0000000  0 57
C01         9.000    36687810.420 7 191043059.20407       305.384 7        43.250    36687804.806 6 147726592.13906       236.075 6        39.406    36687806.341 7 155238118.40907       248.126 7        45.719
C02        44.000    38960785.458 6 202879033.76006       354.579 6        36.000    38960781.042 5 156878921.42705       274.302 5        34.688    38960782.739 6 164855821.20906       288.095 6        38.156
C03        54.000    37374498.827 7 194618822.14107       316.544 7        42.000    37374492.323 6 150491593.28306       244.737 6        36.625    37374492.987 7 158143713.90507       257.149 7        44.094
C04        26.000    37589686.166 7 195739367.64107       290.553 7        42.188    37589678.964 6 151358064.06806       224.757 6        38.750    37589680.195 7 159054238.63007       236.142 7        43.188
C05        60.000    41653125.062 5 216898752.65605       358.472 5        35.156    41653126.884 5 167719881.80705       277.061 5        31.344    41653123.246 5 176248000.88505       291.326 5        34.406
C06        17.000    38920809.204 6 202670900.21706      1646.834 6        38.438    38920805.786 5 156717998.99105      1273.595 5        34.063    38920804.044 6 164686699.65106      1338.211 6        41.656
C07        40.000    41179007.386 5 214429818.03505     -1119.757 5        32.969    41179013.035 5                      -865.428 5        30.125    41179008.806 6 174241747.88206      -909.713 6        37.250
C08        39.000    36752421.315 7 191379512.01407      1031.130 7        42.563    36752411.606 6 147986740.70806       797.360 6        39.906    36752410.739 7 155511487.85807       837.921 7        46.438
C10        30.000    40684687.268 5 211855757.34405     -1248.468 5        32.813    40684692.941 5                      -965.191 5        30.594    40684687.622 5 172150134.40605     -1014.456 5        35.250
C13        32.000    37223285.498 7 193831427.98507      1081.224 7        43.875    37223284.477 6 149882750.38806       836.111 6        37.969    37223282.350 7 157503897.60007       878.624 7        45.594
C16        49.000    38986164.006 6 203011234.05006      1590.537 6        40.500    38986164.963 5 156981153.61005      1229.923 5        34.000    38986161.675 6 164963259.49206      1292.475 6        40.563
C23        47.000    24489550.530 7 127523639.94207      3045.671 7        43.969                                                                    24489541.836 7 103623420.47807      2474.811 7        45.781
C24        41.000    26042519.930 6 135610232.68106     -1482.503 6        40.500                                                                    26042515.825 6 110194405.22006     -1204.686 6        37.188
C25        48.000    23585218.916 7 122814465.90207       878.448 7        46.625                                                                    23585214.733 7  99796813.86307       713.840 7        46.906
C27        31.000    23514991.123 7 122448694.46007     -2099.795 7        44.688                                                                    23514989.202 7  99499571.58507     -1706.241 7        46.375
C28        23.000    25876224.183 5 134744185.69205     -2909.625 5        35.906                                                                    25876228.889 6 109490664.04006     -2364.193 6        37.938
C30        42.000    23956096.249 7 124745683.09207       257.065 7        46.469                                                                    23956095.461 7 101366086.26807       208.926 7        46.313
C32        43.000    23129285.159 7 120440281.79407      1593.716 7        47.313                                                                    23129282.084 8  97867597.21908      1295.007 8        49.625
C33        56.000    25898431.031 6 134859877.26506     -1795.439 6        40.781                                                                    25898442.379 6 109584728.45606     -1458.991 6        40.656
C38        51.000    36062915.866 7 187789066.89807       829.432 7        46.844                                                                    36062909.587 8 152593976.47408       674.005 8        51.344
C39        58.000    38047733.357 7 198124566.70607      1529.342 7        43.938                                                                    38047729.235 7 160992433.83707      1242.750 7        45.719
C40        59.000    41240707.297 5 214751043.86605     -1374.366 5        35.000                                                                    41240715.854 5 174502790.53005     -1116.499 5        34.875
C41        16.000    22682757.565 8 118115067.31508      -534.479 8        48.375                                                                    22682759.803 8  95978173.18008      -434.267 8        51.906
C59        22.000    36906324.860 7 192180923.36207       333.852 7        45.156                                                                    36906309.079 8 156162674.94008       271.306 8        49.781
C60        53.000    39489448.625 6 205631924.83206       325.520 6        38.344                                                                    39489434.887 7 167092724.36507       264.558 7        42.125
E04        20.000    24487454.486 7 128682475.65607      1484.859 7        44.688    24487453.424 6  96094067.69906      1108.848 6        38.938    24487452.263 6  98600867.07306      1137.734 6        41.531
E09        50.000    28488493.843 5 149708083.36005      2560.103 5        32.219                                                                    28488501.844 4 114711434.99704      1961.344 4        25.844
E10        18.000    23912679.772 7 125661986.59307       955.946 7        46.250    23912677.666 6  93838493.05506       713.936 6        40.438    23912676.693 7  96286450.15007       732.519 7        42.719
E11        29.000    24490566.886 6 128698827.95206      2297.046 6        40.750    24490562.537 5  96106267.93905      1715.510 5        32.813    24490561.564 5  98613381.60905      1759.999 5        34.500
E12        25.000    23732394.080 7 124714566.48407      -466.511 7        42.094    23732389.934 6  93130988.52906      -348.472 6        38.375    23732389.202 6  95560488.43906      -357.448 6        41.156
E19        12.000    23829376.588 7 125224215.33107      -964.564 7        42.250    23829373.044 5  93511575.18005      -720.460 5        35.125    23829372.117 6  95951004.32506      -738.965 6        37.625
E21         6.000    28266624.232 5 148542124.47805      2428.927 5        35.844    28266631.120 5 110924336.27305      1813.473 5        30.969    28266629.375 5                      1861.365 5        33.469
E27        45.000    28670566.144 5 150664847.20005      1077.331 5        35.000    28670569.855 4                       804.724 4        27.188    28670568.237 5                       825.905 5        30.500
E33        35.000    26144977.106 6 137392734.68806     -2621.558 6        41.563    26144979.964 5 102598455.52405     -1957.493 5        31.844    26144978.894 6 105274931.21606     -2008.475 6        36.469
G05         5.000    20437421.460 7 107399375.84607        31.420 7        47.188    20437415.867 8  83687801.08508        24.485 8        49.344    20437415.478 7  83687790.09107        24.494 7        46.344
G07         7.000    25986412.350 6                     -2655.213 6        39.438                                                                    25986408.724 5 106409998.09815     -2069.415 5        34.531
G11        11.000    23435301.024 7 123153278.79507     -3259.653 7        42.094    23435300.197 4  95963560.94104     -2539.985 4        25.969    23435299.972 6  95963557.93106     -2539.973 6        39.219    23435305.665 5  91965093.58505     -2434.109 5        34.250
G13        13.000    19952548.694 7 104851358.65807      -659.747 7        46.688    19952542.132 6  81702333.96406      -514.089 6        39.281
G14        33.000    25029370.034 6 131530256.82906      2013.429 6        38.406    25029369.315 3 102491098.42603      1568.898 3        19.219    25029369.147 5 102491094.43405      1568.999 5        34.906    25029375.244 5  98220652.26005      1503.721 5        32.469
G15        15.000    20504214.248 7 107750409.23507      1615.195 7        47.281    20504209.133 7  83961352.00307      1258.593 7        46.906    20504208.835 7  83961349.01907      1258.624 7        43.875
G18        27.000    22998364.287 6 120857265.70706      3178.481 6        41.813    22998362.018 4  94174494.65904      2476.733 4        27.844    22998361.533 6  94174496.67706      2476.679 6        41.406    22998366.256 6  90250580.30506      2373.386 6        36.438
G20         4.000    21128930.914 7 111033264.67907     -1226.057 7        46.188    21128925.508 5  86519395.70705      -955.369 5        35.250
G22        52.000    25197095.527 6 132411636.39606      2301.706 6        36.438    25197095.717 2 103177903.64202      1793.512 2        13.563
G24         3.000    23549002.981 6 123750900.29006      4242.784 6        37.969    23549007.215 5  96429306.61805      3306.060 5        32.094    23549006.926 6  96429327.65206      3305.961 6        37.563    23549008.632 5  92411436.15405      3168.181 5        34.156
G29         8.000    23965282.857 6 125938364.91506     -1893.637 6        39.875    23965281.689 4  98133762.84004     -1475.555 4        29.281    23965281.330 5  98133756.84705     -1475.740 5        32.625
G30         1.000    23263947.916 7 122252861.35907     -1982.320 7        43.000    23263946.786 6  95261957.95006     -1544.665 6        39.875    23263946.225 6  95261944.95006     -1544.533 6        39.313    23263946.727 6  91292710.75706     -1480.206 6        36.219
J03        46.000    37051492.023 7 194706897.18507       545.076 7        44.313    37051488.763 7 151719639.12407       424.785 7        46.438    37051491.268 6 145397997.30906       407.175 6        40.219
J07        21.000    37131299.072 6 195126296.77006       321.658 6        38.563    37131295.053 7 152046440.31807       250.672 7        44.469    37131297.778 6 145711190.83406       240.269 6        39.938
R01        37.000    21345768.233 7 114105350.67107     -1677.435 7        45.875    21345765.647 6  88748580.31006     -1304.641 6        40.438
R02         2.000    20186520.820 8 107719154.61208       413.235 8        51.063    20186517.370 8  83781560.84808       321.394 8        48.125
R03        34.000    22560026.197 7 120765695.54907      2453.900 7        43.531    22560023.878 6  93928917.89006      1908.528 6        41.969
R11        36.000    22125744.275 7 118233309.00207       179.321 7        47.469    22125741.721 7  91959246.48407       139.387 7        44.344
R12        24.000    22117521.147 7 118147999.75607      3560.846 7        47.063    22117522.535 7  91892960.95007      2769.510 7        43.250
R13        55.000    24314540.136 5 129838303.67805      4333.416 5        34.094    24314551.619 5 100985398.27205      3370.129 5        31.906
R17        10.000    19960966.740 8 106815159.67408      -444.448 8        50.531    19960962.478 8  83078442.39808      -345.652 8        48.750
R18        57.000    21960368.899 7 117225963.28007      3093.636 7        45.531    21960367.183 7  91175764.50807      2406.122 7        43.844
R24        19.000    21734510.662 7 116224133.50507     -3747.060 7        46.375    21734510.538 7  90396519.09307     -2914.351 7        44.750
