     3.03           OBSERVATION DATA    M: Mixed            RINEX VERSION / TYPE
                                        20240618 035837 UTC PGM / RUN BY / DATE 
                                                            MARKER NAME         
                                                            MARKER NUMBER       
                                                            MARKER TYPE         
                                                            OBSERVER / AGENCY   
                                                            REC # / TYPE / VERS 
                                                            ANT # / TYPE        
 -3937816.0244  3354851.9908  3718428.4550                  APPROX POSITION XYZ 
        0.0000        0.0000        0.0000                  ANTENNA: DELTA H/E/N
G    6 C1C L1C S1C C2W L2W S2W                              SYS / # / OBS TYPES 
R    6 C1C L1C S1C C2C L2C S2C                              SYS / # / OBS TYPES 
E    6 C1X L1X S1X C8X L8X S8X                              SYS / # / OBS TYPES 
J    9 C1C L1C S1C C2X L2X S2X C5X L5X S5X                  SYS / # / OBS TYPES 
C    6 C7I L7I S7I C2I L2I S2I                              SYS / # / OBS TYPES 
  2018    08    30    02    03   00.0000000     GPS         TIME OF FIRST OBS   
  2018    08    30    02    13   00.0000000     GPS         TIME OF LAST OBS    
G L1C                                                       SYS / PHASE SHIFT   
G L2W  0.00000                                              SYS / PHASE SHIFT   
R L1C                                                       SYS / PHASE SHIFT   
R L2C                                                       SYS / PHASE SHIFT   
E L1X  0.00000                                              SYS / PHASE SHIFT   
E L8X  0.00000                                              SYS / PHASE SHIFT   
J L1C                                                       SYS / PHASE SHIFT   
J L2X  0.00000                                              SYS / PHASE SHIFT   
J L5X  0.00000                                              SYS / PHASE SHIFT   
C L7I                                                       SYS / PHASE SHIFT   
C L2I                                                       SYS / PHASE SHIFT   
  0                                                         GLONASS SLOT / FRQ #
 C1C    0.000 C1P    0.000 C2C    0.000 C2P    0.000        GLONASS COD/PHS/BIS 
                                                            END OF HEADER       
> 2018 08 30 02 03 00.0000000  0 30                     
G01  21150644.742   111147388.448          43.250    21150650.695    86608377.712          31.500  
G03  20393247.172   107167232.473          46.000    20393252.633    83506960.418          34.000  
G11  21424218.625   112585030.189          43.000    21424222.355    87728603.718          27.500  
G17  22496998.492   118222522.878          45.500    22497000.777    92121446.190          31.750  
G18  22633315.242   118938875.975          41.500    22633320.773    92679642.669          25.000  
G19  24354960.969   127986204.689          37.500    24354962.133    99729500.551          18.250  
G22  21131088.000   111044616.014          43.500    21131088.441    86528270.220          29.500  
G28  20751772.125   109051300.031          42.500    20751774.496    84975048.246          30.750  
R02  23102564.016   123279684.749          39.500    23102571.168    95884213.825          37.750  
R03  20420524.227   109312660.201          44.250    20420528.867    85020955.583          39.000  
R04  21336586.141   114256450.783          40.500    21336592.168    88866129.909          40.750  
R09  21554860.500   115101745.428          42.250    21554863.961    89523579.388          40.000  
R10  23482309.227   125173847.271          31.500    23482310.930    97357505.205          30.000  
R16  22614269.422   120801366.877          34.750    22614274.453    93956639.360          35.250  
R19  20669664.094   110568756.182          41.500    20669667.480    85997925.556          38.000  
E04  25959175.617   136416390.174          43.750    25959177.715   103198120.301          43.250  
E11  23033146.883   121040003.545          43.500    23033145.125    91565976.586          40.500  
E12  22755089.539   119578799.898          41.500    22755088.508    90460584.743          42.500  
E19  25651126.602   134797532.965          38.500    25651127.438   101973497.057          36.000  
E24  23669656.836   124384882.853          44.500    23669669.992    94096407.332          41.750  
E25  24669018.836   129636566.848          43.750    24669021.504    98069231.495          41.500  
J01  36896679.734   193893354.377          42.000    36896680.668   151085731.880          35.250    36896683.637   144790493.058          37.250  
C01  37053777.434   149200244.202          37.250    37053786.375   192948791.562          39.500  
C03  37847988.891   152397998.881          26.750    37847999.109   197084490.953          36.250  
C04  37395048.023   150574193.696          29.500    37395054.750   194725853.157          37.000  
C07  37335928.230   150336345.168          36.000    37335937.852   194418018.857          41.000  
C08  36727879.070   147887949.815          38.500    36727887.469   191251750.344          40.000  
C10  37108353.953   149419800.450          37.000    37108359.344   193232954.606          40.000  
C13  38349589.055   154417906.822          34.750    38349589.484   199696376.879          39.250  
C17  36937676.520   148732548.179          27.000    36937682.773   192344214.460          39.000  
> 2018 08 30 02 03 01.0000000  0 30                     
G01  21151073.164   111149636.213          43.500    21151078.520    86610129.223          31.750  
G03  20393161.961   107166784.222          46.500    20393167.441    83506611.125          34.000  
G11  21424655.078   112587319.021          43.500    21424657.828    87730387.230          27.000  
G17  22496611.508   118220490.539          46.250    22496614.086    92119862.548          32.000  
G18  22633920.945   118942056.089          41.250    22633926.008    92682120.663          24.500  
G19  24354435.234   127983440.636          37.250    24354436.074    99727346.744          18.500  
G22  21131352.281   111046002.944          43.500    21131352.309    86529350.946          29.500  
G28  20751833.703   109051621.708          43.000    20751835.609    84975298.897          30.000  
R02  23103221.930   123283197.336          39.500    23103228.871    95886945.829          38.250  
R03  20420559.844   109312852.553          44.500    20420564.578    85021105.190          39.750  
R04  21335948.094   114253036.882          40.500    21335954.496    88863474.649          41.500  
R09  21555059.961   115102815.174          42.500    21555064.461    89524411.415          40.750  
R10  23481925.375   125171801.218          31.500    23481926.852    97355913.821          29.750  
R16  22615037.953   120805472.365          34.750    22615042.863    93959832.520          36.000  
R19  20669480.586   110567768.384          42.000    20669482.512    85997157.260          38.750  
E04  25958746.563   136414135.071          44.000    25958748.590   103196414.337          44.000  
E11  23033032.258   121039401.492          43.250    23033030.570    91565521.132          41.500  
E12  22755322.328   119580021.287          41.500    22755320.930    90461508.710          43.250  
E19  25651118.219   134797489.979          38.500    25651119.262   101973464.531          37.000  
E24  23670218.383   124387834.436          44.250    23670231.668    94098640.184          42.750  
E25  24669174.273   129637384.148          44.000    24669177.035    98069849.772          42.500  
J01  36896753.805   193893744.522          42.500    36896754.582   151086035.890          36.000    36896757.887   144790784.395          37.750  
C01  37053846.617   149200522.654          37.500    37053855.664   192949151.669          39.750  
C03  37848054.285   152398262.1951         28.000    37848065.148   197084832.168          36.000  
C04  37395112.656   150574453.9461         29.500    37395119.617   194726189.262          37.000  
C07  37336291.086   150337806.327          36.500    37336300.547   194419908.458          41.250  
C08  36727935.992   147888179.134          39.250    36727943.789   191252046.912          40.500  
C10  37108633.945   149420927.832          38.000    37108639.070   193234412.564          40.000  
C13  38349613.949   154418006.509          34.750    38349614.594   199696505.798          39.250  
C17  36937743.090   148732816.2291         26.500    36937749.406   192344561.246          38.750  
> 2018 08 30 02 03 02.0000000  0 30                     
G01  21151500.273   111151883.634          43.250    21151506.117    86611880.458          30.750  
G03  20393076.656   107166336.075          47.000    20393082.023    83506261.923          32.750  
G11  21425090.164   112589607.554          43.250    21425093.293    87732170.502          26.500  
G17  22496225.047   118218457.714          46.500    22496227.277    92118278.521          31.500  
G18  22634525.484   118945235.705          41.500    22634531.129    92684598.285          23.500  
G19  24353909.094   127980675.958          37.500    24353909.801    99725192.462          18.250  
G22  21131616.227   111047389.860          43.250    21131616.453    86530431.658          29.250  
G28  20751894.859   109051943.437          42.750    20751896.648    84975549.601          30.500  
R02  23103880.000   123286709.866          39.500    23103887.652    95889677.795          38.000  
R03  20420597.578   109313045.211          44.500    20420600.672    85021255.038          40.500  
R04  21335311.109   114249622.824          40.000    21335316.938    88860819.269          42.000  
R09  21555261.680   115103885.166          42.750    21555265.168    89525243.629          41.250  
R10  23481540.445   125169755.331          30.750    23481543.309    97354322.579          31.000  
R16  22615807.242   120809577.452          35.250    22615811.234    93963025.360          35.500  
R19  20669294.281   110566780.147          42.500    20669298.027    85996388.635          39.500  
E04  25958317.406   136411879.576          44.500    25958319.387   103194708.068          44.250  
E11  23032917.523   121038798.944          43.500    23032915.898    91565065.302          41.500  
E12  22755554.438   119581242.158          41.500    22755553.242    90462432.290          43.500  
E19  25651109.742   134797446.879          38.750    25651111.047   101973431.930          36.500  
E24  23670779.828   124390785.653          44.500    23670793.262    94100872.758          42.750  
E25  24669329.898   129638201.390          44.000    24669332.531    98070468.009          42.500  
J01  36896828.266   193894134.201          42.500    36896828.898   151086339.537          36.000    36896832.031   144791075.382          38.000  
C01  37053915.473   149200800.700          37.500    37053924.852   192949511.242          39.500  
C03  37848119.625   152398525.2921         24.750    37848129.711   197085172.812          36.000  
C04  37395177.000   150574713.0331         29.500    37395184.297   194726524.803          37.000  
C07  37336653.801   150339267.171          37.000    37336662.711   194421797.653          40.750  
C08  36727993.066   147888408.023          39.000    36728001.281   191252342.911          40.500  
C10  37108913.973   149422054.948          37.750    37108919.195   193235870.177          40.000  
C13  38349638.629   154418105.766          35.000    38349638.758   199696634.152          39.500  
C17  36937809.430   148733083.3531         23.250    36937815.813   192344907.479          39.000  
> 2018 08 30 02 03 03.0000000  0 30                     
G01  21151927.805   111154130.818          43.750    21151933.758    86613631.516          32.000  
G03  20392991.094   107165888.121          46.500    20392996.781    83505912.868          33.500  
G11  21425525.961   112591895.861          43.500    21425528.801    87733953.600          27.750  
G17  22495838.344   118216424.502          47.000    22495840.316    92116694.199          31.500  
G18  22635130.727   118948414.975          41.250    22635136.230    92687075.642          22.250  
G19  24353382.625   127977910.830          36.750    24353383.543    99723037.838          18.250  
G22  21131880.102   111048776.883          43.250    21131880.352    86531512.462          30.250  
G28  20751956.156   109052265.338          43.500    20751958.016    84975800.431          30.250  
R02  23104539.992   123290222.432          39.750    23104545.793    95892409.790          38.750  
R03  20420631.898   109313238.299          45.000    20420636.750    85021405.226          40.500  
R04  21334673.648   114246208.711          40.500    21334679.223    88858163.848          41.500  
R09  21555461.328   115104955.488          43.000    21555465.633    89526076.101          41.500  
R10  23481156.680   125167709.646          30.500    23481159.434    97352731.477          30.750  
R16  22616575.727   120813682.321          34.750    22616579.504    93966218.032          35.500  
R19  20669110.422   110565791.581          42.750    20669113.270    85995619.750          39.500  
E04  25957888.328   136409623.795          44.500    25957890.137   103193001.590          44.000  
E11  23032802.977   121038196.020          43.750    23032801.188    91564609.193          41.500  
E12  22755786.867   119582462.662          41.500    22755785.512    90463355.594          43.000  
E19  25651101.734   134797403.784          38.500    25651102.855   101973399.325          37.000  
E24  23671341.305   124393736.637          44.500    23671354.836    94103105.165          43.500  
E25  24669485.367   129639018.650          44.000    24669488.063    98071086.268          43.000  
J01  36896901.594   193894523.520          42.500    36896902.809   151086642.901          36.000    36896906.125   144791366.114          37.500  
C01  37053984.320   149201078.391          37.500    37053993.906   192949870.363          39.500  
C03  37848185.141   152398789.0981         28.000    37848194.266   197085513.004          36.000  
C04  37395241.125   150574971.2371         28.500    37395248.547   194726859.920          37.000  
C07  37337016.703   150340727.747          37.000    37337025.969   194423686.489          40.750  
C08  36728050.000   147888636.535          39.500    36728057.734   191252638.421          40.750  
C10  37109193.902   149423181.813          38.000    37109199.016   193237327.460          40.000  
C13  38349663.313   154418204.647          34.500    38349662.867   199696762.034          39.500  
C17  36937875.848   148733350.7901         26.500    36937882.070   192345253.277          38.750  
> 2018 08 30 02 03 04.0000000  0 30                     
G01  21152355.461   111156377.486          44.250    21152361.266    86615382.176          31.250  
G03  20392906.148   107165440.117          47.250    20392911.629    83505563.778          34.250  
G11  21425961.625   112594183.708          43.750    21425964.176    87735736.334          28.000  
G17  22495450.961   118214390.655          47.000    22495453.340    92115109.393          31.750  
G18  22635735.086   118951593.602          41.000    22635741.152    92689552.483          23.500  
G19  24352856.703   127975144.981          36.750    24352857.285    99720882.655          18.250  
G22  21132144.133   111050163.746          43.500    21132144.398    86532593.130          29.750  
G28  20752017.758   109052587.127          43.000    20752019.234    84976051.178          29.750  
R02  23105196.414   123293734.834          39.500    23105204.098    95895141.662          39.250  
R03  20420667.477   109313431.530          44.500    20420672.699    85021555.527          40.750  
R04  21334036.328   114242794.265          40.000    21334041.809    88855508.169          41.750  
R09  21555660.563   115106025.919          42.500    21555665.879    89526908.670          41.500  
R10  23480770.922   125165663.964          29.750    23480775.555    97351140.410          31.500  
R16  22617343.813   120817786.663          34.750    22617348.074    93969410.296          36.000  
R19  20668925.234   110564802.435          42.750    20668928.301    85994850.418          40.250  
E04  25957458.586   136407367.408          44.500    25957460.770   103191294.654          44.500  
E11  23032687.898   121037592.467          44.250    23032686.328    91564152.610          42.250  
E12  22756018.914   119583682.505          41.500    22756017.629    90464278.404          43.750  
E19  25651093.227   134797360.436          39.000    25651094.598   101973366.535          36.750  
E24  23671902.578   124396687.100          44.500    23671916.297    94105337.171          43.750  
E25  24669640.547   129639835.675          44.500    24669643.547    98071704.347          43.750  
J01  36896976.203   193894912.210          42.500    36896977.031   151086945.781          37.000    36896980.109   144791656.368          38.250  
C01  37054053.547   149201355.543          37.500    37054063.016   192950228.774          39.750  
C03  37848250.387   152399051.8171         27.750    37848259.781   197085852.521          36.000  
C04  37395305.418   150575230.1191         29.000    37395313.102   194727194.313          37.000  
C07  37337379.258   150342187.846          37.500    37337388.891   194425574.724          41.000  
C08  36728106.426   147888864.443          39.750    36728114.313   191252933.156          41.000  
C10  37109473.309   149424308.252          38.250    37109478.484   193238784.195          40.250  
C13  38349687.652   154418303.010          34.750    38349688.102   199696889.233          39.250  
C17  36937942.059   148733617.3951         28.000    36937948.922   192345598.362          38.750  
> 2018 08 30 02 03 05.0000000  0 30                     
G01  21152783.063   111158624.260          44.250    21152788.945    86617132.897          31.500  
G03  20392821.375   107164992.686          47.250    20392826.438    83505215.127          34.250  
G11  21426396.305   112596471.713          43.500    21426399.594    87737519.183          28.000  
G17  22495064.078   118212356.797          47.500    22495066.395    92113524.558          32.000  
G18  22636340.430   118954772.246          41.000    22636345.891    92692029.351          24.000  
G19  24352330.633   127972379.032          36.750    24352331.082    99718727.344          18.250  
G22  21132408.234   111051551.087          43.250    21132408.363    86533674.170          30.000  
G28  20752078.984   109052909.451          43.250    20752080.551    84976302.328          30.750  
R02  23105854.633   123297247.709          39.250    23105862.207    95897873.903          39.500  
R03  20420703.445   109313625.544          44.500    20420708.770    85021706.432          40.750  
R04  21333399.055   114239380.117          40.000    21333404.027    88852852.722          42.250  
R09  21555861.625   115107097.130          42.750    21555866.609    89527741.829          42.250  
R10  23480386.688   125163618.835          29.500    23480391.828    97349549.756          29.750  
R16  22618111.602   120821891.088          35.000    22618116.379    93972602.626          35.500  
R19  20668739.367   110563813.310          43.000    20668743.680    85994081.094          40.750  
E04  25957029.383   136405111.106          45.000    25957031.418   103189587.773          45.000  
E11  23032573.266   121036988.898          44.250    23032571.473    91563696.013          42.500  
E12  22756250.945   119584902.362          42.250    22756249.770    90465201.215          44.250  
E19  25651085.125   134797317.474          38.500    25651086.418   101973334.027          37.000  
E24  23672464.242   124399637.699          44.500    23672477.777    94107569.278          44.500  
E25  24669796.461   129640653.099          44.500    24669799.090    98072322.710          44.500  
J01  36897050.094   193895300.903          42.500    36897051.289   151087248.653          36.500    36897054.047   144791946.622          38.000  
C01  37054122.227   149201632.637          38.000    37054131.367   192950587.120          39.500  
C03  37848315.344   152399313.3721         26.250    37848324.594   197086191.920          36.250  
C04  37395369.559   150575488.3881         28.500    37395377.109   194727528.622          37.250  
C07  37337741.961   150343647.969          37.500    37337751.539   194427462.991          41.000  
C08  36728163.172   147889092.272          40.250    36728170.656   191253227.795          41.000  
C10  37109753.238   149425434.777          38.250    37109758.336   193240241.030          40.250  
C13  38349711.953   154418401.260          35.000    38349712.719   199697016.298          39.250  
C17  36938008.383   148733884.4541         26.500    36938015.211   192345943.349          38.750  
> 2018 08 30 02 03 06.0000000  0 30                     
G01  21153210.906   111160870.787          44.000    21153216.324    86618883.434          31.000  
G03  20392735.719   107164545.456          47.250    20392741.387    83504866.640          34.250  
G11  21426831.703   112598759.523          43.500    21426834.953    87739301.896          27.750  
G17  22494676.594   118210322.578          47.500    22494679.242    92111939.450          32.000  
G18  22636945.125   118957950.537          41.000    22636950.473    92694505.944          23.250  
G19  24351803.547   127969612.641          37.000    24351804.781    99716571.713          18.500  
G22  21132672.227   111052938.554          43.500    21132672.488    86534755.314          30.250  
G28  20752140.172   109053231.934          43.250    20752142.004    84976553.612          30.250  
R02  23106513.898   123300760.685          39.250    23106520.758    95900606.214          39.750  
R03  20420740.148   109313820.013          44.500    20420745.063    85021857.687          41.500  
R04  21332760.141   114235965.963          40.500    21332766.289    88850197.269          42.500  
R09  21556063.133   115108168.716          43.000    21556066.910    89528575.281          42.750  
R10  23480002.922   125161573.923          29.500    23480008.191    97347959.276          29.500  
R16  22618879.492   120825995.305          35.250    22618884.781    93975794.788          35.750  
R19  20668555.500   110562823.888          42.750    20668558.910    85993311.545          40.750  
E04  25956600.125   136402854.542          45.000    25956602.008   103187880.696          45.000  
E11  23032458.266   121036384.972          44.000    23032456.566    91563239.153          42.750  
E12  22756483.203   119586121.844          41.750    22756481.820    90466123.740          44.500  
E19  25651076.664   134797274.511          38.250    25651078.238   101973301.527          37.250  
E24  23673025.516   124402588.075          44.750    23673039.223    94109801.217          44.750  
E25  24669951.789   129641470.552          44.500    24669954.625    98072941.109          44.500  
J01  36897123.688   193895689.263          42.500    36897125.176   151087551.271          36.500    36897127.914   144792236.639          38.500  
C01  37054190.973   149201909.390          38.000    37054200.039   192950945.028          39.500  
C03  37848380.578   152399576.0421         25.500    37848389.906   197086530.909          36.250  
C04  37395433.680   150575746.5761         29.250    37395441.594   194727862.515          37.000  
C07  37338104.383   150345107.874          38.000    37338113.516   194429350.973          40.250  
C08  36728219.539   147889319.766          40.250    36728227.391   191253521.983          40.750  
C10  37110032.859   149426561.066          38.500    37110038.102   193241697.576          40.000  
C13  38349736.496   154418499.183          34.500    38349736.383   199697142.923          39.500  
C17  36938074.492   148734150.6471         27.250    36938081.172   192346287.926          39.000  
> 2018 08 30 02 03 07.0000000  0 30                     
G01  21153638.523   111163117.231          43.750    21153643.813    86620633.915          32.000  
G03  20392651.023   107164098.592          46.500    20392656.352    83504518.429          34.250  
G11  21427266.977   112601047.259          44.250    21427270.223    87741084.550          26.500  
G17  22494289.648   118208288.113          47.750    22494292.090    92110354.154          32.000  
G18  22637550.109   118961128.623          41.250    22637555.043    92696982.372          24.500  
G19  24351277.023   127966845.893          37.500    24351278.289    99714415.802          18.250  
G22  21132935.898   111054326.244          43.500    21132936.543    86535836.638          30.500  
G28  20752201.875   109053554.713          43.250    20752203.465    84976805.135          29.500  
R02  23107172.500   123304273.895          39.000    23107178.648    95903338.710          40.000  
R03  20420776.156   109314015.069          44.500    20420781.539    85022009.410          41.500  
R04  21332123.531   114232551.916          41.000    21332128.344    88847541.904          42.500  
R09  21556263.078   115109240.792          42.500    21556267.742    89529409.118          42.750  
R10  23479618.758   125159529.439          30.250    23479624.422    97346369.130          30.000  
R16  22619649.227   120830099.373          34.500    22619652.867    93978986.845          35.750  
R19  20668370.203   110561834.279          43.000    20668373.934    85992541.841          40.750  
E04  25956170.453   136400597.798          45.000    25956172.551   103186173.485          45.250  
E11  23032343.055   121035780.800          44.000    23032341.598    91562782.094          42.500  
E12  22756715.164   119587341.063          42.500    22756713.824    90467046.075          44.250  
E19  25651068.750   134797231.690          38.250    25651070.082   101973269.125          37.500  
E24  23673587.219   124405538.313          45.000    23673600.637    94112033.044          44.250  
E25  24670107.539   129642288.180          45.000    24670110.207    98073559.640          43.750  
J01  36897198.094   193896077.394          42.750    36897198.965   151087853.707          35.750    36897201.750   144792526.473          38.500  
C01  37054259.379   149202185.904          38.250    37054268.617   192951302.623          39.500  
C03  37848445.637   152399838.0081         26.500    37848454.516   197086869.578          36.000  
C04  37395497.613   150576004.0081         29.000    37395505.500   194728196.102          36.750  
C07  37338466.992   150346567.591          37.500    37338476.070   194431238.714          40.500  
C08  36728276.188   147889546.956          40.250    36728284.313   191253815.790          40.500  
C10  37110312.676   149427687.245          38.750    37110317.945   193243153.976          39.500  
C13  38349760.582   154418596.858          34.500    38349760.445   199697269.250          39.250  
C17  36938140.574   148734416.7321         26.250    36938146.883   192346632.181          38.750  
> 2018 08 30 02 03 08.0000000  0 30                     
G01  21154065.930   111165363.573          44.000    21154071.152    86622384.309          32.000  
G03  20392565.859   107163652.062          46.750    20392571.395    83504170.485          35.000  
G11  21427702.555   112603334.929          43.500    21427705.566    87742867.145          28.250  
G17  22493902.820   118206253.397          47.500    22493904.855    92108768.661          31.250  
G18  22638155.375   118964306.426          41.250    22638159.781    92699458.568          23.250  
G19  24350750.469   127964078.851          36.750    24350751.813    99712259.666          19.000  
G22  21133200.313   111055714.204          43.500    21133200.590    86536918.169          30.000  
G28  20752263.148   109053877.798          43.250    20752265.086    84977056.895          30.000  
R02  23107830.063   123307787.335          38.500    23107837.004    95906071.390          40.000  
R03  20420812.781   109314210.744          45.000    20420818.047    85022161.611          42.000  
R04  21331485.945   114229137.900          41.250    21331490.918    88844886.560          42.500  
R09  21556463.766   115110313.393          42.500    21556468.520    89530243.367          43.000  
R10  23479236.930   125157485.279          31.500    23479241.297    97344779.235          29.250  
R16  22620417.164   120834203.332          34.500    22620421.238    93982178.808          35.500  
R19  20668184.555   110560844.477          42.500    20668188.977    85991772.002          41.000  
E04  25955741.125   136398340.917          44.750    25955743.105   103184466.174          45.500  
E11  23032227.992   121035176.400          44.000    23032226.578    91562324.874          42.750  
E12  22756947.344   119588560.091          42.500    22756945.801    90467968.264          44.500  
E19  25651060.633   134797189.033          38.500    25651061.965   101973236.853          36.750  
E24  23674148.539   124408488.494          44.500    23674162.039    94114264.845          44.750  
E25  24670263.344   129643105.977          45.000    24670265.848    98074178.298          44.500  
J01  36897271.391   193896465.305          43.500    36897272.668   151088155.980          36.000    36897275.586   144792816.148          38.500  
C01  37054328.039   149202462.186          38.500    37054337.297   192951659.918          39.500  
C03  37848510.508   152400099.2161         28.000    37848519.281   197087207.953          36.000  
C04  37395561.617   150576261.7261         29.250    37395569.273   194728529.369          36.750  
C07  37338829.387   150348027.193          37.500    37338838.297   194433126.301          40.750  
C08  36728332.281   147889773.913          40.250    36728340.680   191254109.293          40.500  
C10  37110592.469   149428813.315          39.000    37110597.258   193244610.236          39.250  
C13  38349784.738   154418694.267          34.250    38349784.516   199697395.226          39.250  
C17  36938206.555   148734682.4101         27.000    36938213.125   192346976.151          39.000  
> 2018 08 30 02 03 09.0000000  0 30                     
G01  21154493.141   111167609.825          44.250    21154498.672    86624134.644          31.250  
G03  20392481.086   107163205.896          46.500    20392486.516    83503822.824          34.000  
G11  21428138.273   112605622.564          44.000    21428140.965    87744649.712          27.500  
G17  22493515.055   118204218.482          47.250    22493517.574    92107183.017          31.750  
G18  22638759.188   118967484.049          41.250    22638764.449    92701934.661          22.500  
G19  24350224.797   127961311.492          36.000    24350225.313    99710103.297          18.250  
G22  21133464.672   111057102.438          43.750    21133464.742    86537999.903          30.250  
G28  20752324.398   109054201.203          43.500    20752326.617    84977308.902          30.000  
R02  23108488.367   123311301.035          38.500    23108495.520    95908804.269          40.500  
R03  20420849.344   109314407.045          44.500    20420854.977    85022314.296          42.250  
R04  21330848.367   114225724.030          41.500    21330853.699    88842231.331          42.500  
R09  21556665.266   115111386.544          42.750    21556669.336    89531078.047          43.000  
R10  23478854.547   125155441.581          30.750    23478857.758    97343189.698          29.500  
R16  22621184.953   120838307.184          34.500    22621189.555    93985370.693          36.000  
R19  20668000.195   110559854.533          42.750    20668004.008    85991002.044          41.250  
E04  25955311.555   136396083.899          44.750    25955313.617   103182758.758          45.750  
E11  23032113.000   121034571.790          43.750    23032111.543    91561867.491          42.750  
E12  22757179.078   119589778.860          42.250    22757177.738    90468890.253          44.750  
E19  25651052.891   134797146.522          38.250    25651053.883   101973204.692          37.250  
E24  23674709.922   124411438.571          44.500    23674723.434    94116496.551          44.500  
E25  24670418.742   129643923.959          44.750    24670421.508    98074797.097          44.250  
J01  36897345.438   193896853.017          43.250    36897346.484   151088458.094          36.750    36897349.402   144793105.671          39.000  
C01  37054396.570   149202738.271          38.500    37054406.055   192952016.958          39.750  
C03  37848575.527   152400361.0211         26.500    37848584.242   197087546.045          36.000  
C04  37395625.340   150576518.3121         28.250    37395633.344   194728862.379          37.000  
C07  37339191.730   150349486.643          37.500    37339200.266   194435013.685          41.000  
C08  36728388.547   147890000.590          40.500    36728396.797   191254402.444          41.000  
C10  37110872.102   149429939.288          38.750    37110876.891   193246066.362          39.500  
C13  38349808.371   154418791.479          34.750    38349808.836   199697520.941          39.500  
C17  36938272.445   148734947.7221         25.500    36938279.297   192347319.810          39.000  
> 2018 08 30 02 03 10.0000000  0 30                     
G01  21154920.602   111169855.980          44.500    21154926.227    86625884.888          32.000  
G03  20392396.039   107162760.097          46.750    20392401.680    83503475.447          34.250  
G11  21428573.211   112607910.165          44.250    21428576.133    87746432.254          28.250  
G17  22493127.984   118202183.342          47.250    22493130.223    92105597.184          31.500  
G18  22639363.766   118970661.479          41.500    22639369.094    92704410.581          24.250  
G19  24349697.508   127958543.810          36.000    24349698.660    99707946.659          18.250  
G22  21133728.406   111058490.927          43.250    21133728.965    86539081.845          30.500  
G28  20752386.609   109054524.907          43.500    20752388.219    84977561.126          30.500  
R02  23109147.445   123314814.955          39.000    23109154.227    95911537.312          40.750  
R03  20420885.703   109314603.957          44.500    20420891.285    85022467.458          42.500  
R04  21330211.094   114222310.295          41.500    21330216.363    88839576.213          43.000  
R09  21556866.586   115112460.193          42.750    21556870.027    89531913.105          43.000  
R10  23478471.164   125153398.232          30.250    23478474.523    97341600.430          29.500  
R16  22621952.523   120842410.943          34.500    22621958.430    93988562.502          36.250  
R19  20667815.984   110558864.455          43.000    20667818.574    85990231.989          41.250  
E04  25954882.023   136393826.743          45.000    25954884.086   103181051.238          46.000  
E11  23031998.109   121033966.970          43.250    23031996.449    91561409.953          42.750  
E12  22757410.938   119590997.445          42.500    22757409.629    90469812.104          45.000  
E19  25651044.680   134797104.203          38.500    25651045.840   101973172.678          37.000  
E24  23675271.336   124414388.579          44.750    23675284.793    94118728.211          44.750  
E25  24670574.344   129644742.143          45.000    24670577.215    98075416.048          44.750  
J01  36897419.398   193897240.547          42.750    36897420.328   151088760.063          36.750    36897423.207   144793395.061          39.250  
C01  37054465.098   149203014.120          38.750    37054474.078   192952373.688          39.750  
C03  37848640.563   152400622.8941         27.500    37848649.078   197087883.850          35.500  
C04  37395689.180   150576775.3691         29.500    37395697.063   194729195.078          36.750  
C07  37339553.828   150350945.941          37.750    37339562.758   194436900.882          40.500  
C08  36728444.914   147890227.024          40.500    36728452.781   191254695.271          40.750  
C10  37111151.805   149431065.154          39.000    37111156.648   193247522.366          39.500  
C13  38349832.746   154418888.411          34.500    38349832.391   199697646.300          38.750  
C17  36938338.488   148735213.6501         28.000    36938345.234   192347663.191          38.750  
> 2018 08 30 02 03 11.0000000  0 30                     
G01  21155348.297   111172102.147          43.750    21155353.703    86627635.146          31.250  
G03  20392311.688   107162314.700          47.000    20392316.969    83503128.392          33.250  
G11  21429008.578   112610197.771          43.750    21429011.418    87748214.809          26.250  
G17  22492740.758   118200148.043          46.250    22492742.895    92104011.237          32.250  
G18  22639969.383   118973838.773          41.250    22639973.676    92706886.391          22.500  
G19  24349170.625   127955775.908          36.250    24349171.879    99705789.855          18.500  
G22  21133992.992   111059879.741          43.250    21133993.316    86540164.038          29.500  
G28  20752448.188   109054848.998          43.500    20752449.777    84977813.661          29.000  
R02  23109805.664   123318329.189          38.500    23109812.465    95914270.605          40.500  
R03  20420922.320   109314801.547          44.000    20420928.223    85022621.142          42.250  
R04  21329573.531   114218896.740          42.000    21329578.797    88836921.226          42.250  
R09  21557068.898   115113534.407          42.500    21557071.473    89532748.598          42.500  
R10  23478088.867   125151355.353          30.250    23478091.156    97340011.536          29.000  
R16  22622720.664   120846514.634          34.500    22622726.613    93991754.257          35.750  
R19  20667629.906   110557874.288          43.000    20667633.434    85989461.860          40.750  
E04  25954452.492   136391569.496          45.000    25954454.539   103179343.641          46.000  
E11  23031883.195   121033361.980          43.250    23031881.305    91560952.278          42.500  
E12  22757642.547   119592215.847          41.750    22757641.465    90470733.822          45.000  
E19  25651036.992   134797062.089          38.000    25651037.816   101973140.813          37.000  
E24  23675832.570   124417338.532          44.500    23675846.141    94120959.834          45.000  
E25  24670729.977   129645560.595          44.750    24670732.953    98076035.202          44.750  
J01  36897492.492   193897627.891          43.000    36897494.156   151089061.890          36.500    36897496.922   144793684.309          39.000  
C01  37054533.594   149203289.772          38.000    37054542.750   192952730.174          39.500  
C03  37848705.301   152400883.5671         27.250    37848714.117   197088221.432          35.750  
C04  37395753.125   150577032.8491         27.500    37395761.109   194729527.550          36.750  
C07  37339916.266   150352405.146          37.250    37339924.789   194438787.954          40.500  
C08  36728500.922   147890453.256          40.500    36728509.063   191254987.826          40.500  
C10  37111431.055   149432190.990          38.750    37111436.453   193248978.318          39.500  
C13  38349856.535   154418985.201          34.500    38349856.727   199697771.473          39.250  
C17  36938404.543   148735479.6261         26.500    36938411.164   192348006.343          39.000  
> 2018 08 30 02 03 12.0000000  0 29                     
G01  21155775.133   111174347.901          44.500    21155780.941    86629385.085          31.500  
G03  20392226.656   107161869.399          46.750    20392232.156    83502781.401          34.000  
G11  21429444.039   112612485.054          44.250    21429446.652    87749997.106          27.500  
G17  22492353.375   118198112.242          46.750    22492355.512    92102424.908          32.000  
G18  22640573.156   118977015.564          41.250    22640578.352    92709361.805          22.500  
G19  24348644.359   127953007.380          36.500    24348645.016    99703632.572          18.250  
G22  21134257.492   111061268.536          43.000    21134257.602    86541246.220          30.250  
G28  20752509.516   109055173.134          43.750    20752511.566    84978066.242          30.500  
R02  23110464.922   123321843.368          38.500    23110471.180    95917003.863          40.750  
R03  20420959.531   109314999.465          44.500    20420965.453    85022775.086          42.500  
R04  21328935.836   114215483.027          42.500    21328941.375    88834266.116          42.500  
R09  21557269.734   115114608.893          43.250    21557272.703    89533584.307          42.500  
R16  22623489.219   120850618.023          34.500    22623494.996    93994945.785          36.000  
R19  20667444.414   110556883.696          43.250    20667448.121    85988691.403          41.000  
E04  25954022.961   136389311.868          44.500    25954024.910   103177635.762          45.000  
E11  23031767.945   121032756.482          44.250    23031766.078    91560494.227          42.750  
E12  22757874.633   119593433.774          42.250    22757873.211    90471655.173          45.000  
E19  25651028.734   134797019.863          38.500    25651029.789   101973108.863          36.750  
E24  23676393.688   124420288.146          44.500    23676407.426    94123191.194          45.000  
E25  24670885.898   129646378.900          45.000    24670888.660    98076654.244          44.750  
J01  36897566.680   193898014.795          43.250    36897567.750   151089363.372          36.500    36897570.496   144793973.229          38.750  
C01  37054602.086   149203565.009          38.000    37054610.852   192953086.112          39.750  
C03  37848770.207   152401144.9171         25.250    37848778.680   197088558.459          35.500  
C04  37395816.809   150577289.2781         29.000    37395824.984   194729859.445          37.000  
C07  37340278.703   150353864.020          38.000    37340287.539   194440674.605          40.500  
C08  36728557.168   147890679.018          40.750    36728565.258   191255279.790          40.750  
C10  37111710.691   149433316.496          38.000    37111715.711   193250433.852          40.000  
C13  38349880.656   154419081.499          34.750    38349880.984   199697896.011          39.000  
C17  36938470.430   148735744.9261         27.750    36938476.797   192348348.918          38.750  
> 2018 08 30 02 03 13.0000000  0 29                     
G01  21156202.867   111176593.781          44.250    21156208.332    86631135.121          32.250  
G03  20392142.352   107161424.658          47.000    20392147.539    83502434.852          34.500  
G11  21429879.508   112614772.472          44.500    21429881.941    87751779.509          28.000  
G17  22491965.773   118196076.426          46.750    22491968.273    92100838.561          31.750  
G18  22641177.508   118980192.331          41.500    22641182.730    92711837.201          25.250  
G19  24348117.023   127950238.762          34.750    24348118.098    99701475.218          17.500  
G22  21134522.039   111062657.800          42.750    21134522.137    86542328.758          30.500  
G28  20752571.703   109055497.761          43.500    20752573.488    84978319.195          30.500  
R02  23111122.578   123325357.990          38.250    23111129.797    95919737.459          40.750  
R03  20420996.258   109315198.143          44.250    20421002.793    85022929.611          43.000  
R04  21328298.211   114212069.603          42.500    21328303.914    88831611.234          42.250  
R09  21557470.281   115115684.107          42.500    21557474.297    89534420.582          43.250  
R16  22624257.094   120854721.487          34.250    22624263.016    93998137.362          35.750  
R19  20667259.547   110555893.127          43.250    20667263.367    85987920.953          41.250  
E04  25953593.570   136387054.285          44.500    25953595.316   103175927.914          45.500  
E11  23031652.617   121032150.974          43.500    23031650.871    91560036.162          43.000  
E12  22758106.188   119594651.656          42.250    22758104.984    90472576.489          45.250  
E19  25651020.938   134796978.010          39.000    25651021.832   101973077.200          37.000  
E24  23676955.328   124423237.848          44.500    23676968.758    94125422.619          45.000  
E25  24671041.797   129647197.632          45.000    24671044.477    98077273.609          44.500  
J01  36897640.203   193898401.695          42.750    36897641.563   151089664.849          36.500    36897644.094   144794262.146          39.000  
C01  37054670.602   149203840.175          38.500    37054680.172   192953441.956          39.500  
C03  37848835.020   152401405.8921         28.000    37848843.695   197088895.368          35.750  
C04  37395880.324   150577545.0271         29.000    37395887.688   194730191.280          36.750  
C07  37340640.867   150355322.894          37.500    37340649.516   194442561.262          40.500  
C08  36728613.203   147890904.658          40.750    36728621.680   191255571.600          40.750  
C10  37111990.371   149434442.052          38.000    37111994.547   193251889.440          40.000  
C13  38349904.465   154419177.745          35.000    38349904.813   199698020.475          39.500  
C17  36938535.938   148736008.6991         26.000    36938542.898   192348691.423          38.750  
> 2018 08 30 02 03 14.0000000  0 29                     
G01  21156630.406   111178839.614          44.500    21156635.738    86632885.134          32.500  
G03  20392058.039   107160980.305          46.750    20392063.188    83502088.600          34.500  
G11  21430314.172   112617059.895          44.250    21430317.082    87753561.908          27.250  
G17  22491578.625   118194040.409          47.250    22491580.926    92099252.061          31.750  
G18  22641782.109   118983368.922          41.500    22641787.137    92714312.472          24.000  
G19  24347590.148   127947469.866          35.250    24347591.195    99699317.650          17.750  
G22  21134785.672   111064047.359          43.250    21134786.645    86543411.533          31.000  
G28  20752633.508   109055822.761          43.750    20752635.098    84978572.438          29.250  
R02  23111781.820   123328872.868          38.500    23111788.340    95922471.248          40.500  
R03  20421033.773   109315397.469          44.250    20421039.957    85023084.651          43.000  
R04  21327661.023   114208656.327          42.000    21327666.680    88828956.465          42.500  
R09  21557671.664   115116759.863          42.500    21557675.879    89535257.286          43.000  
R16  22625023.969   120858824.865          34.000    22625030.871    94001328.889          35.750  
R19  20667074.539   110554902.415          43.250    20667078.156    85987150.407          41.500  
E04  25953163.500   136384796.582          44.500    25953165.676   103174219.980          45.250  
E11  23031537.195   121031545.283          43.500    23031535.598    91559577.958          42.750  
E12  22758337.680   119595869.358          42.250    22758336.684    90473497.668          45.500  
E19  25651013.227   134796936.322          39.000    25651013.883   101973045.660          37.250  
E24  23677516.375   124426187.519          44.500    23677530.043    94127654.021          45.000  
E25  24671197.586   129648016.541          45.000    24671200.305    98077893.101          44.500  
J01  36897713.563   193898788.405          42.750    36897715.133   151089966.187          36.750    36897717.684   144794550.925          38.750  
C01  37054738.891   149204115.123          38.500    37054748.344   192953797.530          39.500  
C03  37848899.613   152401665.9811         26.250    37848908.352   197089232.041          36.250  
C04  37395943.859   150577800.8561         30.000    37395951.789   194730522.827          37.000  
C07  37341003.203   150356781.650          38.000    37341012.031   194444447.755          40.500  
C08  36728669.219   147891130.098          40.500    36728677.734   191255863.136          40.750  
C10  37112269.746   149435567.526          38.000    37112274.430   193253344.927          39.750  
C13  38349928.336   154419273.774          35.250    38349928.930   199698144.656          38.750  
C17  36938601.617   148736273.1611         28.000    36938608.430   192349033.652          38.750  
> 2018 08 30 02 03 15.0000000  0 29                     
G01  21157057.570   111181085.338          44.250    21157062.938    86634635.043          31.500  
G03  20391973.602   107160536.301          47.250    20391978.488    83501742.630          33.000  
G11  21430749.672   112619347.222          43.750    21430752.328    87755344.243          28.250  
G17  22491191.000   118192004.153          47.500    22491193.320    92097665.365          32.000  
G18  22642386.859   118986545.288          41.000    22642391.332    92716787.567          22.750  
G19  24347062.711   127944700.606          35.250    24347064.359    99697159.771          18.250  
G22  21135050.586   111065437.174          42.750    21135051.012    86544494.504          29.500  
G28  20752695.406   109056148.044          43.500    20752697.078    84978825.906          29.750  
R02  23112440.422   123332388.015          38.500    23112446.703    95925205.258          40.500  
R03  20421071.602   109315597.354          44.250    20421077.055    85023240.123          42.750  
R04  21327025.078   114205243.105          42.000    21327029.090    88826301.729          42.250  
R09  21557873.352   115117836.137          42.750    21557877.055    89536094.389          42.500  
R16  22625791.414   120862928.131          34.250    22625799.074    94004520.308          35.500  
R19  20666888.891   110553911.518          42.750    20666892.805    85986379.704          40.500  
E04  25952734.063   136382538.714          44.500    25952736.035   103172511.916          45.500  
E11  23031422.117   121030939.343          44.000    23031420.293    91559119.571          42.500  
E12  22758569.180   119597086.813          42.500    22758568.379    90474418.664          44.500  
E19  25651005.250   134796894.800          38.750    25651005.977   101973014.249          37.500  
E24  23678077.805   124429137.082          44.750    23678091.332    94129885.353          44.000  
E25  24671353.531   129648835.631          44.500    24671356.180    98078512.741          44.000  
J01  36897787.141   193899174.896          42.250    36897788.477   151090267.355          36.250    36897791.262   144794839.543          39.250  
C01  37054807.211   149204389.864          38.250    37054816.375   192954152.824          39.750  
C03  37848964.098   152401925.6351         27.250    37848973.734   197089568.397          36.500  
C04  37396007.742   150578058.0861         29.000    37396015.930   194730854.065          36.750  
C07  37341365.754   150358240.271          38.000    37341374.039   194446334.071          40.500  
C08  36728725.047   147891355.248          40.500    36728733.445   191256154.292          40.750  
C10  37112549.219   149436692.870          38.750    37112553.203   193254800.244          40.000  
C13  38349952.090   154419369.559          35.250    38349952.508   199698268.531          38.500  
C17  36938667.324   148736537.7361         25.250    36938673.773   192349375.568          39.000  
> 2018 08 30 02 03 16.0000000  0 29                     
G01  21157484.367   111183330.636          44.500    21157490.156    86636384.617          32.000  
G03  20391888.555   107160092.334          47.250    20391893.949    83501396.676          33.750  
G11  21431184.727   112621634.205          43.750    21431187.559    87757126.302          27.250  
G17  22490803.008   118189967.366          47.500    22490805.762    92096078.258          31.750  
G18  22642991.102   118989721.134          41.500    22642995.555    92719262.247          25.500  
G19  24346535.852   127941930.768          35.500    24346537.297    99695001.467          17.500  
G22  21135314.305   111066826.921          42.750    21135315.590    86545577.422          30.250  
G28  20752757.109   109056473.319          43.250    20752759.020    84979079.366          29.750  
R02  23113099.023   123335903.099          38.500    23113105.816    95927939.211          40.750  
R03  20421108.875   109315797.498          44.250    20421114.859    85023395.788          43.000  
R04  21326386.531   114201829.668          42.000    21326391.477    88823646.834          42.000  
R09  21558074.750   115118912.604          43.250    21558078.320    89536931.641          42.500  
R16  22626559.656   120867030.939          33.750    22626566.750    94007711.381          35.750  
R19  20666704.039   110552920.114          43.250    20666707.504    85985608.613          40.750  
E04  25952304.023   136380280.420          44.500    25952306.305   103170803.533          45.250  
E11  23031306.430   121030332.883          44.000    23031304.891    91558660.792          43.000  
E12  22758800.695   119598303.738          42.250    22758799.949    90475339.266          44.750  
E19  25650997.266   134796853.110          39.000    25650998.051   101972982.707          37.500  
E24  23678638.742   124432086.228          45.000    23678652.531    94132116.360          44.250  
E25  24671509.289   129649654.611          44.500    24671512.027    98079132.296          44.250  
J01  36897860.625   193899560.881          42.500    36897861.633   151090568.115          36.500    36897864.699   144795127.775          38.750  
C01  37054875.219   149204664.135          38.000    37054884.063   192954507.520          39.500  
C03  37849028.535   152402185.0961         27.250    37849037.727   197089904.138          36.250  
C04  37396071.441   150578314.5761         27.750    37396079.516   194731184.731          37.000  
C07  37341727.602   150359698.513          38.000    37341736.109   194448219.898          40.250  
C08  36728780.887   147891579.919          40.500    36728789.641   191256444.845          40.750  
C10  37112828.512   149437817.880          38.750    37112832.820   193256255.131          40.250  
C13  38349975.645   154419464.844          35.250    38349976.008   199698391.759          38.500  
C17  36938732.773   148736801.2721         26.500    36938740.016   192349716.903          38.750  
> 2018 08 30 02 03 17.0000000  0 29                     
G01  21157912.383   111185576.148          44.250    21157917.434    86638134.369          31.250  
G03  20391804.359   107159648.993          46.750    20391809.477    83501051.222          33.750  
G11  21431619.992   112623921.404          44.000    21431622.789    87758908.537          27.250  
G17  22490415.625   118187930.629          47.000    22490418.195    92094491.193          31.250  
G18  22643595.438   118992897.049          41.500    22643599.992    92721736.971          23.500  
G19  24346008.367   127939160.862          35.500    24346010.168    99692843.072          18.250  
G22  21135578.844   111068217.197          42.500    21135580.273    86546660.756          30.000  
G28  20752819.055   109056799.184          43.250    20752821.063    84979333.303          29.500  
R02  23113757.938   123339418.686          38.000    23113764.227    95930673.560          40.750  
R03  20421146.367   109315998.493          44.500    20421152.391    85023552.116          43.250  
R04  21325749.648   114198416.629          42.000    21325754.043    88820992.249          42.500  
R09  21558276.953   115119989.896          42.750    21558280.250    89537769.538          42.750  
R16  22627328.344   120871133.944          33.500    22627334.633    94010902.604          35.750  
R19  20666518.664   110551928.837          43.250    20666522.469    85984837.620          41.000  
E04  25951874.438   136378022.229          44.500    25951876.586   103169095.233          45.750  
E11  23031191.375   121029726.473          44.000    23031189.488    91558202.040          43.000  
E12  22759032.398   119599520.709          42.500    22759031.520    90476259.896          45.000  
E19  25650989.461   134796811.868          38.750    25650990.203   101972951.510          37.250  
E24  23679200.391   124435035.566          45.000    23679213.773    94134347.514          44.250  
E25  24671665.297   129650474.035          44.500    24671667.957    98079752.182          44.500  
J01  36897933.586   193899946.892          42.750    36897935.223   151090868.906          37.500    36897938.141   144795416.027          39.000  
C01  37054943.316   149204938.377          38.000    37054952.289   192954862.179          39.500  
C03  37849093.195   152402445.4551         27.250    37849101.492   197090239.871          36.500  
C04  37396134.984   150578570.4371         27.000    37396142.641   194731515.339          37.000  
C07  37342089.770   150361156.785          37.500    37342097.906   194450105.775          40.500  
C08  36728836.742   147891804.529          40.750    36728845.492   191256735.318          40.500  
C10  37113107.793   149438943.006          38.750    37113112.547   193257710.167          40.250  
C13  38349999.324   154419560.128          34.500    38349999.633   199698514.986          38.750  
C17  36938798.340   148737065.2831         26.500    36938805.375   192350058.199          39.000  
> 2018 08 30 02 03 18.0000000  0 29                     
G01  21158339.633   111187821.526          43.500    21158344.648    86639884.018          32.500  
G03  20391720.484   107159205.996          46.500    20391725.266    83500706.021          33.500  
G11  21432055.367   112626208.548          44.000    21432057.875    87760690.720          27.000  
G17  22490028.367   118185893.690          45.750    22490030.570    92092903.968          31.250  
G18  22644199.164   118996072.740          41.250    22644204.266    92724211.529          24.000  
G19  24345482.086   127936390.607          35.000    24345482.785    99690684.459          17.500  
G22  21135843.813   111069607.700          42.500    21135844.914    86547744.261          29.500  
G28  20752881.375   109057125.355          43.500    20752883.164    84979587.451          29.750  
R02  23114416.930   123342934.490          37.750    23114423.164    95933408.070          40.000  
R03  20421183.477   109316200.099          44.500    20421190.125    85023708.915          42.500  
R04  21325111.383   114195003.727          41.500    21325117.027    88818337.773          42.000  
R09  21558478.211   115121067.674          42.500    21558482.473    89538607.809          42.000  
R16  22628096.719   120875236.803          33.250    22628102.809    94014093.705          36.000  
R19  20666332.922   110550937.427          43.000    20666336.676    85984066.525          40.250  
E04  25951444.680   136375763.867          44.500    25951446.828   103167386.798          45.500  
E11  23031075.961   121029119.855          43.500    23031074.043    91557743.138          42.500  
E12  22759264.148   119600737.448          42.500    22759263.063    90477180.354          45.000  
E19  25650981.664   134796770.745          38.750    25650982.375   101972920.403          37.000  
E24  23679761.281   124437984.780          45.000    23679774.988    94136578.568          43.250  
E25  24671821.352   129651293.601          44.500    24671823.914    98080372.181          44.000  
J01  36898007.016   193900332.693          42.750    36898008.496   151091169.522          37.250    36898011.574   144795704.134          38.750  
C01  37055011.238   149205212.356          38.000    37055020.680   192955216.499          39.250  
C03  37849157.609   152402704.8241         26.250    37849166.039   197090575.283          35.500  
C04  37396198.391   150578825.7511         29.000    37396205.320   194731845.657          36.500  
C07  37342451.785   150362614.932          37.000    37342460.391   194451991.477          40.250  
C08  36728892.520   147892028.878          40.500    36728900.313   191257025.447          40.500  
C10  37113387.313   149440068.008          38.500    37113392.078   193259165.038          40.500  
C13  38350022.773   154419655.146          34.500    38350023.203   199698637.865          38.750  
C17  36938863.883   148737329.1981         26.250    36938870.398   192350399.156          38.500  
> 2018 08 30 02 03 19.0000000  0 29                     
G01  21158766.594   111190067.043          43.500    21158772.008    86641633.763          31.750  
G03  20391635.898   107158763.601          46.000    20391641.199    83500361.303          33.000  
G11  21432490.625   112628495.841          43.750    21432493.008    87762473.042          27.500  
G17  22489640.477   118183856.702          45.250    22489642.969    92091316.709          31.000  
G18  22644803.945   118999248.427          41.000    22644808.531    92726686.090          23.000  
G19  24344953.844   127933620.354          34.750    24344955.840    99688525.785          17.500  
G22  21136109.383   111070998.717          42.500    21136109.688    86548828.170          29.000  
G28  20752943.508   109057452.029          42.500    20752945.320    84979842.003          28.750  
R02  23115077.430   123346450.788          37.500    23115081.652    95936142.965          39.000  
R03  20421221.203   109316402.532          43.750    20421227.887    85023866.360          41.000  
R04  21324473.820   114191591.173          41.500    21324479.297    88815683.561          39.500  
R09  21558680.367   115122146.194          42.500    21558684.250    89539446.660          39.750  
R16  22628865.195   120879339.843          33.500    22628870.289    94017284.960          35.250  
R19  20666146.984   110549946.073          42.250    20666151.492    85983295.477          39.000  
E04  25951014.820   136373505.660          44.000    25951017.105   103165678.481          43.500  
E11  23030960.438   121028513.185          42.500    23030958.613    91557284.197          41.250  
E12  22759495.523   119601954.185          42.250    22759494.590    90478100.811          42.000  
E19  25650974.367   134796730.054          38.500    25650974.641   101972889.623          36.500  
E24  23680322.672   124440934.180          44.250    23680336.227    94138809.777          42.000  
E25  24671977.188   129652113.635          44.500    24671979.945    98080992.524          42.250  
J01  36898080.789   193900718.560          42.750    36898081.965   151091470.207          36.000    36898085.039   144795992.279          38.250  
C01  37055079.137   149205486.345          37.250    37055088.453   192955570.825          39.500  
C03  37849222.008   152402964.1321         26.000    37849230.539   197090910.650          36.250  
C04  37396261.863   150579081.3261         28.250    37396269.055   194732175.927          36.500  
C07  37342813.895   150364073.141          37.000    37342822.188   194453877.255          39.500  
C08  36728948.188   147892253.162          39.500    36728956.266   191257315.503          40.500  
C10  37113666.613   149441193.076          38.000    37113671.719   193260620.005          39.500  
C13  38350046.305   154419750.102          35.000    38350047.109   199698760.674          38.750  
C17  36938929.449   148737593.2051         26.000    36938936.078   192350740.081          38.500  
> 2018 08 30 02 03 20.0000000  0 29                     
G01  21159193.750   111192312.095          43.500    21159199.242    86643383.157          32.000  
G03  20391551.570   107158321.169          46.250    20391557.180    83500016.548          33.500  
G11  21432925.570   112630782.707          44.250    21432928.281    87764255.005          28.250  
G17  22489252.602   118181819.110          45.750    22489255.195    92089728.974          31.750  
G18  22645408.180   119002423.526          41.000    22645412.680    92729160.203          24.750  
G19  24344426.344   127930849.326          34.750    24344428.520    99686366.556          17.000  
G22  21136373.898   111072389.583          43.000    21136374.262    86549911.961          29.750  
G28  20753005.555   109057778.669          42.750    20753007.402    84980096.513          29.250  
R02  23115734.047   123349966.881          37.500    23115740.855    95938877.701          39.000  
R03  20421259.406   109316605.202          44.000    20421265.727    85024023.992          41.250  
R04  21323837.258   114188178.271          41.500    21323842.586    88813029.091          40.500  
R09  21558883.023   115123224.844          42.500    21558885.918    89540285.610          40.250  
R16  22629633.828   120883442.321          33.500    22629638.355    94020475.771          35.250  
R19  20665961.414   110548954.155          42.000    20665965.867    85982523.983          39.250  
E04  25950584.969   136371246.871          44.000    25950587.273   103163969.719          43.250  
E11  23030844.656   121027905.910          43.000    23030843.051    91556824.805          41.000  
E12  22759727.148   119603170.292          41.750    22759726.008    90479020.785          42.750  
E19  25650966.500   134796689.102          39.000    25650966.867   101972858.633          37.000  
E24  23680883.695   124443883.049          44.500    23680897.395    94141040.579          42.000  
E25  24672133.070   129652933.399          44.500    24672135.938    98081612.669          42.000  
J01  36898154.047   193901103.796          43.000    36898155.359   151091770.397          36.250    36898158.383   144796279.956          38.250  
C01  37055146.945   149205759.753          38.000    37055156.297   192955924.396          39.500  
C03  37849286.219   152403222.6831         27.500    37849294.781   197091245.324          36.000  
C04  37396325.195   150579336.3381         28.500    37396332.328   194732505.512          37.000  
C07  37343175.961   150365530.882          37.500    37343184.547   194455762.446          40.000  
C08  36729003.813   147892476.871          39.500    36729011.953   191257604.810          40.500  
C10  37113945.871   149442317.733          37.250    37113950.805   193262074.441          39.500  
C13  38350069.684   154419844.521          35.000    38350069.977   199698882.783          38.500  
C17  36938994.922   148737856.8381         26.750    36939001.383   192351080.328          39.000  
> 2018 08 30 02 03 21.0000000  0 29                     
G01  21159621.234   111194557.152          43.250    21159626.332    86645132.559          30.500  
G03  20391467.508   107157879.198          45.500    20391473.008    83499672.151          33.500  
G11  21433361.109   112633069.645          44.000    21433363.512    87766037.046          27.500  
G17  22488865.383   118179781.427          45.500    22488867.555    92088141.172          31.250  
G18  22646012.492   119005598.522          40.750    22646016.813    92731634.219          25.000  
G19  24343899.672   127928078.116          35.000    24343901.203    99684207.176          18.250  
G22  21136638.898   111073780.856          43.000    21136639.047    86550996.070          29.750  
G28  20753067.891   109058105.710          42.500    20753069.711    84980351.373          28.750  
R02  23116393.531   123353483.368          37.500    23116400.008    95941612.734          38.500  
R03  20421297.055   109316808.590          43.750    20421303.711    85024182.185          40.750  
R04  21323200.016   114184765.606          41.500    21323204.945    88810374.799          39.750  
R09  21559084.539   115124304.132          42.000    21559087.980    89541125.064          39.500  
R16  22630402.242   120887544.821          33.750    22630406.398    94023666.596          35.000  
R19  20665777.000   110547962.170          42.250    20665780.266    85981752.439          39.250  
E04  25950155.383   136368988.052          43.500    25950157.430   103162260.938          42.500  
E11  23030729.313   121027298.553          42.750    23030727.488    91556365.339          40.500  
E12  22759958.594   119604386.306          42.250    22759957.406    90479940.692          42.000  
E19  25650958.477   134796648.421          39.000    25650959.141   101972827.860          37.000  
E24  23681444.914   124446831.970          44.000    23681458.547    94143271.420          41.000  
E25  24672289.672   129653753.505          44.000    24672291.988    98082233.073          41.500  
J01  36898227.281   193901488.939          42.750    36898228.594   151092070.508          36.000    36898231.660   144796567.564          38.000  
C01  37055215.074   149206033.039          37.250    37055224.063   192956277.817          39.500  
C03  37849350.410   152403481.1541         27.750    37849359.063   197091579.821          36.500  
C04  37396388.582   150579591.5711         29.000    37396395.719   194732834.874          37.000  
C07  37343538.125   150366988.558          36.500    37343546.438   194457647.549          39.250  
C08  36729059.172   147892700.420          39.250    36729067.063   191257893.907          40.500  
C10  37114224.988   149443442.419          37.500    37114229.648   193263528.901          40.250  
C13  38350093.039   154419938.808          35.250    38350093.031   199699004.714          38.250  
C17  36939060.152   148738119.4921         27.500    36939066.016   192351420.397          38.500  
> 2018 08 30 02 03 22.0000000  0 29                     
G01  21160047.867   111196801.700          42.500    21160053.500    86646881.546          29.750  
G03  20391382.836   107157437.154          44.500    20391388.680    83499327.702          32.250  
G11  21433796.016   112635356.102          43.250    21433798.613    87767818.703          26.500  
G17  22488477.258   118177743.107          45.000    22488479.723    92086552.882          30.500  
G18  22646616.703   119008772.898          40.250    22646620.859    92734107.745          22.250  
G19  24343372.016   127925306.157          34.000    24343373.590    99682047.223          17.750  
G22  21136903.227   111075171.946          41.500    21136903.863    86552080.047          29.000  
G28  20753129.664   109058432.647          41.750    20753131.836    84980606.137          27.250  
R02  23117053.375   123356999.634          37.000    23117059.035    95944347.610          37.750  
R03  20421334.609   109317012.132          43.000    20421341.695    85024340.502          40.250  
R04  21322562.297   114181352.652          40.750    21322567.754    88807720.291          39.750  
R09  21559286.305   115125383.534          41.750    21559290.086    89541964.597          38.500  
R16  22631171.102   120891646.771          33.000    22631174.375    94026857.017          34.500  
R19  20665590.992   110546969.589          41.000    20665594.809    85980980.439          38.000  
E04  25949725.328   136366728.686          43.250    25949727.488   103160551.744          42.500  
E11  23030613.531   121026690.540          41.750    23030611.809    91555905.387          39.750  
E12  22760190.102   119605601.670          41.250    22760188.703    90480860.105          41.500  
E19  25650950.836   134796607.499          38.500    25650951.359   101972796.901          36.000  
E24  23682005.859   124449780.369          43.500    23682019.625    94145501.859          41.000  
E25  24672445.875   129654573.357          43.000    24672447.996    98082853.288          41.250  
J01  36898300.641   193901873.445          42.500    36898302.109   151092370.124          35.500    36898304.773   144796854.696          36.750  
C01  37055282.809   149206305.795          36.500    37055292.156   192956630.553          38.750  
C03  37849414.516   152403739.2821         26.500    37849422.992   197091913.599          35.750  
C04  37396451.742   150579845.8901         28.500    37396459.156   194733163.596          36.000  
C07  37343900.055   150368445.771          36.000    37343908.055   194459532.037          38.500  
C08  36729114.629   147892923.400          38.500    36729122.633   191258182.267          39.750  
C10  37114504.172   149444566.647          36.750    37114509.430   193264982.782          39.500  
C13  38350116.500   154420032.514          34.000    38350116.781   199699125.894          38.250  
C17  36939125.332   148738381.9451         26.500    36939131.492   192351759.741          38.000  
> 2018 08 30 02 03 23.0000000  0 30                     
G01  21160475.102   111199045.948          43.500    21160480.656    86648630.322          31.750  
G03  20391299.023   107156995.280          46.000    20391304.688    83498983.387          33.750  
G11  21434230.992   112637642.305          44.250    21434233.664    87769600.167          27.500  
G17  22488088.773   118175704.338          46.000    22488091.723    92084964.226          31.500  
G18  22647220.820   119011946.846          41.500    22647224.629    92736580.959          22.750  
G19  24342844.930   127922533.742          35.000    24342846.184    99679886.921          19.000  
G22  21137168.055   111076563.132          42.500    21137168.652    86553164.082          29.000  
G28  20753192.055   109058759.704          43.250    20753194.223    84980860.976          29.000  
R02  23117712.352   123360516.009          37.750    23117717.953    95947082.563          38.500  
R03  20421373.281   109317216.070          43.500    20421379.996    85024499.117          41.000  
R04  21321924.867   114177939.625          41.500    21321930.402    88805065.718          40.750  
R09  21559489.805   115126463.244          42.500    21559492.320    89542804.375          39.000  
R10  23473493.516   125126867.9101         30.250    23473498.809    97320965.7731         28.250  
R16  22631938.320   120895748.433          33.500    22631942.719    94030047.196          35.750  
R19  20665405.492   110545976.620          42.250    20665409.578    85980208.119          38.250  
E04  25949295.281   136364469.003          44.250    25949297.469   103158842.310          43.250  
E11  23030497.484   121026082.118          42.500    23030496.031    91555445.120          40.500  
E12  22760420.813   119606816.629          41.750    22760419.895    90481779.214          42.500  
E19  25650942.867   134796566.512          39.250    25650943.578   101972765.890          36.500  
E24  23682566.961   124452728.473          44.000    23682580.621    94147732.085          41.750  
E25  24672601.523   129655393.184          44.000    24672604.000    98083473.490          41.750  
J01  36898373.516   193902257.563          43.250    36898374.957   151092669.440          35.750    36898377.910   144797141.541          37.500  
C01  37055350.395   149206578.155          37.250    37055359.781   192956982.772          39.500  
C03  37849478.605   152403997.3421         25.750    37849487.297   197092246.917          36.500  
C04  37396514.832   150580099.9281         29.500    37396522.641   194733491.771          37.000  
C07  37344261.973   150369902.699          36.750    37344270.055   194461416.173          39.500  
C08  36729169.816   147893145.957          39.250    36729178.164   191258470.078          40.750  
C10  37114783.023   149445690.605          37.000    37114788.359   193266436.306          40.500  
C13  38350139.727   154420125.838          34.000    38350140.320   199699246.579          38.750  
C17  36939190.613   148738644.8041         26.750    36939197.141   192352098.594          38.750  
> 2018 08 30 02 03 24.0000000  0 30                     
G01  21160901.672   111201289.712          43.750    21160907.715    86650378.705          32.250  
G03  20391215.211   107156553.370          46.500    20391220.656    83498639.042          33.000  
G11  21434665.883   112639928.053          44.250    21434668.621    87771381.265          27.250  
G17  22487700.766   118173664.968          46.500    22487703.656    92083375.106          32.250  
G18  22647824.820   119015120.190          41.500    22647828.418    92739053.704          23.500  
G19  24342316.453   127919760.581          35.500    24342318.344    99677726.012          17.500  
G22  21137432.898   111077954.124          42.750    21137433.492    86554247.963          29.500  
G28  20753254.172   109059086.655          43.500    20753256.625    84981115.739          29.000  
R02  23118370.414   123364032.206          37.000    23118376.594    95949817.370          38.750  
R03  20421412.133   109317420.179          43.500    20421418.125    85024657.859          41.500  
R04  21321287.297   114174526.292          42.500    21321293.109    88802410.897          41.500  
R09  21559691.164   115127543.057          42.500    21559694.141    89543644.227          39.750  
R10  23473111.734   125124828.854          30.500    23473115.785    97319379.851          29.500  
R16  22632705.305   120899849.592          33.750    22632710.023    94033236.979          35.500  
R19  20665219.297   110544983.077          42.250    20665223.715    85979435.368          38.250  
E04  25948865.227   136362208.731          44.000    25948867.359   103157132.428          44.000  
E11  23030381.539   121025473.071          43.000    23030380.137    91554984.377          41.000  
E12  22760652.164   119608030.949          41.500    22760650.969    90482697.843          43.250  
E19  25650934.930   134796525.299          39.000    25650935.738   101972734.713          37.000  
E24  23683127.859   124455676.094          44.750    23683141.531    94149961.936          42.500  
E25  24672757.656   129656212.792          45.000    24672759.961    98084093.508          42.500  
J01  36898446.336   193902641.078          43.250    36898448.082   151092968.279          36.250    36898450.832   144797427.929          38.000  
C01  37055417.895   149206849.979          37.750    37055427.219   192957334.306          39.500  
C03  37849542.594   152404254.9991         25.750    37849550.406   197092579.519          36.500  
C04  37396577.559   150580352.5031         28.250    37396585.125   194733819.307          37.000  
C07  37344623.609   150371359.172          37.000    37344631.977   194463299.711          39.500  
C08  36729225.121   147893367.959          39.750    36729233.813   191258757.184          41.000  
C10  37115062.395   149446814.177          37.500    37115067.211   193267889.329          40.500  
C13  38350162.512   154420218.626          34.250    38350163.125   199699366.572          38.500  
C17  36939255.703   148738906.8951         26.500    36939262.406   192352436.762          38.750  
> 2018 08 30 02 03 25.0000000  0 30                     
G01  21161328.430   111203533.363          43.500    21161334.742    86652127.012          31.500  
G03  20391130.992   107156111.787          46.500    20391136.590    83498294.951          33.500  
G11  21435100.750   112642213.725          44.000    21435103.680    87773162.311          27.750  
G17  22487312.305   118171625.332          46.750    22487315.520    92081785.785          31.750  
G18  22648428.664   119018293.281          41.500    22648432.246    92741526.247          23.000  
G19  24341789.211   127916987.061          35.500    24341790.648    99675564.810          17.500  
G22  21137697.430   111079345.384          43.000    21137698.184    86555332.071          29.500  
G28  20753316.789   109059413.913          43.500    20753318.902    84981370.748          30.000  
R02  23119030.102   123367548.693          37.500    23119036.156    95952552.414          39.000  
R03  20421449.750   109317624.855          43.500    20421456.320    85024817.057          42.000  
R04  21320649.523   114171113.038          42.500    21320655.488    88799756.150          41.500  
R09  21559893.602   115128623.388          42.500    21559896.625    89544484.478          40.500  
R10  23472729.438   125122790.187          30.500    23472733.527    97317794.230          28.750  
R16  22633472.617   120903950.600          34.250    22633478.461    94036426.647          35.500  
R19  20665034.000   110543989.363          42.250    20665037.695    85978662.481          38.500  
E04  25948435.039   136359948.318          44.250    25948437.215   103155422.443          44.250  
E11  23030265.789   121024863.769          43.500    23030264.199    91554523.445          41.500  
E12  22760882.766   119609245.019          42.250    22760881.996    90483616.281          43.750  
E19  25650927.109   134796484.216          39.500    25650927.922   101972703.643          36.750  
E24  23683688.695   124458623.621          44.750    23683702.422    94152191.722          43.000  
E25  24672913.453   129657032.573          45.000    24672915.965    98084713.673          42.750  
J01  36898519.383   193903024.347          43.500    36898520.961   151093266.939          36.250    36898523.766   144797714.138          38.000  
C01  37055485.469   149207121.575          38.000    37055494.922   192957685.530          39.750  
C03  37849606.340   152404511.6781         26.250    37849615.266   197092911.838          36.500  
C04  37396640.473   150580605.8321         30.000    37396648.297   194734146.488          37.000  
C07  37344985.398   150372815.491          37.000    37344993.773   194465183.047          40.250  
C08  36729280.117   147893589.695          40.000    36729288.000   191259043.930          40.750  
C10  37115341.410   149447937.592          38.000    37115346.914   193269342.152          40.250  
C13  38350185.578   154420311.147          34.750    38350186.180   199699486.217          38.750  
C17  36939320.691   148739168.5741         28.250    36939326.719   192352774.615          38.750  
> 2018 08 30 02 03 26.0000000  0 30                     
G01  21161755.781   111205777.036          44.000    21161761.754    86653875.319          32.000  
G03  20391047.227   107155670.704          46.500    20391052.645    83497951.246          34.000  
G11  21435535.563   112644499.485          43.750    21435538.602    87774943.414          28.000  
G17  22486924.125   118169585.602          47.000    22486927.359    92080196.383          32.500  
G18  22649032.719   119021466.288          41.500    22649036.039    92743998.706          23.750  
G19  24341261.141   127914213.402          35.000    24341262.785    99673403.497          18.250  
G22  21137962.641   111080737.022          43.000    21137963.047    86556416.465          30.500  
G28  20753379.352   109059741.617          43.500    20753381.297    84981626.093          29.500  
R02  23119689.289   123371065.502          37.500    23119695.352    95955287.694          39.750  
R03  20421488.789   109317830.268          43.500    20421494.875    85024976.812          42.500  
R04  21320013.234   114167700.001          42.000    21320018.426    88797101.561          42.250  
R09  21560096.594   115129704.348          42.250    21560098.941    89545325.216          41.250  
R10  23472346.805   125120752.006          31.750    23472350.934    97316208.970          28.500  
R16  22634241.484   120908051.631          34.250    22634246.113    94039616.334          36.000  
R19  20664847.422   110542995.635          42.250    20664851.770    85977889.573          39.000  
E04  25948004.836   136357687.909          44.500    25948007.066   103153712.453          44.750  
E11  23030149.961   121024254.402          43.500    23030148.238    91554062.456          42.000  
E12  22761113.992   119610459.010          42.250    22761113.027    90484534.653          44.500  
E19  25650919.672   134796443.425          39.500    25650920.152   101972672.776          36.750  
E24  23684249.320   124461571.165          44.750    23684263.320    94154421.515          43.500  
E25  24673069.500   129657852.660          44.500    24673072.023    98085334.059          43.250  
J01  36898592.781   193903407.561          42.750    36898594.172   151093565.537          36.750    36898596.684   144798000.299          38.000  
C01  37055552.910   149207393.036          37.750    37055561.805   192958036.589          39.500  
C03  37849669.953   152404767.8211         27.500    37849678.563   197093243.973          36.250  
C04  37396703.188   150580858.3591         28.500    37396710.914   194734473.533          36.750  
C07  37345347.078   150374271.787          37.000    37345355.438   194467066.361          40.000  
C08  36729335.184   147893811.277          40.000    36729342.727   191259330.491          40.750  
C10  37115620.496   149449061.050          37.500    37115625.531   193270795.033          39.750  
C13  38350208.566   154420403.541          34.500    38350208.813   199699605.704          39.250  
C17  36939385.637   148739430.0851         26.500    36939391.563   192353112.309          38.750  
> 2018 08 30 02 03 27.0000000  0 30                     
G01  21162182.664   111208020.606          44.250    21162188.824    86655623.561          32.000  
G03  20390963.672   107155229.941          46.500    20390968.508    83497607.796          34.000  
G11  21435970.406   112646785.188          44.250    21435973.586    87776724.482          27.500  
G17  22486535.992   118167545.651          47.250    22486539.223    92078606.805          32.000  
G18  22649635.867   119024639.069          41.500    22649639.746    92746471.003          24.000  
G19  24340733.508   127911439.411          35.250    24340734.711    99671241.965          18.500  
G22  21138226.680   111082128.917          42.750    21138227.859    86557501.052          29.750  
G28  20753441.391   109060069.605          42.750    20753443.645    84981881.669          29.000  
R02  23120349.313   123374582.491          38.500    23120354.016    95958023.118          40.000  
R03  20421527.219   109318036.254          44.250    20421533.332    85025137.015          42.500  
R04  21319375.734   114164287.048          42.250    21319381.398    88794447.047          42.500  
R09  21560298.594   115130785.828          42.500    21560301.813    89546166.371          41.500  
R10  23471965.719   125118714.167          31.500    23471968.652    97314623.989          28.000  
R16  22635008.484   120912152.532          34.000    22635013.555    94042805.918          35.000  
R19  20664662.266   110542001.697          42.000    20664665.781    85977116.509          39.000  
E04  25947574.711   136355427.329          43.750    25947576.898   103152002.345          45.000  
E11  23030033.898   121023644.774          43.500    23030032.250    91553601.282          42.000  
E12  22761344.445   119611672.740          42.250    22761344.016    90485452.835          44.250  
E19  25650911.766   134796402.793          39.000    25650912.449   101972642.039          37.000  
E24  23684810.367   124464518.590          45.000    23684824.199    94156651.228          43.500  
E25  24673225.477   129658672.919          44.500    24673228.117    98085954.583          43.500  
J01  36898665.234   193903790.534          43.000    36898666.895   151093863.957          36.500    36898669.598   144798286.289          38.000  
C01  37055620.113   149207664.263          38.000    37055629.078   192958387.347          39.500  
C03  37849733.738   152405024.6571         28.000    37849742.742   197093575.815          36.250  
C04  37396765.953   150581111.0881         29.250    37396773.344   194734800.272          36.750  
C07  37345708.500   150375727.892          37.500    37345716.766   194468949.436          40.250  
C08  36729389.992   147894032.584          40.250    36729398.578   191259616.689          41.500  
C10  37115899.215   149450184.379          37.500    37115904.734   193272247.746          40.000  
C13  38350231.500   154420495.629          34.500    38350231.930   199699724.796          39.000  
C17  36939450.527   148739691.3701         26.250    36939456.023   192353449.694          38.750  
> 2018 08 30 02 03 28.0000000  0 30                     
G01  21162609.672   111210264.198          43.500    21162615.859    86657371.815          32.000  
G03  20390879.734   107154789.648          46.500    20390884.863    83497264.711          34.750  
G11  21436405.602   112649070.907          44.500    21436408.410    87778505.557          28.000  
G17  22486147.969   118165505.539          47.000    22486151.043    92077017.110          32.250  
G18  22650239.500   119027811.778          41.250    22650243.445    92748943.246          22.500  
G19  24340205.492   127908665.182          35.250    24340206.793    99669080.218          18.500  
G22  21138492.117   111083521.159          42.750    21138492.910    86558585.921          30.750  
G28  20753504.258   109060397.995          43.500    20753506.059    84982137.558          30.000  
R02  23121008.031   123378099.782          38.500    23121013.395    95960758.783          39.500  
R03  20421565.836   109318242.926          44.500    20421571.934    85025297.754          43.250  
R04  21318738.359   114160874.315          42.500    21318743.984    88791792.701          42.500  
R09  21560500.906   115131867.940          42.750    21560504.293    89547008.010          42.250  
R10  23471581.945   125116676.882          30.750    23471586.176    97313039.423          29.500  
R16  22635776.852   120916253.421          34.500    22635781.090    94045995.496          35.500  
R19  20664476.641   110541007.708          42.500    20664479.766    85976343.406          39.500  
E04  25947144.656   136353166.702          43.750    25947146.719   103150292.196          45.000  
E11  23029918.219   121023035.024          43.250    23029916.211    91553140.013          42.500  
E12  22761575.602   119612886.334          42.250    22761574.969    90486370.909          44.250  
E19  25650904.219   134796362.381          39.000    25650904.773   101972611.470          36.500  
E24  23685371.156   124467466.037          45.250    23685385.094    94158880.947          43.750  
E25  24673381.531   129659493.441          45.000    24673384.246    98086575.303          43.750  
J01  36898738.195   193904173.410          43.000    36898739.664   151094162.299          36.750    36898742.434   144798572.202          38.000  
C01  37055687.316   149207935.346          38.500    37055696.695   192958737.915          39.750  
C03  37849797.234   152405280.3291         26.000    37849806.164   197093907.441          36.250  
C04  37396828.820   150581364.2271         28.500    37396836.016   194735126.795          36.750  
C07  37346070.336   150377183.942          37.750    37346078.266   194470832.432          40.500  
C08  36729445.035   147894253.692          40.250    36729453.195   191259902.632          41.250  
C10  37116178.246   149451307.686          37.750    37116183.555   193273700.439          40.500  
C13  38350254.313   154420587.605          34.750    38350255.203   199699843.738          39.250  
C17  36939515.152   148739951.5881         27.250    36939520.914   192353786.870          38.750  
> 2018 08 30 02 03 29.0000000  0 30                     
G01  21163036.672   111212507.744          43.750    21163042.664    86659120.032          32.250  
G03  20390795.984   107154349.772          46.500    20390801.223    83496921.952          34.500  
G11  21436840.516   112651356.667          44.250    21436843.453    87780286.668          27.500  
G17  22485760.008   118163465.292          46.500    22485762.840    92075427.311          31.500  
G18  22650843.273   119030984.320          41.500    22650847.266    92751415.359          22.750  
G19  24339677.727   127905890.726          35.500    24339678.809    99666918.309          19.000  
G22  21138757.164   111084913.715          43.000    21138757.809    86559671.021          29.750  
G28  20753566.625   109060726.773          43.500    20753568.801    84982393.752          29.500  
R02  23121667.672   123381617.325          38.500    23121672.801    95963494.634          39.500  
R03  20421604.695   109318450.254          44.250    20421610.828    85025459.000          43.500  
R04  21318101.672   114157461.778          42.000    21318106.496    88789138.506          42.750  
R09  21560704.000   115132950.627          42.500    21560707.367    89547850.102          42.250  
R10  23471199.930   125114640.024          31.500    23471203.914    97311455.202          28.000  
R16  22636544.547   120920354.290          34.750    22636548.422    94049185.062          35.500  
R19  20664291.227   110540013.630          42.500    20664293.703    85975570.237          39.500  
E04  25946714.500   136350906.016          43.500    25946716.531   103148581.997          45.000  
E11  23029801.773   121022425.125          42.750    23029800.164    91552678.626          42.250  
E12  22761806.609   119614099.801          42.250    22761805.887    90487288.886          44.500  
E19  25650896.734   134796322.210          39.500    25650897.137   101972581.071          36.500  
E24  23685932.086   124470413.468          45.500    23685945.965    94161110.658          44.000  
E25  24673537.836   129660314.198          45.000    24673540.438    98087196.199          44.000  
J01  36898811.297   193904556.122          43.250    36898812.332   151094460.522          36.750    36898815.246   144798857.996          38.000  
C01  37055754.891   149208206.252          38.750    37055763.648   192959088.258          39.750  
C03  37849861.055   152405537.3091         24.750    37849869.555   197094238.876          36.500  
C04  37396891.289   150581615.7641         29.000    37396898.219   194735453.088          36.750  
C07  37346431.848   150378639.890          37.750    37346439.664   194472715.301          40.250  
C08  36729500.102   147894474.626          40.500    36729507.430   191260188.345          41.500  
C10  37116457.121   149452430.914          38.000    37116463.164   193275153.018          39.750  
C13  38350276.875   154420679.373          35.000    38350277.391   199699962.414          39.250  
C17  36939579.773   148740211.7901         25.500    36939585.430   192354123.832          38.750  
> 2018 08 30 02 03 30.0000000  0 30                     
G01  21163463.805   111214751.247          43.750    21163469.609    86660868.220          31.000  
G03  20390712.063   107153910.298          46.000    20390717.586    83496579.508          35.000  
G11  21437275.805   112653642.416          43.750    21437278.352    87782067.774          27.750  
G17  22485371.133   118161424.854          46.750    22485374.602    92073837.363          31.750  
G18  22651447.391   119034156.664          41.500    22651450.988    92753887.316          23.250  
G19  24339149.984   127903115.973          35.750    24339150.902    99664756.152          19.500  
G22  21139022.414   111086306.592          42.750    21139022.918    86560756.376          29.750  
G28  20753629.094   109061055.907          43.500    20753631.355    84982650.214          29.000  
R02  23122327.266   123385135.123          38.750    23122332.441    95966230.709          39.500  
R03  20421643.766   109318658.207          44.250    20421649.922    85025620.737          43.000  
R04  21317463.234   114154049.368          41.500    21317469.355    88786484.416          42.000  
R09  21560906.742   115134033.866          42.000    21560910.313    89548692.620          42.500  
R10  23470818.680   125112603.627          31.250    23470822.035    97309871.324          28.500  
R16  22637312.359   120924455.077          34.500    22637316.406    94052374.569          35.750  
R19  20664104.750   110539019.446          42.000    20664107.789    85974796.986          39.500  
E04  25946284.281   136348645.223          43.750    25946286.332   103146871.727          45.000  
E11  23029685.547   121021815.045          43.500    23029684.078    91552217.103          42.750  
E12  22762037.477   119615313.068          42.000    22762036.770    90488206.713          44.750  
E19  25650889.133   134796282.269          39.250    25650889.531   101972550.861          37.250  
E24  23686492.977   124473360.844          45.000    23686506.840    94163340.332          43.750  
E25  24673693.961   129661135.222          45.250    24673696.672    98087817.301          44.000  
J01  36898884.320   193904938.713          43.250    36898885.414   151094758.639          36.750    36898888.027   144799143.690          38.000  
C01  37055822.238   149208476.951          38.500    37055831.195   192959438.338          39.500  
C03  37849924.730   152405793.7021         28.500    37849933.664   197094570.020          36.250  
C04  37396954.070   150581868.5571         29.500    37396961.445   194735779.148          36.750  
C07  37346793.551   150380095.760          37.750    37346801.625   194474598.054          40.500  
C08  36729554.891   147894695.305          40.500    36729562.945   191260473.727          41.500  
C10  37116735.848   149453554.079          38.000    37116741.719   193276605.499          39.750  
C13  38350299.516   154420770.954          34.250    38350300.289   199700080.843          38.750  
C17  36939644.613   148740472.8741         27.000    36939650.391   192354460.523          39.000  
> 2018 08 30 02 03 31.0000000  0 30                     
G01  21163890.094   111216994.228          43.500    21163896.359    86662615.998          32.000  
G03  20390628.234   107153470.779          46.750    20390633.801    83496237.033          34.500  
G11  21437710.680   112655927.685          43.500    21437713.344    87783848.498          27.750  
G17  22484982.961   118159383.796          47.000    22484986.219    92072246.926          31.000  
G18  22652051.063   119037328.392          41.500    22652054.555    92756358.774          22.250  
G19  24338621.258   127900340.535          35.750    24338622.684    99662593.496          19.250  
G22  21139287.055   111087699.312          43.500    21139287.941    86561841.618          30.250  
G28  20753692.078   109061384.938          43.500    20753693.863    84982906.595          29.500  
R02  23122986.445   123388652.761          39.750    23122991.203    95968966.635          39.000  
R03  20421682.539   109318866.332          44.500    20421689.148    85025782.616          43.000  
R04  21316826.086   114150636.673          41.750    21316832.035    88783830.101          42.500  
R09  21561109.594   115135117.223          42.250    21561113.672    89549535.234          42.500  
R10  23470436.328   125110567.179          31.500    23470440.063    97308287.417          28.250  
R16  22638079.352   120928555.351          34.750    22638084.074    94055563.658          36.000  
R19  20663918.211   110538024.652          42.500    20663921.801    85974023.251          39.250  
E04  25945853.883   136346383.882          43.750    25945855.977   103145161.036          45.250  
E11  23029569.563   121021204.331          43.500    23029567.852    91551755.104          43.000  
E12  22762268.375   119616525.718          42.250    22762267.508    90489124.073          45.000  
E19  25650881.109   134796242.065          39.500    25650881.875   101972520.442          37.000  
E24  23687053.609   124476307.715          45.500    23687067.578    94165569.616          44.500  
E25  24673850.211   129661955.982          45.000    24673852.863    98088438.199          44.000  
J01  36898957.008   193905320.660          43.000    36898957.875   151095056.266          36.750    36898960.668   144799428.921          38.500  
C01  37055889.113   149208747.116          38.750    37055898.367   192959787.719          39.500  
C03  37849988.172   152406049.1571         26.000    37849996.203   197094900.483          36.250  
C04  37397016.633   150582120.4721         30.000    37397024.242   194736104.481          37.250  
C07  37347154.965   150381551.164          37.500    37347162.836   194476480.209          40.500  
C08  36729609.609   147894915.448          40.500    36729617.938   191260758.418          41.250  
C10  37117015.039   149454676.830          38.750    37117020.539   193278057.473          39.750  
C13  38350322.305   154420861.971          34.500    38350322.805   199700198.551          39.250  
C17  36939709.008   148740732.1661         27.250    36939714.945   192354796.526          38.750  
> 2018 08 30 02 03 32.0000000  0 30                     
G01  21164317.109   111219237.090          43.500    21164322.988    86664363.687          32.000  
G03  20390545.047   107153031.559          46.500    20390550.281    83495894.774          34.000  
G11  21438144.680   112658212.838          43.250    21438148.262    87785629.135          26.000  
G17  22484594.477   118157342.449          46.500    22484597.617    92070656.277          32.000  
G18  22652654.453   119040499.871          41.000    22652657.902    92758830.068          22.500  
G19  24338093.930   127897564.695          36.000    24338094.598    99660430.507          19.000  
G22  21139551.734   111089092.239          42.750    21139553.051    86562927.017          30.250  
G28  20753754.414   109061714.230          43.500    20753756.695    84983163.184          29.000  
R02  23123645.797   123392170.626          39.500    23123650.672    95971702.747          39.250  
R03  20421721.055   109319075.038          44.250    20421728.168    85025944.942          43.000  
R04  21316187.719   114147224.039          41.500    21316194.457    88781175.832          43.000  
R09  21561312.164   115136201.058          41.750    21561316.004    89550378.215          42.500  
R10  23470055.836   125108531.062          31.500    23470058.148    97306703.774          29.000  
R16  22638847.305   120932655.472          35.500    22638851.402    94058752.642          36.000  
R19  20663731.781   110537029.649          42.500    20663735.672    85973249.359          39.250  
E04  25945423.336   136344122.343          44.000    25945425.633   103143450.193          45.250  
E11  23029453.445   121020593.327          43.500    23029451.594    91551292.885          42.750  
E12  22762499.016   119617738.087          42.250    22762498.215    90490041.224          44.750  
E19  25650873.484   134796201.944          39.750    25650874.254   101972490.095          36.500  
E24  23687614.469   124479254.453          45.500    23687628.336    94167798.804          44.500  
E25  24674006.305   129662776.889          45.000    24674009.074    98089059.211          44.250  
J01  36899029.391   193905702.347          43.250    36899030.586   151095353.682          36.500    36899033.281   144799713.942          38.500  
C01  37055956.254   149209017.006          38.500    37055965.547   192960136.747          39.500  
C03  37850051.867   152406305.6301         27.500    37850059.633   197095230.599          35.500  
C04  37397079.230   150582372.5241         28.250    37397086.578   194736429.484          36.500  
C07  37347516.137   150383006.358          38.000    37347524.914   194478362.102          40.500  
C08  36729664.141   147895135.288          40.500    36729672.242   191261042.720          41.000  
C10  37117294.047   149455799.442          37.500    37117299.977   193279509.247          39.500  
C13  38350344.586   154420952.725          34.000    38350345.609   199700315.913          39.250  
C17  36939773.512   148740991.8971         27.250    36939779.609   192355132.169          39.000  
> 2018 08 30 02 03 33.0000000  0 30                     
G01  21164744.008   111221479.861          43.500    21164749.969    86666111.286          32.000  
G03  20390461.234   107152592.688          46.750    20390466.695    83495552.800          34.250  
G11  21438580.039   112660497.980          42.750    21438582.840    87787409.768          27.750  
G17  22484206.188   118155300.892          46.750    22484209.156    92069065.450          31.750  
G18  22653257.789   119043671.109          41.000    22653261.555    92761301.156          22.500  
G19  24337564.984   127894788.564          35.750    24337566.262    99658267.273          18.250  
G22  21139817.266   111090485.440          42.750    21139818.117    86564012.629          30.000  
G28  20753816.727   109062043.826          43.500    20753819.539    84983420.011          30.000  
R02  23124305.133   123395688.784          39.750    23124309.574    95974439.086          39.500  
R03  20421760.195   109319284.349          44.500    20421766.832    85026107.739          43.250  
R04  21315550.883   114143811.531          42.000    21315556.973    88778521.660          43.250  
R09  21561515.703   115137285.405          41.500    21561518.906    89551221.597          43.000  
R10  23469674.102   125106495.318          31.500    23469676.375    97305120.410          29.750  
R16  22639614.734   120936755.484          35.500    22639618.824    94061941.537          35.750  
R19  20663546.000   110536034.468          42.500    20663549.695    85972475.333          39.500  
E04  25944993.383   136341860.666          44.250    25944995.258   103141739.247          45.000  
E11  23029337.266   121019982.139          43.500    23029335.285    91550830.522          43.000  
E12  22762729.789   119618950.219          42.250    22762728.863    90490958.200          45.000  
E19  25650865.766   134796162.002          39.500    25650866.652   101972459.875          36.000  
E24  23688175.141   124482201.074          45.500    23688189.055    94170027.904          44.500  
E25  24674162.883   129663597.975          45.500    24674165.297    98089680.353          44.750  
J01  36899102.297   193906083.830          42.750    36899103.109   151095650.940          36.500    36899105.926   144799998.812          38.250  
C01  37056023.113   149209286.681          38.750    37056032.508   192960485.504          39.500  
C03  37850115.336   152406561.1941         27.250    37850124.273   197095560.416          36.250  
C04  37397141.594   150582623.6381         28.750    37397148.148   194736754.206          37.000  
C07  37347877.402   150384461.463          38.000    37347885.836   194480243.866          41.000  
C08  36729718.867   147895354.836          40.750    36729726.648   191261326.652          41.000  
C10  37117572.793   149456921.953          38.000    37117578.547   193280960.906          40.000  
C13  38350367.680   154421043.241          34.500    38350368.430   199700432.973          39.250  
C17  36939837.922   148741251.2491         26.750    36939843.719   192355467.551          38.750  
> 2018 08 30 02 03 34.0000000  0 30                     
G01  21165170.375   111223722.574          43.250    21165176.688    86667858.855          30.750  
G03  20390378.141   107152154.241          46.750    20390383.207    83495211.151          34.500  
G11  21439014.695   112662783.102          43.250    21439017.766    87789190.382          26.750  
G17  22483817.469   118153259.159          47.000    22483820.586    92067474.493          31.500  
G18  22653861.453   119046842.184          41.500    22653864.977    92763772.104          22.500  
G19  24337036.641   127892012.145          36.500    24337037.934    99656103.876          19.000  
G22  21140082.664   111091878.917          42.500    21140083.145    86565098.441          29.750  
G28  20753879.930   109062373.796          43.750    20753882.305    84983677.129          29.000  
R02  23124964.313   123399207.283          38.750    23124969.055    95977175.689          39.000  
R03  20421800.711   109319494.335          44.500    20421806.082    85026271.056          42.500  
R04  21314914.109   114140399.195          42.250    21314920.086    88775867.621          43.500  
R09  21561718.109   115138370.314          42.250    21561722.082    89552065.411          43.000  
R10  23469291.383   125104460.014          30.750    23469295.043    97303537.400          28.250  
R16  22640383.945   120940855.446          35.500    22640386.219    94065130.397          35.500  
R19  20663359.953   110535039.204          42.250    20663363.652    85971701.226          39.250  
E04  25944562.742   136339598.896          44.000    25944564.852   103140028.231          45.000  
E11  23029220.844   121019370.765          43.500    23029218.941    91550368.020          42.500  
E12  22762960.328   119620162.171          42.250    22762959.508    90491875.025          45.250  
E19  25650858.383   134796122.250          39.000    25650859.090   101972429.801          36.250  
E24  23688735.750   124485147.673          45.500    23688749.766    94172256.982          44.500  
E25  24674319.227   129664419.272          45.250    24674321.602    98090301.662          44.500  
J01  36899173.734   193906465.161          43.500    36899175.398   151095948.076          36.500    36899178.449   144800283.576          38.000  
C01  37056089.859   149209556.162          38.500    37056098.922   192960834.004          39.250  
C03  37850178.656   152406816.1571         26.000    37850187.445   197095889.985          36.000  
C04  37397204.000   150582874.9221         29.500    37397211.063   194737078.680          36.500  
C07  37348238.828   150385916.410          38.000    37348247.102   194482125.437          40.500  
C08  36729773.180   147895574.195          40.500    36729780.898   191261610.330          41.000  
C10  37117851.578   149458044.379          38.000    37117857.352   193282412.464          40.250  
C13  38350390.152   154421133.541          34.000    38350391.570   199700549.754          39.250  
C17  36939902.270   148741510.3521         28.000    36939908.539   192355802.664          38.750  
> 2018 08 30 02 03 35.0000000  0 30                     
G01  21165597.141   111225965.130          43.500    21165603.473    86669606.313          31.250  
G03  20390295.250   107151716.087          46.500    20390299.840    83494869.734          34.000  
G11  21439449.539   112665068.103          42.750    21439452.621    87790970.911          27.500  
G17  22483429.242   118151217.142          46.500    22483432.035    92065883.309          31.750  
G18  22654464.727   119050013.032          41.250    22654468.387    92766242.912          23.000  
G19  24336508.469   127889235.397          36.500    24336509.793    99653940.148          19.000  
G22  21140347.594   111093272.613          42.750    21140348.352    86566184.443          30.000  
G28  20753943.219   109062704.012          43.750    20753945.234    84983934.440          29.500  
R02  23125623.938   123402725.969          39.000    23125628.734    95979912.439          39.500  
R03  20421838.961   109319704.860          44.000    20421845.414    85026434.805          42.500  
R04  21314276.453   114136986.852          42.250    21314283.250    88773213.582          43.500  
R09  21561921.266   115139455.690          41.750    21561925.250    89552909.591          42.500  
R10  23468910.523   125102425.089          31.500    23468913.246    97301954.682          28.500  
R16  22641150.945   120944955.178          36.000    22641153.563    94068319.072          35.000  
R19  20663173.938   110534043.725          42.000    20663177.781    85970926.969          39.500  
E04  25944132.383   136337336.936          43.750    25944134.418   103138317.079          45.250  
E11  23029104.297   121018759.095          43.750    23029102.555    91549905.300          43.000  
E12  22763190.914   119621373.859          41.750    22763190.094    90492791.663          44.750  
E19  25650850.742   134796082.618          39.500    25650851.566   101972399.825          37.250  
E24  23689296.844   124488094.126          44.750    23689310.469    94174485.955          44.500  
E25  24674475.539   129665240.715          45.250    24674477.934    98090923.079          44.500  
J01  36899246.508   193906846.232          43.500    36899247.977   151096245.022          37.000    36899250.965   144800568.145          38.500  
C01  37056156.902   149209825.390          38.250    37056165.805   192961182.174          39.500  
C03  37850241.762   152407070.2591         27.000    37850250.266   197096219.228          36.250  
C04  37397266.184   150583125.3111         28.000    37397272.930   194737402.826          37.000  
C07  37348600.277   150387371.208          38.000    37348608.547   194484006.819          40.500  
C08  36729827.582   147895793.255          40.750    36729835.539   191261893.622          41.000  
C10  37118130.117   149459166.678          38.000    37118135.891   193283863.836          39.750  
C13  38350412.484   154421223.595          34.250    38350412.867   199700666.201          39.250  
C17  36939966.559   148741769.2171         26.750    36939972.617   192356137.439          38.750  
> 2018 08 30 02 03 36.0000000  0 30                     
G01  21166023.750   111228207.567          43.250    21166030.066    86671353.668          32.000  
G03  20390211.336   107151278.229          46.750    20390216.711    83494528.542          33.750  
G11  21439884.680   112667353.031          43.000    21439887.484    87792751.376          27.750  
G17  22483040.195   118149174.861          46.750    22483043.340    92064291.915          32.250  
G18  22655068.266   119053183.605          41.500    22655071.770    92768713.485          22.250  
G19  24335979.859   127886458.303          36.500    24335981.391    99651776.184          18.500  
G22  21140613.148   111094666.511          42.750    21140613.500    86567270.602          30.250  
G28  20754005.891   109063034.487          43.500    20754008.137    84984191.953          29.500  
R02  23126282.672   123406244.801          38.500    23126288.203    95982649.311          39.250  
R03  20421879.219   109319915.913          44.000    20421884.555    85026598.949          43.250  
R04  21313639.594   114133574.628          42.000    21313645.766    88770559.627          44.000  
R09  21562125.023   115140541.529          42.000    21562127.945    89553754.136          42.750  
R10  23468529.055   125100390.540          31.750    23468531.191    97300372.241          29.250  
R16  22641918.445   120949054.801          36.250    22641920.887    94071507.665          35.500  
R19  20662987.547   110533048.029          42.000    20662991.301    85970152.533          39.500  
E04  25943702.273   136335074.773          43.750    25943703.934   103136605.761          45.500  
E11  23028987.930   121018147.174          43.750    23028986.109    91549442.384          43.500  
E12  22763421.461   119622585.278          41.500    22763420.609    90493708.092          45.500  
E19  25650843.430   134796043.086          39.500    25650844.031   101972369.919          37.000  
E24  23689857.250   124491040.440          45.250    23689871.109    94176714.812          44.500  
E25  24674632.000   129666062.296          45.750    24674634.250    98091544.595          44.500  
J01  36899319.531   193907227.052          43.250    36899320.453   151096541.756          36.250    36899323.410   144800852.519          38.500  
C01  37056223.828   149210094.342          38.500    37056232.617   192961529.993          39.750  
C03  37850304.824   152407324.1831         26.500    37850313.359   197096548.143          36.000  
C04  37397328.098   150583374.6131         28.750    37397335.461   194737726.608          37.000  
C07  37348961.633   150388825.839          38.250    37348969.703   194485887.973          40.750  
C08  36729881.852   147896012.013          41.000    36729889.930   191262176.530          41.000  
C10  37118408.863   149460288.815          37.750    37118413.961   193285315.001          39.750  
C13  38350434.805   154421313.344          33.750    38350434.898   199700782.269          39.250  
C17  36940030.727   148742027.5951         26.000    36940036.219   192356471.861          38.750  
> 2018 08 30 02 03 37.0000000  0 30                     
G01  21166450.813   111230449.922          43.000    21166456.867    86673100.961          31.500  
G03  20390128.047   107150840.774          47.250    20390133.535    83494187.676          33.500  
G11  21440319.625   112669637.922          43.000    21440322.293    87794531.803          28.000  
G17  22482651.617   118147132.372          47.000    22482654.934    92062700.373          31.750  
G18  22655671.242   119056353.973          41.250    22655674.875    92771183.888          23.000  
G19  24335451.617   127883680.855          36.500    24335452.789    99649611.940          18.250  
G22  21140878.133   111096060.705          42.750    21140878.879    86568356.984          29.500  
G28  20754068.773   109063365.291          42.750    20754071.074    84984449.728          30.000  
R02  23126941.789   123409763.846          38.500    23126948.250    95985386.338          39.500  
R03  20421917.680   109320127.585          44.000    20421923.926    85026763.592          43.250  
R04  21313003.367   114130162.573          42.250    21313008.465    88767905.810          43.250  
R09  21562329.352   115141627.904          42.000    21562331.570    89554599.090          42.750  
R10  23468147.242   125098356.357          31.750    23468149.527    97298790.100          28.500  
R16  22642685.984   120953154.316          36.000    22642688.391    94074696.186          35.000  
R19  20662802.055   110532052.207          42.250    20662805.094    85969378.008          39.500  
E04  25943271.398   136332812.507          43.750    25943273.457   103134894.375          45.750  
E11  23028871.148   121017535.053          43.750    23028869.637    91548979.326          43.500  
E12  22763651.734   119623796.481          41.750    22763651.117    90494624.362          45.500  
E19  25650836.156   134796003.760          39.250    25650836.559   101972340.174          36.500  
E24  23690417.922   124493986.671          45.000    23690431.770    94178943.627          44.750  
E25  24674788.219   129666884.071          45.500    24674790.633    98092166.269          44.500  
J01  36899391.828   193907607.674          43.500    36899392.945   151096838.345          37.000    36899395.820   144801136.753          38.750  
C01  37056290.574   149210363.105          38.500    37056299.477   192961877.557          39.500  
C03  37850367.883   152407578.0961         25.750    37850376.320   197096876.774          36.000  
C04  37397390.281   150583624.9981         27.000    37397397.406   194738050.135          36.500  
C07  37349322.844   150390280.325          37.750    37349331.766   194487768.938          40.500  
C08  36729935.758   147896230.539          40.750    36729944.305   191262459.121          41.000  
C10  37118687.488   149461410.900          38.000    37118692.969   193286766.106          39.500  
C13  38350457.105   154421402.869          34.000    38350457.531   199700898.045          39.250  
C17  36940095.012   148742286.4441         25.750    36940100.984   192356806.044          39.000  
> 2018 08 30 02 03 38.0000000  0 30                     
G01  21166876.961   111232691.904          42.750    21166883.445    86674847.957          32.250  
G03  20390045.141   107150403.379          47.500    20390050.172    83493846.841          34.000  
G11  21440753.883   112671922.468          43.000    21440756.871    87796311.960          27.750  
G17  22482262.984   118145089.401          47.500    22482266.082    92061108.445          31.750  
G18  22656274.383   119059523.870          41.750    22656277.926    92773653.938          22.500  
G19  24334923.930   127880902.861          36.500    24334924.152    99647447.243          19.000  
G22  21141143.672   111097454.879          42.500    21141144.281    86569443.359          31.000  
G28  20754131.477   109063696.147          43.250    20754133.785    84984707.545          30.750  
R02  23127601.000   123413282.820          38.500    23127607.680    95988123.318          38.750  
R03  20421957.852   109320339.532          44.000    20421963.633    85026928.437          43.750  
R04  21312365.109   114126750.341          41.500    21312371.188    88765251.847          43.500  
R09  21562531.484   115142714.593          42.500    21562535.355    89555444.298          42.750  
R10  23467766.094   125096322.281          32.000    23467768.016    97297208.047          27.500  
R16  22643454.594   120957253.435          36.250    22643456.371    94077884.378          35.750  
R19  20662615.703   110531055.900          42.500    20662619.172    85968603.088          39.500  
E04  25942840.656   136330549.827          43.750    25942842.867   103133182.674          45.500  
E11  23028754.383   121016922.414          44.000    23028753.047    91548515.863          43.000  
E12  22763882.055   119625007.200          42.250    22763881.492    90495540.261          45.250  
E19  25650828.508   134795964.302          39.500    25650829.039   101972310.313          37.000  
E24  23690978.516   124496932.543          44.500    23690992.336    94181172.153          45.000  
E25  24674944.469   129667705.782          45.500    24674946.980    98092787.884          44.500  
J01  36899464.086   193907987.825          43.500    36899465.602   151097134.563          36.500    36899468.137   144801420.632          38.500  
C01  37056357.211   149210631.417          38.250    37056366.344   192962224.543          39.250  
C03  37850431.000   152407832.2421         26.500    37850439.211   197097204.811          35.500  
C04  37397452.160   150583874.1591         28.000    37397458.977   194738373.083          37.000  
C07  37349683.941   150391734.488          38.000    37349692.336   194489649.500          40.500  
C08  36729989.977   147896448.581          41.000    36729998.445   191262741.101          41.000  
C10  37118966.195   149462532.637          38.250    37118971.859   193288216.772          39.500  
C13  38350478.984   154421491.955          34.000    38350479.430   199701013.249          39.750  
C17  36940159.000   148742544.0971         27.500    36940164.734   192357139.615          39.000  
> 2018 08 30 02 03 39.0000000  0 30                     
G01  21167303.742   111234933.687          43.000    21167310.172    86676594.812          32.250  
G03  20389961.648   107149966.252          47.250    20389967.008    83493506.221          34.000  
G11  21441189.281   112674206.876          43.000    21441191.578    87798092.023          28.000  
G17  22481873.977   118143046.074          47.500    22481877.133    92059516.244          32.500  
G18  22656877.961   119062693.451          42.250    22656880.906    92776123.744          23.500  
G19  24334394.992   127878124.447          36.500    24334395.496    99645282.224          17.750  
G22  21141408.031   111098849.216          43.000    21141409.508    86570529.861          30.500  
G28  20754194.641   109064027.189          43.500    20754196.887    84984965.498          29.750  
R02  23128260.820   123416801.871          38.750    23128267.145    95990860.356          38.750  
R03  20421997.070   109320551.985          44.500    20422003.070    85027093.684          43.250  
R04  21311727.672   114123338.102          41.750    21311734.215    88762597.890          44.000  
R09  21562735.734   115143801.648          42.250    21562738.938    89556289.783          42.500  
R10  23467383.727   125094288.493          31.500    23467386.254    97295626.207          28.750  
R16  22644220.219   120961352.358          35.500    22644223.207    94081072.439          35.500  
R19  20662430.055   110530059.318          42.500    20662433.238    85967827.967          39.250  
E04  25942410.359   136328286.896          43.750    25942412.258   103131470.781          45.000  
E11  23028638.070   121016309.475          43.500    23028636.434    91548052.179          43.000  
E12  22764112.195   119626217.569          41.750    22764111.848    90496455.900          45.250  
E19  25650820.813   134795924.882          39.500    25650821.566   101972280.497          37.000  
E24  23691539.047   124499878.224          44.750    23691552.906    94183400.544          44.750  
E25  24675100.758   129668527.524          45.750    24675103.379    98093409.529          44.750  
J01  36899536.234   193908367.670          43.500    36899537.770   151097430.547          37.250    36899540.410   144801704.283          38.500  
C01  37056423.699   149210899.416          38.500    37056432.859   192962571.126          39.750  
C03  37850493.930   152408085.6351         26.000    37850502.250   197097532.489          35.750  
C04  37397514.129   150584123.6831         27.750    37397521.523   194738695.657          37.000  
C07  37350045.063   150393188.363          37.750    37350053.391   194491529.685          40.500  
C08  36730044.121   147896666.292          41.000    36730052.008   191263022.653          40.500  
C10  37119244.719   149463654.186          38.000    37119250.164   193289667.172          39.750  
C13  38350501.344   154421580.735          34.000    38350501.898   199701128.064          39.750  
C17  36940222.914   148742801.4531         26.000    36940228.969   192357472.811          38.750  
> 2018 08 30 02 03 40.0000000  0 30                     
G01  21167729.813   111237175.334          42.750    21167736.742    86678341.539          31.500  
G03  20389878.992   107149529.424          47.000    20389883.883    83493165.841          34.250  
G11  21441623.820   112676491.170          43.000    21441626.328    87799871.995          27.000  
G17  22481484.898   118141002.505          47.500    22481488.285    92057923.853          32.000  
G18  22657480.484   119065862.782          41.750    22657484.020    92778593.350          23.750  
G19  24333865.555   127875345.682          36.500    24333866.699    99643116.991          18.500  
G22  21141674.234   111100243.738          43.250    21141674.840    86571616.496          30.500  
G28  20754258.070   109064358.500          44.250    20754259.988    84985223.659          29.500  
R02  23128920.398   123420321.191          38.750    23128926.395    95993597.600          39.000  
R03  20422037.188   109320764.983          44.750    20422043.355    85027259.341          43.750  
R04  21311091.289   114119925.907          41.500    21311096.867    88759943.956          44.000  
R09  21562940.063   115144889.155          42.250    21562942.547    89557135.623          42.250  
R10  23467001.781   125092255.032          31.500    23467005.039    97294044.620          28.750  
R16  22644988.523   120965451.129          35.750    22644990.574    94084260.377          36.250  
R19  20662243.969   110529062.505          42.250    20662246.926    85967052.674          39.000  
E04  25941979.805   136326023.782          43.750    25941981.598   103129758.749          45.250  
E11  23028521.305   121015696.270          44.250    23028519.715    91547588.292          43.250  
E12  22764342.547   119627427.690          41.500    22764342.109    90497371.351          45.250  
E19  25650813.180   134795885.590          39.750    25650814.090   101972250.771          37.000  
E24  23692099.648   124502823.772          44.500    23692113.418    94185628.826          44.500  
E25  24675257.148   129669349.422          45.500    24675259.785    98094031.285          44.750  
J01  36899608.359   193908747.228          43.750    36899609.793   151097726.308          37.000    36899612.613   144801987.712          38.000  
C01  37056490.188   149211167.161          38.250    37056499.180   192962917.381          39.500  
C03  37850556.730   152408338.5041         26.750    37850564.930   197097859.823          36.000  
C04  37397575.934   150584372.5461         28.250    37397583.023   194739017.860          37.000  
C07  37350405.820   150394642.099          37.500    37350414.000   194493409.687          40.250  
C08  36730098.242   147896883.720          40.750    36730106.680   191263303.833          41.000  
C10  37119523.148   149464775.616          38.000    37119529.063   193291117.436          40.250  
C13  38350523.285   154421669.232          33.750    38350523.602   199701242.507          39.750  
C17  36940286.645   148743058.0711         26.500    36940293.000   192357805.655          38.750  
> 2018 08 30 02 03 41.0000000  0 31                     
G01  21168156.563   111239416.884          43.250    21168163.527    86680088.200          32.000  
G03  20389795.453   107149092.952          46.750    20389800.859    83492825.735          34.000  
G06  24380541.383   128120640.2621         30.750                                                  
G11  21442058.547   112678775.419          43.250    21442060.957    87801651.923          27.250  
G17  22481096.336   118138958.690          47.500    22481099.578    92056331.268          31.500  
G18  22658083.727   119069031.880          41.750    22658087.082    92781062.764          22.500  
G19  24333336.695   127872566.578          37.000    24333337.973    99640951.442          17.750  
G22  21141939.961   111101638.552          42.750    21141940.352    86572703.362          30.750  
G28  20754320.430   109064690.124          44.500    20754323.117    84985482.073          30.250  
R02  23129579.680   123423840.795          38.750    23129586.043    95996335.068          39.250  
R03  20422077.016   109320978.600          44.750    20422082.793    85027425.488          43.500  
R04  21310454.117   114116513.811          41.500    21310459.828    88757290.104          44.250  
R09  21563143.344   115145977.192          42.000    21563146.645    89557981.874          43.000  
R10  23466620.148   125090221.985          30.250    23466623.277    97292463.361          28.500  
R16  22645755.258   120969549.763          35.500    22645758.031    94087448.207          36.750  
R19  20662056.977   110528065.528          42.250    20662059.988    85966277.247          39.250  
E04  25941549.234   136323760.518          43.500    25941550.918   103128046.605          46.000  
E11  23028404.547   121015082.800          44.250    23028402.992    91547124.205          43.500  
E12  22764572.695   119628637.577          41.500    22764572.355    90498286.619          45.250  
E19  25650805.719   134795846.463          39.250    25650806.633   101972221.174          37.250  
E24  23692660.352   124505769.205          45.250    23692673.926    94187857.023          44.750  
E25  24675413.609   129670171.494          45.500    24675416.238    98094653.176          44.750  
J01  36899680.781   193909126.603          43.750    36899682.273   151098021.924          37.000    36899684.859   144802271.011          38.250  
C01  37056556.672   149211434.683          38.250    37056565.625   192963263.346          39.500  
C03  37850619.605   152408591.6761         27.000    37850627.273   197098186.868          36.250  
C04  37397637.668   150584621.1231         29.000    37397644.938   194739339.771          37.000  
C07  37350767.070   150396095.690          37.750    37350775.578   194495289.498          40.500  
C08  36730152.215   147897100.884          41.250    36730160.219   191263584.671          41.500  
C10  37119801.734   149465896.926          38.250    37119807.094   193292567.530          40.500  
C13  38350545.352   154421757.462          33.500    38350545.180   199701356.607          39.250  
C17  36940350.457   148743315.0151         27.000    36940356.625   192358138.219          39.000  
> 2018 08 30 02 03 42.0000000  0 31                     
G01  21168583.031   111241658.158          43.250    21168589.973    86681834.645          32.000  
G03  20389712.383   107148656.667          46.750    20389717.730    83492485.764          34.000  
G06  24380100.438   128118327.316          29.500                                                  
G11  21442493.266   112681059.430          42.750    21442495.508    87803431.664          27.250  
G17  22480707.102   118136914.477          47.500    22480710.449    92054738.371          31.750  
G18  22658686.734   119072200.598          41.750    22658690.156    92783531.892          22.250  
G19  24332807.180   127869787.010          36.750    24332809.109    99638785.535          18.250  
G22  21142205.250   111103033.440          43.250    21142205.703    86573790.281          30.750  
G28  20754383.922   109065021.874          44.250    20754386.148    84985740.569          30.500  
R02  23130239.992   123427360.512          39.500    23130245.262    95999072.623          39.000  
R03  20422117.867   109321192.625          45.500    20422123.035    85027591.949          43.000  
R04  21309816.336   114113101.668          41.000    21309822.641    88754636.215          44.000  
R09  21563347.313   115147065.586          42.250    21563350.605    89558828.406          43.000  
R10  23466237.852   125088189.102          29.250    23466241.684    97290882.236          29.500  
R16  22646522.109   120973648.119          35.500    22646524.988    94090635.812          36.750  
R19  20661870.289   110527068.245          42.500    20661873.863    85965501.582          39.750  
E04  25941118.477   136321496.937          43.500    25941120.168   103126334.219          45.750  
E11  23028287.836   121014468.964          44.000    23028286.176    91546659.843          43.000  
E12  22764803.008   119629847.065          41.500    22764802.516    90499201.586          45.500  
E19  25650798.398   134795807.298          39.750    25650799.180   101972191.543          37.750  
E24  23693220.758   124508714.376          45.250    23693234.367    94190085.028          44.500  
E25  24675570.117   129670993.575          45.000    24675572.656    98095275.078          45.250  
J01  36899752.945   193909505.603          43.750    36899754.453   151098317.248          37.000    36899756.961   144802554.033          37.750  
C01  37056623.031   149211701.867          38.000    37056631.906   192963608.863          39.500  
C03  37850682.285   152408844.0621         27.250    37850690.711   197098513.438          36.000  
C04  37397699.430   150584869.8131         28.250    37397706.852   194739661.243          37.000  
C07  37351127.902   150397549.020          37.750    37351135.883   194497168.976          40.000  
C08  36730206.098   147897317.650          41.250    36730214.539   191263864.996          41.500  
C10  37120080.059   149467017.986          38.500    37120085.102   193294017.312          39.750  
C13  38350567.148   154421845.341          34.250    38350567.000   199701470.261          38.750  
C17  36940414.465   148743572.7491         24.750    36940420.602   192358470.304          38.750  
> 2018 08 30 02 03 43.0000000  0 31                     
G01  21169009.750   111243899.433          43.250    21169016.313    86683581.089          31.250  
G03  20389629.594   107148220.836          47.000    20389634.809    83492146.158          34.000  
G06  24379661.656   128116014.297          30.250                                                  
G11  21442928.031   112683343.471          43.250    21442930.156    87805211.449          27.000  
G17  22480318.563   118134870.125          47.500    22480321.406    92053145.376          32.000  
G18  22659289.617   119075369.189          41.250    22659292.949    92786000.953          22.500  
G19  24332278.297   127867007.192          36.750    24332280.281    99636619.467          19.000  
G22  21142470.672   111104428.642          43.500    21142471.211    86574877.461          30.750  
G28  20754446.492   109065354.026          44.500    20754449.523    84985999.387          30.750  
R02  23130899.602   123430880.547          39.250    23130905.141    96001810.433          39.500  
R03  20422157.273   109321407.329          45.500    20422163.137    85027758.947          42.500  
R04  21309179.320   114109689.770          41.000    21309185.691    88751982.519          43.750  
R09  21563550.844   115148154.583          42.500    21563554.340    89559675.402          43.000  
R10  23465855.234   125085989.4961         29.000                                                  
R16  22647289.055   120977746.447          35.750    22647291.746    94093823.396          36.500  
R19  20661683.680   110526070.903          42.500    20661687.496    85964725.865          40.000  
E04  25940687.563   136319233.316          44.000    25940689.418   103124621.807          45.500  
E11  23028170.969   121013854.982          44.000    23028169.352    91546195.372          43.000  
E12  22765033.055   119631056.422          41.500    22765032.664    90500116.458          45.250  
E19  25650791.070   134795768.429          39.500    25650791.785   101972162.143          37.000  
E24  23693781.305   124511659.559          45.000    23693794.820    94192313.041          44.750  
E25  24675726.695   129671815.927          45.000    24675729.152    98095897.181          45.000  
J01  36899824.883   193909884.481          43.500    36899826.555   151098612.479          36.750    36899829.035   144802836.968          38.000  
C01  37056689.285   149211968.860          38.000    37056698.164   192963954.150          39.500  
C03  37850744.813   152409095.8371         25.750    37850754.086   197098839.804          36.000  
C04  37397761.313   150585118.9901         29.000    37397768.719   194739982.508          36.750  
C07  37351488.781   150399002.278          37.500    37351497.344   194499048.357          40.250  
C08  36730259.992   147897534.240          41.000    36730268.070   191264145.097          42.000  
C10  37120358.566   149468139.045          38.500    37120363.930   193295467.093          40.250  
C13  38350588.992   154421933.056          34.250    38350588.930   199701583.684          39.250  
C17  36940478.109   148743829.0171         27.000    36940484.211   192358802.184          39.000  
> 2018 08 30 02 03 44.0000000  0 30                     
G01  21169435.992   111246140.686          42.750    21169442.914    86685327.519          31.000  
G03  20389546.750   107147785.430          46.500    20389551.879    83491806.880          33.500  
G06  24379222.508   128113701.189          29.500                                                  
G11  21443362.297   112685627.535          43.500    21443364.789    87806991.235          27.000  
G17  22479929.203   118132825.634          47.250    22479932.387    92051552.264          30.750  
G18  22659891.930   119078537.651          40.500    22659895.742    92788469.875          22.500  
G19  24331749.289   127864227.203          36.750    24331751.273    99634453.230          19.000  
G22  21142735.945   111105824.159          43.500    21142736.844    86575964.872          30.000  
G28  20754509.680   109065686.566          43.750    20754512.891    84986258.516          29.250  
R02  23131558.813   123434400.871          39.000    23131564.805    96004548.457          39.000  
R03  20422196.914   109321622.695          45.000    20422203.512    85027926.451          42.500  
R04  21308542.000   114106278.053          40.500    21308548.559    88749328.957          43.250  
R09  21563754.953   115149244.141          42.250    21563758.500    89560522.832          42.500  
R16  22648055.734   120981844.746          35.250    22648058.898    94097010.950          36.000  
R19  20661497.695   110525073.494          42.500    20661501.680    85963950.110          40.250  
E04  25940256.813   136316969.631          44.500    25940258.645   103122909.346          45.250  
E11  23028054.070   121013240.858          44.000    23028052.488    91545730.789          42.750  
E12  22765263.336   119632265.593          41.750    22765262.758    90501031.188          44.750  
E19  25650783.656   134795729.749          39.000    25650784.426   101972132.883          36.750  
E24  23694341.672   124514604.700          45.000    23694355.254    94194541.019          44.750  
E25  24675883.219   129672638.555          45.000    24675885.668    98096519.492          44.750  
J01  36899896.813   193910263.190          43.750    36899898.719   151098907.581          36.500    36899901.086   144803119.770          38.000  
C01  37056755.656   149212235.672          38.250    37056764.977   192964299.198          39.500  
C03  37850807.320   152409347.5261         27.750    37850815.789   197099165.933          36.000  
C04  37397822.855   150585366.7941         28.750    37397830.461   194740303.531          37.000  
C07  37351849.785   150400455.407          37.500    37351857.805   194500927.579          40.000  
C08  36730313.625   147897750.596          40.500    36730321.945   191264424.888          42.000  
C10  37120636.629   149469260.041          38.000    37120642.367   193296916.790          39.750  
C13  38350610.711   154422020.569          34.000    38350611.125   199701696.860          39.500  
C17  36940541.770   148744085.3541         26.000    36940548.211   192359133.873          39.000  
> 2018 08 30 02 03 45.0000000  0 30                     
G01  21169862.992   111248381.862          43.500    21169869.316    86687073.881          31.500  
G03  20389463.383   107147350.383          46.500    20389469.078    83491467.885          33.250  
G06  24378781.617   128111387.943          30.250                                                  
G11  21443797.195   112687911.553          44.250    21443799.410    87808770.978          28.000  
G17  22479540.484   118130780.933          46.500    22479543.258    92049958.980          31.000  
G18  22660495.031   119081705.887          40.500    22660498.563    92790938.621          22.500  
G19  24331219.867   127861446.839          36.750    24331222.121    99632286.748          19.250  
G22  21143001.570   111107220.033          43.000    21143002.520    86577052.564          30.500  
G28  20754573.695   109066019.427          43.000    20754576.125    84986517.877          30.000  
R02  23132219.469   123437921.398          39.250    23132224.652    96007286.647          39.000  
R03  20422237.375   109321838.637          45.000    20422243.676    85028094.410          41.500  
R04  21307905.023   114102866.438          40.750    21307911.105    88746675.477          42.250  
R09  21563959.328   115150334.268          42.500    21563962.711    89561370.712          40.750  
R16  22648822.242   120985942.936          35.250    22648826.547    94100198.418          36.000  
R19  20661310.242   110524075.929          42.500    20661315.078    85963174.215          40.250  
E04  25939825.852   136314705.811          44.500    25939827.844   103121196.778          43.000  
E11  23027937.172   121012626.514          44.250    23027935.574    91545266.043          42.000  
E12  22765493.461   119633474.606          41.500    22765492.820    90501945.794          43.500  
E19  25650776.305   134795691.254          39.250    25650777.094   101972103.759          36.250  
E24  23694902.055   124517549.776          45.000    23694915.676    94196768.947          42.750  
E25  24676039.602   129673461.349          44.500    24676042.234    98097141.930          42.500  
J01  36899968.742   193910641.775          43.250    36899970.469   151099202.581          36.750    36899973.117   144803402.481          38.000  
C01  37056821.891   149212502.261          38.250    37056830.758   192964643.969          39.500  
C03  37850869.953   152409599.7241         28.000    37850878.211   197099491.794          36.000  
C04  37397884.539   150585615.1701         28.500    37397891.711   194740624.290          37.000  
C07  37352210.500   150401908.434          37.250    37352219.453   194502806.649          40.500  
C08  36730367.355   147897966.764          39.500    36730375.305   191264704.441          41.500  
C10  37120914.910   149470380.935          37.250    37120920.602   193298366.351          40.500  
C13  38350632.285   154422107.859          33.500    38350632.578   199701809.746          39.250  
C17  36940605.293   148744341.1341         26.500    36940611.203   192359465.258          38.750  
> 2018 08 30 02 03 46.0000000  0 30                     
G01  21170288.586   111250622.847          43.500    21170295.930    86688820.109          31.250  
G03  20389380.891   107146915.609          47.000    20389386.441    83491129.098          34.000  
G06  24378341.664   128109074.352          30.500                                                  
G11  21444231.711   112690195.430          44.250    21444234.035    87810550.628          28.500  
G17  22479150.703   118128735.927          46.500    22479154.141    92048365.479          30.750  
G18  22661098.336   119084873.847          41.000    22661101.445    92793407.141          22.500  
G19  24330691.586   127858666.094          37.500    24330692.902    99630119.954          18.500  
G22  21143266.906   111108616.018          43.000    21143268.227    86578140.348          30.250  
G28  20754636.492   109066352.511          43.000    20754639.520    84986777.424          30.000  
R02  23132878.453   123441442.011          38.500    23132884.336    96010024.903          39.500  
R03  20422278.219   109322055.106          45.750    20422283.723    85028262.778          42.000  
R04  21307267.594   114099454.840          40.500    21307273.855    88744022.012          42.500  
R09  21564163.500   115151424.781          42.250    21564167.363    89562218.895          41.750  
R16  22649589.258   120990040.943          34.750    22649593.945    94103385.754          36.750  
R19  20661125.156   110523078.087          42.500    20661128.438    85962398.117          40.500  
E04  25939394.930   136312441.763          44.000    25939397.016   103119484.043          43.750  
E11  23027820.172   121012011.869          44.000    23027818.633    91544801.065          42.500  
E12  22765723.469   119634683.271          41.500    22765722.832    90502860.144          44.250  
E19  25650768.742   134795652.814          39.250    25650769.785   101972074.677          36.750  
E24  23695462.180   124520494.660          45.000    23695476.102    94198996.735          43.500  
E25  24676196.211   129674284.216          44.500    24676198.828    98097764.417          43.500  
J01  36900040.375   193911020.021          43.500    36900042.289   151099497.308          36.500    36900045.090   144803684.928          38.250  
C01  37056887.746   149212768.591          37.750    37056897.359   192964988.374          39.500  
C03  37850932.504   152409851.5911         27.000    37850940.953   197099817.280          36.000  
C04  37397946.051   150585862.8531         28.750    37397953.461   194740944.652          36.750  
C07  37352571.512   150403361.238          37.000    37352579.867   194504685.458          40.500  
C08  36730420.773   147898182.542          40.000    36730428.898   191264983.493          41.500  
C10  37121193.375   149471501.645          37.500    37121198.406   193299815.680          40.000  
C13  38350653.809   154422194.852          33.250    38350654.367   199701922.245          39.500  
C17  36940668.855   148744597.0721         27.000    36940675.180   192359796.244          38.750  
> 2018 08 30 02 03 47.0000000  0 30                     
G01  21170714.969   111252863.541          43.250    21170722.297    86690566.108          31.000  
G03  20389298.469   107146480.985          47.250    20389303.762    83490790.430          34.250  
G06  24377900.891   128106760.518          30.500                                                  
G11  21444666.438   112692479.041          44.250    21444668.438    87812330.066          28.000  
G17  22478762.156   118126690.478          46.250    22478764.969    92046771.621          31.250  
G18  22661700.703   119088041.365          41.000    22661704.207    92795875.353          22.500  
G19  24330161.797   127855884.834          37.500    24330163.656    99627952.727          18.500  
G22  21143532.875   111110012.062          42.750    21143533.820    86579228.176          30.250  
G28  20754699.773   109066685.706          43.250    20754702.941    84987037.053          30.000  
R02  23133538.695   123444962.612          38.750    23133544.387    96012763.157          39.500  
R03  20422319.297   109322271.992          45.500    20422324.289    85028431.468          42.250  
R04  21306630.125   114096043.170          41.250    21306636.758    88741368.497          43.000  
R09  21564367.289   115152515.644          42.000    21564371.262    89563067.344          42.000  
R16  22650357.023   120994138.618          34.500    22650361.191    94106572.834          36.500  
R19  20660938.375   110522079.873          42.250    20660941.871    85961621.729          40.250  
E04  25938964.078   136310177.375          44.000    25938966.105   103117771.046          44.000  
E11  23027703.016   121011396.804          43.750    23027701.582    91544335.776          42.500  
E12  22765953.789   119635891.500          42.250    22765952.766    90503774.162          44.500  
E19  25650761.414   134795614.341          39.250    25650762.465   101972045.577          36.750  
E24  23696022.492   124523439.252          45.000    23696036.441    94201224.295          43.500  
E25  24676352.922   129675107.084          45.000    24676355.418    98098386.916          43.750  
J01  36900113.164   193911397.846          43.500    36900114.117   151099791.719          37.250    36900117.012   144803967.074          38.000  
C01  37056953.941   149213034.520          38.500    37056963.297   192965332.278          39.750  
C03  37850994.922   152410102.9221         24.750    37851003.633   197100142.260          36.250  
C04  37398007.512   150586110.3311         27.500    37398014.523   194741264.528          36.750  
C07  37352931.934   150404813.746          37.000    37352940.547   194506563.872          39.500  
C08  36730474.352   147898397.985          40.750    36730482.750   191265262.108          41.250  
C10  37121471.516   149472622.106          38.000    37121476.648   193301264.673          40.000  
C13  38350675.508   154422281.463          33.250    38350675.453   199702034.243          39.500  
C17  36940732.344   148744852.7161         26.750    36940738.383   192360126.750          38.750  
> 2018 08 30 02 03 48.0000000  0 30                     
G01  21171141.625   111255103.959          43.250    21171148.738    86692311.890          31.500  
G03  20389215.570   107146046.540          47.500    20389220.887    83490451.904          34.250  
G06  24377460.602   128104446.329          29.500                                                  
G11  21445100.883   112694762.411          44.250    21445102.973    87814109.323          27.750  
G17  22478372.648   118124644.617          46.750    22478375.520    92045177.439          31.750  
G18  22662303.781   119091208.486          40.750    22662306.809    92798343.217          22.500  
G19  24329632.945   127853103.066          37.500    24329634.301    99625785.092          18.500  
G22  21143798.641   111111408.179          42.750    21143799.465    86580316.057          29.750  
G28  20754763.016   109067019.006          42.750    20754766.266    84987296.778          29.500  
R02  23134197.555   123448483.277          39.250    23134203.574    96015501.451          39.500  
R03  20422359.734   109322489.281          45.000    20422364.656    85028600.470          42.750  
R04  21305993.617   114092631.421          41.000    21305999.762    88738714.912          43.000  
R09  21564571.289   115153606.817          42.000    21564575.520    89563916.024          42.500  
R16  22651123.063   120998235.991          35.250    22651128.492    94109759.663          36.000  
R19  20660751.469   110521081.294          42.250    20660755.008    85960845.059          40.750  
E04  25938533.328   136307912.648          43.750    25938535.133   103116057.796          44.750  
E11  23027585.930   121010781.302          44.000    23027584.477    91543870.150          43.000  
E12  22766183.258   119637099.327          42.250    22766182.598    90504687.880          45.000  
E19  25650753.867   134795575.833          39.500    25650755.137   101972016.443          37.000  
E24  23696582.664   124526383.551          44.750    23696596.719    94203451.640          44.500  
E25  24676509.633   129675929.942          45.250    24676511.988    98099009.398          44.000  
J01  36900184.875   193911775.278          43.500    36900185.844   151100085.817          37.250    36900188.828   144804248.922          38.500  
C01  37057019.898   149213300.076          38.500    37057029.195   192965675.713          39.750  
C03  37851057.078   152410353.1981         26.750    37851065.750   197100466.770          36.500  
C04  37398068.824   150586357.2091         28.500    37398075.766   194741583.905          37.000  
C07  37353292.438   150406265.961          37.000    37353301.195   194508441.904          40.000  
C08  36730527.852   147898612.977          41.500    36730536.391   191265540.149          41.500  
C10  37121749.613   149473742.317          38.000    37121755.625   193302713.359          40.000  
C13  38350696.809   154422367.673          33.750    38350697.328   199702145.736          40.000  
C17  36940795.723   148745107.9171         26.250    36940802.477   192360456.766          38.750  
> 2018 08 30 02 03 49.0000000  0 30                     
G01  21171568.172   111257344.146          43.000    21171575.023    86694057.485          31.000  
G03  20389133.195   107145612.334          47.500    20389138.270    83490113.564          33.750  
G06  24377020.109   128102131.871          29.750                                                  
G11  21445535.398   112697045.624          44.000    21445537.449    87815888.445          28.250  
G17  22477983.438   118122598.431          46.750    22477986.133    92043583.013          32.000  
G18  22662906.648   119094375.259          41.500    22662909.555    92800810.858          22.750  
G19  24329103.531   127850320.920          37.250    24329104.832    99623617.171          19.250  
G22  21144064.258   111112804.438          42.500    21144065.180    86581404.048          30.000  
G28  20754827.086   109067352.529          42.500    20754829.734    84987556.668          29.750  
R02  23134856.984   123452004.085          39.000    23134863.359    96018239.858          39.750  
R03  20422400.086   109322707.071          45.250    20422405.305    85028769.867          43.000  
R04  21305357.625   114089219.665          41.250    21305362.766    88736061.320          43.000  
R09  21564775.664   115154698.412          41.500    21564779.980    89564765.045          42.500  
R16  22651889.781   121002333.130          35.250    22651895.258    94112946.326          35.500  
R19  20660565.133   110520082.439          42.500    20660568.258    85960068.179          40.750  
E04  25938102.094   136305647.681          43.500    25938104.133   103114344.363          45.000  
E11  23027468.891   121010165.492          43.750    23027467.293    91543404.299          43.000  
E12  22766412.930   119638306.832          41.750    22766412.391    90505601.353          45.250  
E19  25650746.750   134795537.383          39.500    25650747.813   101971987.349          37.000  
E24  23697142.914   124529327.678          44.750    23697156.977    94205678.849          44.500  
E25  24676665.984   129676752.883          45.500    24676668.578    98099631.951          44.250  
J01  36900256.516   193912152.396          43.500    36900257.941   151100379.681          37.500    36900260.598   144804530.543          38.750  
C01  37057085.832   149213565.341          38.500    37057095.609   192966018.750          39.750  
C03  37851119.199   152410603.3341         27.750    37851127.430   197100790.868          35.750  
C04  37398130.156   150586604.1681         29.250    37398137.641   194741902.890          36.750  
C07  37353653.180   150407717.967          37.500    37353661.578   194510319.664          40.250  
C08  36730580.992   147898827.652          41.000    36730589.602   191265817.763          41.500  
C10  37122027.879   149474862.350          38.000    37122032.938   193304161.803          40.250  
C13  38350718.035   154422453.571          33.500    38350718.211   199702256.824          40.000  
C17  36940858.863   148745362.1561         25.000    36940865.461   192360786.376          39.000  
> 2018 08 30 02 03 50.0000000  0 30                     
G01  21171994.063   111259583.855          43.250    21172001.074    86695802.723          31.250  
G03  20389050.523   107145178.053          48.000    20389055.648    83489775.173          34.000  
G06  24376578.992   128099816.842          30.250                                                  
G11  21445969.844   112699328.363          44.500    21445971.922    87817667.204          28.000  
G17  22477593.992   118120551.585          47.250    22477596.742    92041988.065          31.750  
G18  22663509.008   119097541.419          41.250    22663511.922    92803277.967          23.250  
G19  24328573.063   127847537.993          37.500    24328575.164    99621448.705          19.500  
G22  21144330.203   111114200.519          42.750    21144330.723    86582491.905          30.750  
G28  20754890.352   109067685.927          43.250    20754893.227    84987816.461          30.250  
R02  23135516.773   123455524.723          38.500    23135523.539    96020978.137          39.500  
R03  20422440.031   109322924.993          45.750    20422446.281    85028939.367          43.250  
R04  21304720.070   114085807.553          41.500    21304725.688    88733407.454          43.250  
R09  21564979.992   115155790.079          41.750    21564984.523    89565614.120          43.250  
R16  22652657.586   121006429.705          35.500    22652662.508    94116132.552          36.000  
R19  20660378.391   110519082.974          43.250    20660381.660    85959290.815          41.000  
E04  25937670.969   136303382.148          43.500    25937672.996   103112630.503          45.500  
E11  23027351.508   121009549.034          44.500    23027349.980    91542937.955          43.500  
E12  22766642.523   119639513.638          42.000    22766642.055    90506514.293          45.500  
E19  25650739.492   134795498.660          39.750    25650740.441   101971958.059          37.500  
E24  23697703.008   124532271.249          44.750    23697717.129    94207905.645          44.500  
E25  24676822.727   129677575.559          45.500    24676825.121    98100254.301          45.000  
J01  36900327.969   193912528.881          43.750    36900329.488   151100673.049          37.500    36900332.207   144804811.683          38.750  
C01  37057151.438   149213830.057          39.000    37057160.203   192966361.090          39.750  
C03  37851181.367   152410853.6591         27.500    37851189.945   197101114.253          36.000  
C04  37398191.230   150586850.0881         29.000    37398198.484   194742221.173          37.000  
C07  37354013.723   150409169.486          38.000    37354022.531   194512196.800          40.500  
C08  36730634.313   147899041.725          41.250    36730642.250   191266094.602          41.500  
C10  37122306.020   149475981.916          38.750    37122311.781   193305609.666          40.000  
C13  38350739.512   154422538.878          34.000    38350739.891   199702367.142          40.750  
C17  36940921.863   148745615.8311         26.000    36940928.898   192361115.280          38.750  
> 2018 08 30 02 03 51.0000000  0 30                     
G01  21172420.508   111261823.396          43.250    21172427.145    86697547.813          30.500  
G03  20388967.859   107144744.114          48.000    20388973.152    83489437.034          33.750  
G06  24376138.250   128097501.603          29.500                                                  
G11  21446404.586   112701611.011          44.500    21446406.402    87819445.880          27.500  
G17  22477204.438   118118504.504          47.250    22477207.234    92040392.936          32.000  
G18  22664112.141   119100707.330          41.750    22664114.266    92805744.923          22.500  
G19  24328043.555   127844754.747          36.500    24328045.500    99619279.938          19.250  
G22  21144595.781   111115596.837          42.500    21144596.527    86583579.942          30.500  
G28  20754953.852   109068019.606          42.500    20754956.645    84988076.470          31.000  
R02  23136176.461   123459045.579          38.250    23136182.535    96023716.575          39.250  
R03  20422481.602   109323143.489          44.750    20422486.871    85029109.308          43.000  
R04  21304083.523   114082395.546          41.500    21304088.582    88730753.670          43.000  
R09  21565184.805   115156882.274          41.500    21565188.957    89566463.599          43.500  
R16  22653425.438   121010526.176          35.750    22653429.621    94119318.681          35.750  
R19  20660191.125   110518083.292          42.750    20660194.789    85958513.280          40.500  
E04  25937239.922   136301116.421          43.500    25937241.852   103110916.494          45.750  
E11  23027234.313   121008932.346          44.000    23027232.617    91542471.434          43.250  
E12  22766872.320   119640720.244          41.250    22766871.660    90507427.078          45.250  
E19  25650732.063   134795460.063          39.250    25650733.090   101971928.856          36.500  
E24  23698263.375   124535214.722          45.000    23698277.258    94210132.356          44.500  
E25  24676979.430   129678398.392          45.000    24676981.688    98100876.765          44.750  
J01  36900399.609   193912905.144          44.000    36900401.301   151100966.246          37.500    36900403.801   144805092.659          38.250  
C01  37057217.371   149214094.509          38.250    37057226.070   192966703.085          39.500  
C03  37851243.352   152411103.2471         27.000    37851252.461   197101437.333          36.250  
C04  37398252.426   150587096.4991         29.000    37398259.609   194742539.120          37.000  
C07  37354374.105   150410620.835          37.250    37354382.680   194514073.721          40.500  
C08  36730687.531   147899255.516          41.000    36730695.742   191266371.085          41.250  
C10  37122584.133   149477101.400          38.250    37122589.930   193307057.403          40.500  
C13  38350760.395   154422623.925          33.500    38350760.398   199702477.129          40.500  
C17  36940985.156   148745870.6851         26.000    36940991.703   192361443.852          38.500  
> 2018 08 30 02 03 52.0000000  0 30                     
G01  21172846.242   111264062.845          42.750    21172853.293    86699292.833          31.000  
G03  20388885.383   107144310.526          47.500    20388890.703    83489099.171          34.500  
G06  24375697.969   128095186.260          29.250                                                  
G11  21446838.758   112703893.614          44.750    21446840.707    87821224.541          27.750  
G17  22476814.609   118116457.188          47.000    22476817.660    92038797.624          32.000  
G18  22664713.875   119103873.043          42.000    22664716.730    92808211.711          25.250  
G19  24327514.563   127841971.168          37.000    24327515.836    99617110.868          19.000  
G22  21144861.344   111116993.424          42.750    21144862.102    86584668.187          30.250  
G28  20755017.617   109068353.599          42.750    20755020.180    84988336.717          29.500  
R02  23136836.422   123462566.716          38.250    23136842.340    96026455.244          39.500  
R03  20422522.625   109323362.596          44.750    20422527.734    85029279.725          42.500  
R04  21303447.125   114078983.711          41.500    21303451.195    88728100.017          43.000  
R09  21565389.117   115157974.953          41.500    21565393.531    89567313.455          43.500  
R16  22654192.930   121014622.457          35.500    22654196.547    94122504.674          36.000  
R19  20660004.680   110517083.469          43.250    20660008.367    85957735.641          41.000  
E04  25936809.078   136298850.588          43.500    25936810.684   103109202.404          45.750  
E11  23027116.680   121008315.362          44.500    23027115.215    91542004.689          43.000  
E12  22767101.688   119641926.602          41.250    22767101.219    90508339.682          45.250  
E19  25650724.672   134795421.647          39.500    25650725.781   101971899.799          36.500  
E24  23698823.367   124538158.094          45.000    23698837.367    94212358.998          45.000  
E25  24677135.930   129679221.411          45.000    24677138.293    98101499.379          44.500  
J01  36900471.789   193913281.202          44.000    36900472.773   151101259.275          37.500    36900475.289   144805373.483          38.250  
C01  37057283.156   149214358.724          38.500    37057291.797   192967044.774          39.750  
C03  37851305.141   152411352.0451         27.250    37851314.930   197101760.109          36.250  
C04  37398313.363   150587341.8671         28.500    37398320.141   194742856.812          37.000  
C07  37354734.523   150412072.080          37.750    37354742.563   194515950.493          40.250  
C08  36730740.520   147899469.055          41.250    36730748.773   191266647.238          41.500  
C10  37122862.172   149478220.767          38.000    37122868.125   193308504.992          40.750  
C13  38350781.309   154422708.786          33.500    38350782.258   199702586.870          40.500  
C17  36941048.160   148746124.3761         27.000    36941054.445   192361772.133          39.000  
> 2018 08 30 02 03 53.0000000  0 30                     
G01  21173272.148   111266302.226          43.000    21173279.484    86701037.809          31.250  
G03  20388802.961   107143877.326          47.250    20388808.262    83488761.614          34.250  
G06  24375257.133   128092870.751          29.250                                                  
G11  21447272.875   112706176.200          44.500    21447274.977    87823003.171          27.750  
G17  22476424.969   118114409.684          46.500    22476427.938    92037202.168          32.500  
G18  22665316.406   119107038.539          41.750    22665319.176    92810678.336          23.000  
G19  24326984.773   127839187.325          36.500    24326986.145    99614941.669          19.000  
G22  21145127.453   111118390.271          42.500    21145127.785    86585756.647          30.500  
G28  20755081.242   109068687.912          42.500    20755083.879    84988597.217          29.750  
R02  23137496.734   123466088.118          38.250    23137502.094    96029194.107          39.750  
R03  20422562.914   109323582.329          45.000    20422568.793    85029450.628          42.000  
R04  21302809.188   114075571.989          41.500    21302813.738    88725446.448          43.500  
R09  21565593.820   115159068.188          42.000    21565597.809    89568163.751          43.500  
R16  22654959.133   121018718.692          35.250    22654963.402    94125690.646          35.500  
R19  20659817.430   110516083.481          43.500    20659821.832    85956957.882          41.250  
E04  25936377.352   136296584.624          43.750    25936379.496   103107488.224          45.500  
E11  23026999.297   121007698.239          44.000    23026997.773    91541537.838          43.500  
E12  22767331.219   119643132.776          41.500    22767330.750    90509252.145          45.500  
E19  25650717.258   134795383.409          38.750    25650718.500   101971870.882          36.500  
E24  23699383.539   124541101.386          45.000    23699397.473    94214585.581          44.750  
E25  24677292.602   129680044.635          45.000    24677294.938    98102122.141          44.500  
J01  36900542.859   193913657.053          43.500    36900544.609   151101552.149          37.000    36900546.805   144805654.151          38.000  
C01  37057348.895   149214622.754          38.000    37057357.242   192967386.219          39.500  
C03  37851367.211   152411601.9761         26.000    37851376.500   197102082.609          36.000  
C04  37398374.043   150587586.2001         29.000    37398381.555   194743174.197          37.000  
C07  37355095.059   150413523.169          38.000    37355103.469   194517827.066          39.500  
C08  36730793.262   147899682.359          41.000    36730801.594   191266923.082          41.000  
C10  37123139.984   149479340.038          37.750    37123145.922   193309952.458          40.500  
C13  38350802.391   154422793.409          33.250    38350803.805   199702696.300          40.500  
C17  36941111.172   148746378.1001         27.500    36941118.070   192362100.168          38.750  
> 2018 08 30 02 03 54.0000000  0 30                     
G01  21173698.586   111268541.654          42.750    21173705.734    86702782.817          31.000  
G03  20388720.555   107143444.603          47.500    20388725.902    83488424.430          34.250  
G06  24374816.703   128090555.201          30.250                                                  
G11  21447707.469   112708458.857          44.500    21447709.270    87824781.862          28.750  
G17  22476035.430   118112362.072          46.250    22476038.344    92035606.621          31.750  
G18  22665918.922   119110203.972          41.750    22665921.691    92813144.901          22.750  
G19  24326455.227   127836403.280          36.000    24326456.223    99612772.305          19.250  
G22  21145393.531   111119787.529          43.000    21145393.668    86586845.415          30.250  
G28  20755145.328   109069022.665          43.000    20755147.535    84988858.068          30.000  
R02  23138156.563   123469609.854          38.250    23138162.625    96031933.231          39.750  
R03  20422603.906   109323802.777          45.500    20422610.023    85029622.088          42.250  
R04  21302171.375   114072160.490          41.750    21302177.070    88722793.060          43.250  
R09  21565799.469   115160162.066          42.250    21565802.617    89569014.539          43.250  
R16  22655726.055   121022814.999          34.750    22655730.176    94128876.656          35.750  
R19  20659631.359   110515083.457          42.500    20659634.480    85956180.086          41.500  
E04  25935946.250   136294318.653          44.250    25935948.293   103105774.028          45.500  
E11  23026881.930   121007080.983          44.250    23026880.316    91541070.887          43.500  
E12  22767560.961   119644338.824          40.750    22767560.262    90510164.513          45.000  
E19  25650709.789   134795345.444          39.500    25650711.277   101971842.158          36.750  
E24  23699943.555   124544044.726          45.250    23699957.582    94216812.197          44.750  
E25  24677449.234   129680868.161          45.500    24677451.656    98102745.131          44.500  
J01  36900614.313   193914032.839          42.750    36900615.918   151101844.966          37.500    36900618.285   144805934.765          38.000  
C01  37057414.516   149214886.630          38.000    37057423.063   192967727.479          39.500  
C03  37851429.051   152411850.9801         26.500    37851438.078   197102404.950          36.000  
C04  37398434.816   150587830.9081         28.500    37398442.531   194743491.443          37.000  
C07  37355455.313   150414974.221          37.500    37355463.641   194519703.601          40.250  
C08  36730846.102   147899895.495          40.750    36730854.914   191267198.714          41.750  
C10  37123418.051   149480459.282          37.500    37123423.398   193311399.893          40.500  
C13  38350822.871   154422877.854          33.500    38350824.250   199702805.513          40.250  
C17  36941174.172   148746631.7741         27.500    36941180.383   192362428.004          39.000  
> 2018 08 30 02 03 55.0000000  0 30                     
G01  21174124.266   111270780.960          42.500    21174131.945    86704527.740          30.750  
G03  20388638.023   107143012.230          47.250    20388643.523    83488087.521          34.500  
G06  24374376.055   128088239.510          28.500                                                  
G11  21448142.164   112710741.414          45.000    21448143.652    87826560.484          28.750  
G17  22475644.727   118110314.217          46.500    22475648.555    92034010.892          31.500  
G18  22666520.883   119113369.140          41.250    22666523.906    92815611.273          22.500  
G19  24325925.008   127833618.937          36.500    24325926.344    99610602.674          19.000  
G22  21145658.859   111121184.994          43.500    21145659.719    86587934.352          31.250  
G28  20755208.609   109069357.700          43.500    20755211.176    84989119.143          30.000  
R02  23138815.805   123473131.802          38.500    23138822.977    96034672.528          39.500  
R03  20422645.773   109324023.814          44.500    20422651.023    85029794.011          42.250  
R04  21301534.391   114068749.068          42.000    21301539.938    88720139.735          43.000  
R09  21566003.914   115161256.429          42.500    21566007.891    89569865.706          43.500  
R16  22656491.922   121026911.104          35.500    22656496.930    94132062.526          35.250  
R19  20659443.500   110514083.239          42.750    20659447.543    85955402.148          41.500  
E04  25935515.016   136292052.515          44.250    25935517.047   103104059.717          45.750  
E11  23026764.289   121006463.515          44.000    23026762.801    91540603.772          43.500  
E12  22767789.977   119645544.659          41.000    22767789.723    90511076.722          45.250  
E19  25650702.789   134795307.622          39.250    25650704.082   101971813.556          37.000  
E24  23700503.930   124546987.940          45.000    23700517.656    94219038.718          45.000  
E25  24677605.758   129681691.856          45.500    24677608.371    98103368.250          44.500  
J01  36900685.648   193914408.408          43.000    36900687.418   151102137.620          36.750    36900689.738   144806215.227          38.500  
C01  37057479.781   149215150.287          38.000    37057488.805   192968068.433          39.500  
C03  37851490.910   152412100.0601         25.750    37851500.078   197102727.014          36.250  
C04  37398495.504   150588075.2731         29.500    37398503.508   194743808.349          37.000  
C07  37355815.809   150416425.124          37.500    37355823.969   194521579.935          40.000  
C08  36730898.855   147900108.387          41.000    36730907.617   191267474.022          41.250  
C10  37123696.152   149481578.443          38.000    37123701.727   193312847.206          40.750  
C13  38350843.754   154422962.052          34.000    38350844.625   199702914.406          40.500  
C17  36941236.773   148746883.8431         27.250    36941243.586   192362755.549          38.750  
> 2018 08 30 02 03 56.0000000  0 30                     
G01  21174550.773   111273020.283          42.500    21174558.039    86706272.657          30.250  
G03  20388555.719   107142580.317          47.500    20388561.527    83487750.954          34.500  
G06  24373935.125   128085923.762          28.250                                                  
G11  21448576.156   112713024.061          45.000    21448578.047    87828339.152          28.000  
G17  22475255.617   118108266.239          46.500    22475258.801    92032415.072          32.000  
G18  22667124.039   119116534.204          41.500    22667126.246    92818077.551          22.000  
G19  24325394.039   127830834.318          36.500    24325396.516    99608432.845          19.000  
G22  21145924.891   111122582.848          43.500    21145925.590    86589023.580          29.500  
G28  20755272.523   109069693.153          43.750    20755275.016    84989380.529          30.000  
R02  23139476.508   123476654.052          38.500    23139482.645    96037412.050          39.500  
R03  20422687.578   109324245.529          45.000    20422692.465    85029966.462          42.500  
R04  21300898.031   114065337.849          42.000    21300902.715    88717486.561          43.000  
R09  21566209.383   115162351.437          42.500    21566213.082    89570717.379          43.500  
R16  22657258.586   121031007.255          35.000    22657264.238    94135248.417          35.500  
R19  20659256.383   110513082.983          43.500    20659260.508    85954624.174          41.250  
E04  25935083.648   136289786.355          44.250    25935085.801   103102345.381          45.750  
E11  23026646.781   121005845.932          44.250    23026645.250    91540136.580          43.750  
E12  22768019.406   119646750.362          41.500    22768019.160    90511988.827          45.500  
E19  25650695.688   134795270.062          39.250    25650696.930   101971785.137          37.000  
E24  23701063.969   124549931.174          45.250    23701077.727    94221265.251          45.000  
E25  24677763.023   129682515.829          45.000    24677765.148    98103991.578          44.750  
J01  36900757.344   193914783.861          42.750    36900758.395   151102430.179          37.000    36900761.133   144806495.594          37.750  
C01  37057545.035   149215413.783          38.500    37057553.992   192968409.202          39.500  
C03  37851552.582   152412348.3881         26.000    37851561.875   197103048.822          36.500  
C04  37398556.266   150588319.9361         28.000    37398563.375   194744125.076          36.750  
C07  37356175.977   150417875.945          37.500    37356184.438   194523456.174          40.500  
C08  36730951.660   147900321.066          41.500    36730960.352   191267749.065          41.500  
C10  37123974.008   149482697.570          37.750    37123979.383   193314294.487          40.500  
C13  38350864.668   154423046.102          34.000    38350866.078   199703023.097          40.500  
C17  36941299.691   148747137.1871         25.500    36941306.414   192363082.870          39.000  
> 2018 08 30 02 03 57.0000000  0 30                     
G01  21174977.211   111275259.494          42.500    21174984.059    86708017.501          30.500  
G03  20388474.031   107142148.726          47.500    20388479.484    83487414.656          35.000  
G06  24373494.336   128083607.868          28.000                                                  
G11  21449009.898   112715306.612          45.250    21449012.398    87830117.777          29.000  
G17  22474865.516   118106218.022          46.500    22474869.004    92030819.055          31.500  
G18  22667725.766   119119699.040          41.750    22667728.313    92820543.639          22.250  
G19  24324865.289   127828049.407          36.500    24324866.625    99606262.781          20.000  
G22  21146191.391   111123980.939          44.250    21146191.645    86590113.010          30.750  
G28  20755336.320   109070028.905          44.000    20755339.043    84989642.162          30.250  
R02  23140136.406   123480176.523          38.000    23140142.547    96040151.749          39.750  
R03  20422728.469   109324467.811          45.500    20422733.844    85030139.346          42.500  
R04  21300260.523   114061926.758          42.500    21300265.875    88714833.499          43.500  
R09  21566415.617   115163446.934          42.250    21566418.449    89571569.428          43.750  
R16  22658026.000   121035103.259          34.750    22658031.297    94138434.198          35.750  
R19  20659069.695   110512082.557          43.000    20659073.652    85953846.072          41.500  
E04  25934652.281   136287520.014          44.500    25934654.563   103100630.903          45.500  
E11  23026529.367   121005228.093          44.000    23026527.691    91539669.184          43.500  
E12  22768248.891   119647955.837          41.500    22768248.574    90512900.756          45.750  
E19  25650688.602   134795232.658          39.250    25650689.836   101971756.846          37.250  
E24  23701624.023   124552874.290          45.000    23701637.816    94223491.703          45.250  
E25  24677919.805   129683339.963          45.000    24677921.988    98104615.030          45.000  
J01  36900828.359   193915159.091          43.250    36900829.848   151102722.565          37.500    36900832.492   144806775.798          38.000  
C01  37057610.352   149215677.051          38.750    37057619.344   192968749.662          39.500  
C03  37851614.504   152412597.7221         28.000    37851623.297   197103370.358          36.750  
C04  37398616.934   150588564.2211         29.000    37398624.906   194744441.487          36.750  
C07  37356536.461   150419326.637          37.500    37356544.859   194525332.231          40.500  
C08  36731004.578   147900533.499          41.250    36731013.273   191268023.789          41.500  
C10  37124251.992   149483816.564          38.000    37124257.758   193315741.594          40.750  
C13  38350885.840   154423129.904          34.250    38350887.313   199703131.460          41.000  
C17  36941362.348   148747389.4811         28.000    36941369.258   192363409.906          38.750  
> 2018 08 30 02 03 58.0000000  0 30                     
G01  21175403.328   111277498.645          42.500    21175410.164    86709762.283          31.000  
G03  20388392.008   107141717.560          47.500    20388397.449    83487078.672          35.000  
G06  24373054.125   128081291.829          27.500                                                  
G11  21449444.836   112717589.155          45.500    21449446.711    87831896.371          28.500  
G17  22474476.117   118104169.625          46.500    22474479.305    92029222.900          31.000  
G18  22668327.375   119122863.713          41.000    22668330.512    92823009.628          23.000  
G19  24324335.453   127825264.207          36.750    24324336.586    99604092.471          19.250  
G22  21146456.922   111125379.314          43.750    21146457.672    86591202.655          30.500  
G28  20755400.609   109070364.998          43.750    20755402.922    84989904.041          29.500  
R02  23140796.336   123483699.249          37.750    23140802.652    96042891.646          39.250  
R03  20422770.469   109324690.747          44.750    20422775.488    85030312.743          42.250  
R04  21299623.680   114058515.866          42.500    21299628.688    88712180.577          43.500  
R09  21566619.828   115164543.002          42.250    21566623.508    89572421.915          44.000  
R16  22658791.195   121039199.163          34.250    22658797.969    94141619.900          35.000  
R19  20658882.477   110511082.056          43.000    20658886.508    85953067.904          41.250  
E04  25934221.055   136285253.600          44.500    25934223.273   103098916.376          46.000  
E11  23026411.758   121004610.075          44.500    23026410.066    91539201.657          43.250  
E12  22768478.313   119649161.097          41.500    22768477.918    90513812.522          45.500  
E19  25650681.164   134795195.443          38.500    25650682.738   101971728.685          37.000  
E24  23702184.180   124555817.360          45.000    23702197.844    94225718.106          45.250  
E25  24678076.398   129684164.308          45.000    24678078.840    98105238.638          44.750  
J01  36900899.789   193915534.151          42.750    36900901.367   151103014.820          37.000    36900903.816   144807055.869          38.000  
C01  37057675.734   149215940.117          38.500    37057684.570   192969089.866          39.500  
C03  37851676.148   152412845.9371         26.500    37851684.742   197103691.647          36.000  
C04  37398677.762   150588809.1501         28.250    37398685.555   194744757.643          36.750  
C07  37356896.629   150420777.197          37.750    37356905.398   194527208.130          40.500  
C08  36731057.500   147900745.682          41.000    36731065.836   191268298.194          41.250  
C10  37124529.980   149484935.503          38.250    37124535.125   193317188.637          40.500  
C13  38350906.742   154423213.491          34.500    38350907.961   199703239.562          40.500  
C17  36941424.969   148747641.6301         27.500    36941432.000   192363736.691          39.000  
> 2018 08 30 02 03 59.0000000  0 30                     
G01  21175829.703   111279737.498          42.750    21175836.102    86711506.851          31.000  
G03  20388309.789   107141286.550          47.500    20388315.316    83486742.827          34.750  
G06  24372612.164   128078975.472          28.500                                                  
G11  21449879.031   112719871.460          45.250    21449881.105    87833674.793          28.500  
G17  22474086.273   118102120.833          46.750    22474089.375    92027626.440          31.500  
G18  22668929.734   119126027.992          40.750    22668932.660    92825475.282          22.750  
G19  24323805.742   127822478.525          36.750    24323806.520    99601921.810          18.250  
G22  21146724.016   111126777.771          44.250    21146723.727    86592292.360          30.000  
G28  20755464.563   109070701.227          43.500    20755467.012    84990166.039          29.250  
R02  23141456.586   123487222.073          37.750    23141462.660    96045631.621          39.250  
R03  20422812.313   109324914.102          45.500    20422817.480    85030486.462          42.750  
R04  21298986.617   114055104.922          42.500    21298991.625    88709527.617          44.000  
R09  21566824.914   115165639.375          42.500    21566829.105    89573274.653          43.750  
R16  22659557.727   121043294.792          34.500    22659564.563    94144805.381          35.500  
R19  20658695.570   110510081.189          43.000    20658699.164    85952289.452          41.000  
E04  25933789.617   136282986.855          44.500    25933791.918   103097201.600          45.750  
E11  23026294.031   121003991.641          44.500    23026292.383    91538733.813          43.250  
E12  22768707.523   119650365.972          41.750    22768707.191    90514724.006          45.500  
E19  25650674.008   134795158.183          38.750    25650675.645   101971700.497          37.000  
E24  23702744.375   124558760.156          44.500    23702757.844    94227944.315          45.750  
E25  24678233.664   129684988.671          44.750    24678235.723    98105862.265          44.750  
J01  36900971.469   193915908.808          43.250    36900972.762   151103306.760          37.250    36900975.109   144807335.648          38.250  
C01  37057740.715   149216202.809          38.500    37057749.930   192969429.587          39.750  
C03  37851737.918   152413094.6591         27.500    37851745.977   197104012.455          36.250  
C04  37398738.641   150589054.2851         28.250    37398746.516   194745073.332          37.000  
C07  37357256.801   150422227.483          37.500    37357265.406   194529083.663          40.750  
C08  36731110.102   147900957.471          41.000    36731118.367   191268572.087          41.500  
C10  37124807.699   149486054.204          38.250    37124812.820   193318635.355          40.250  
C13  38350927.520   154423296.714          34.500    38350928.422   199703347.175          40.500  
C17  36941487.684   148747894.1571         26.750    36941494.938   192364062.984          39.000  
> 2018 08 30 02 04 00.0000000  0 30                     
G01  21176255.133   111281975.995          42.750    21176261.996    86713251.128          29.750  
G03  20388228.227   107140855.628          47.500    20388233.313    83486407.043          35.000  
G06  24372172.203   128076658.677          29.000                                                  
G11  21450313.086   112722153.454          44.500    21450315.285    87835452.985          28.250  
G17  22473696.492   118100071.533          47.250    22473699.430    92026029.591          31.750  
G18  22669531.797   119129191.792          40.500    22669534.836    92827940.596          22.500  
G19  24323275.109   127819692.282          37.500    24323276.367    99599750.760          18.500  
G22  21146989.508   111128176.199          43.750    21146989.867    86593382.037          30.500  
G28  20755528.656   109071037.507          43.500    20755531.047    84990428.082          28.750  
R02  23142116.750   123490744.896          37.750    23142122.504    96048371.591          39.000  
R03  20422853.961   109325137.805          45.000    20422859.664    85030660.455          42.500  
R04  21298349.656   114051693.772          43.000    21298354.613    88706874.512          44.250  
R09  21567030.875   115166736.011          42.500    21567034.480    89574127.590          43.500  
R16  22660324.047   121047390.023          34.750    22660331.422    94147990.569          35.250  
R19  20658507.789   110509079.913          43.500    20658511.754    85951510.681          41.000  
E04  25933358.422   136280719.704          44.500    25933360.500   103095486.515          46.000  
E11  23026176.461   121003372.751          44.250    23026174.637    91538265.627          43.500  
E12  22768936.719   119651570.347          41.750    22768936.398    90515635.111          45.250  
E19  25650667.102   134795120.864          39.000    25650668.551   101971672.269          37.000  
E24  23703304.164   124561702.587          44.500    23703317.773    94230170.243          45.000  
E25  24678390.148   129685812.935          45.500    24678392.594    98106485.816          44.750  
J01  36901042.758   193916283.014          43.250    36901043.867   151103598.350          37.500    36901046.371   144807615.092          38.000  
C01  37057805.754   149216465.081          39.250    37057815.023   192969768.768          39.750  
C03  37851799.164   152413341.2711         27.500    37851807.570   197104332.695          36.250  
C04  37398799.121   150589297.8131         27.000    37398807.086   194745388.462          36.500  
C07  37357616.953   150423677.432          38.000    37357625.828   194530958.764          40.500  
C08  36731162.719   147901168.839          41.000    36731171.430   191268845.430          41.000  
C10  37125085.441   149487172.580          38.500    37125090.695   193320081.659          40.250  
C13  38350948.094   154423379.503          34.500    38350949.047   199703454.240          40.500  
C17  36941550.480   148748147.0111         26.500    36941556.898   192364388.729          38.750  
> 2018 08 30 02 04 01.0000000  0 30                     
G01  21176680.906   111284214.557          42.500    21176688.023    86714995.471          30.500  
G03  20388146.180   107140425.192          47.500    20388151.184    83486071.632          34.750  
G06  24371732.656   128074341.875          28.000                                                  
G11  21450747.313   112724435.498          44.500    21450749.617    87837231.192          28.250  
G17  22473306.609   118098022.146          46.500    22473309.539    92024432.656          31.750  
G18  22670133.594   119132355.509          39.750    22670136.969    92830405.835          22.500  
G19  24322744.430   127816905.855          37.500    24322746.195    99597579.513          18.250  
G22  21147255.758   111129575.028          43.500    21147256.250    86594472.040          31.250  
G28  20755592.695   109071374.233          44.250    20755595.195    84990690.468          29.500  
R02  23142777.414   123494268.088          38.000    23142782.938    96051111.853          39.250  
R03  20422895.188   109325362.218          44.500    20422901.656    85030834.993          43.000  
R04  21297713.336   114048282.837          43.000    21297718.000    88704221.563          43.750  
R09  21567234.914   115167833.294          42.000    21567239.715    89574981.038          43.000  
R16  22661092.461   121051485.288          34.250    22661097.840    94151175.765          35.250  
R19  20658321.250   110508078.563          43.250    20658324.207    85950731.849          40.500  
E04  25932927.031   136278452.537          44.500    25932929.066   103093771.421          45.500  
E11  23026058.617   121002753.725          44.250    23026056.852    91537797.341          43.500  
E12  22769165.547   119652774.608          41.500    22769165.566    90516546.126          45.500  
E19  25650659.930   134795083.775          38.750    25650661.480   101971644.202          36.750  
E24  23703864.039   124564645.047          44.000    23703877.695    94232396.196          45.000  
E25  24678547.141   129686637.525          45.250    24678549.520    98107109.615          44.000  
J01  36901113.367   193916657.144          42.500    36901115.164   151103889.882          38.000    36901117.578   144807894.479          38.000  
C01  37057870.918   149216727.221          38.500    37057880.313   192970107.770          39.500  
C03  37851860.574   152413588.5441         26.500    37851869.766   197104652.760          35.750  
C04  37398859.563   150589541.1881         29.250    37398866.797   194745703.437          36.750  
C07  37357977.277   150425127.335          37.750    37357986.117   194532833.807          40.500  
C08  36731215.109   147901380.005          41.000    36731223.852   191269118.519          40.750  
C10  37125363.285   149488290.939          38.000    37125368.328   193321527.944          40.500  
C13  38350968.750   154423462.129          34.500    38350969.547   199703561.091          40.000  
C17  36941612.875   148748398.2501         27.000    36941619.469   192364714.306          38.750  
> 2018 08 30 02 04 02.0000000  0 30                     
G01  21177106.867   111286452.553          42.250    21177113.758    86716739.360          30.500  
G03  20388064.109   107139994.666          47.500    20388069.348    83485736.161          34.500  
G06  24371291.891   128072024.463          28.250                                                  
G11  21451181.758   112726717.045          44.500    21451183.789    87839009.020          29.000  
G17  22472916.203   118095972.089          46.500    22472919.301    92022835.213          32.000  
G18  22670735.984   119135518.536          40.250    22670739.008    92832870.525          21.750  
G19  24322213.555   127814118.646          37.000    24322215.969    99595407.684          18.250  
G22  21147521.008   111130973.698          43.500    21147522.410    86595561.904          30.750  
G28  20755656.391   109071710.836          44.000    20755659.324    84990952.738          29.500  
R02  23143438.383   123497791.054          38.250    23143443.195    96053851.931          39.500  
R03  20422937.523   109325586.786          44.250    20422943.445    85031009.657          43.000  
R04  21297077.195   114044871.528          43.000    21297081.328    88701568.320          43.000  
R09  21567440.859   115168930.650          42.500    21567445.168    89575834.529          43.250  
R16  22661858.859   121055579.965          33.750    22661864.227    94154360.505          35.750  
R19  20658134.930   110507076.579          43.250    20658136.605    85949952.525          40.500  
E04  25932495.180   136276184.793          44.500    25932497.523   103092055.884          45.750  
E11  23025940.781   121002134.064          44.000    23025938.930    91537328.564          43.500  
E12  22769394.875   119653978.218          41.750    22769394.582    90517456.645          45.500  
E19  25650652.766   134795046.419          38.500    25650654.352   101971615.935          37.000  
E24  23704423.844   124567586.962          44.000    23704437.520    94234621.730          45.000  
E25  24678703.992   129687461.815          45.500    24678706.363    98107733.182          44.250  
J01  36901184.945   193917030.630          42.500    36901186.145   151104180.904          38.000    36901188.680   144808173.376          39.000  
C01  37057935.816   149216988.777          39.000    37057945.234   192970446.019          39.500  
C03  37851921.695   152413834.6531         27.250    37851931.344   197104972.095          35.750  
C04  37398919.996   150589784.5261         28.500    37398926.969   194746017.646          36.750  
C07  37358337.434   150426576.718          37.500    37358345.641   194534708.182          40.500  
C08  36731267.258   147901590.593          41.500    36731276.227   191269390.859          41.500  
C10  37125640.660   149489408.892          38.000    37125646.266   193322973.697          40.000  
C13  38350989.016   154423544.175          34.500    38350989.617   199703667.190          40.500  
C17  36941675.316   148748649.6741         27.500    36941682.344   192365039.136          38.750  
> 2018 08 30 02 04 03.0000000  0 30                     
G01  21177532.664   111288690.542          42.250    21177539.699    86718483.241          30.000  
G03  20387982.258   107139564.595          47.250    20387987.445    83485401.040          34.500  
G06  24370848.891   128069706.945          28.000                                                  
G11  21451616.023   112728998.641          44.500    21451618.020    87840786.897          29.000  
G17  22472526.266   118093921.907          46.750    22472529.156    92021237.675          31.500  
G18  22671337.836   119138681.463          40.000    22671340.926    92835335.146          22.250  
G19  24321683.336   127811331.215          37.250    24321685.504    99593235.634          19.000  
G22  21147788.008   111132372.644          43.250    21147788.813    86596651.987          30.250  
G28  20755720.273   109072047.785          43.500    20755723.473    84991215.306          29.500  
R02  23144099.180   123501314.295          37.750    23144103.445    96056592.228          39.500  
R03  20422979.531   109325811.979          44.500    20422985.445    85031184.806          42.750  
R04  21296438.680   114041460.444          42.500    21296443.684    88698915.259          43.250  
R09  21567646.891   115170028.568          42.250    21567650.762    89576688.471          43.500  
R16  22662625.039   121059674.620          34.500    22662630.711    94157545.241          35.000  
R19  20657945.469   110506074.513          42.500    20657949.484    85949173.136          40.750  
E04  25932063.703   136273916.987          44.250    25932065.988   103090340.302          45.500  
E11  23025822.711   121001514.255          44.250    23025821.000    91536859.679          43.000  
E12  22769623.773   119655181.695          41.500    22769623.617    90518367.066          45.750  
E19  25650645.945   134795009.289          38.500    25650647.305   101971587.843          37.250  
E24  23704983.469   124570528.885          44.000    23704997.355    94236847.277          44.750  
E25  24678861.203   129688286.392          45.500    24678863.273    98108356.973          44.750  
J01  36901255.539   193917403.944          42.500    36901257.395   151104471.802          37.500    36901259.773   144808452.151          38.750  
C01  37058001.176   149217250.203          38.500    37058010.000   192970784.101          39.500  
C03  37851983.121   152414081.9901         27.500    37851992.344   197105291.249          36.000  
C04  37398980.402   150590027.7561         28.000    37398987.836   194746331.695          37.000  
C07  37358697.020   150428026.061          38.000    37358705.578   194536582.496          40.000  
C08  36731319.453   147901800.978          40.750    36731328.234   191269662.923          41.500  
C10  37125918.410   149490526.765          38.000    37125924.211   193324419.354          40.250  
C13  38351009.320   154423626.025          34.500    38351009.922   199703773.042          40.500  
C17  36941737.602   148748900.4741         27.000    36941744.570   192365363.753          39.000  
> 2018 08 30 02 04 04.0000000  0 30                     
G01  21177958.328   111290928.218          42.000    21177965.523    86720226.877          30.500  
G03  20387900.570   107139134.650          47.500    20387905.668    83485066.023          34.750  
G06  24370407.609   128067389.136          26.750                                                  
G11  21452050.180   112731279.970          44.000    21452052.109    87842564.537          28.500  
G17  22472136.156   118091871.268          46.750    22472139.070    92019639.769          32.000  
G18  22671940.344   119141843.934          41.000    22671942.586    92837799.396          21.750  
G19  24321153.625   127808543.228          36.750    24321154.980    99591063.170          19.000  
G22  21148054.578   111133771.666          43.250    21148055.078    86597742.132          31.000  
G28  20755785.156   109072384.862          44.250    20755787.781    84991477.968          29.750  
R02  23144758.375   123504837.522          37.750    23144763.406    96059332.511          39.500  
R03  20423022.500   109326037.561          44.250    20423027.691    85031360.253          43.000  
R04  21295802.352   114038049.293          42.750    21295806.902    88696262.144          43.000  
R09  21567851.867   115171126.789          41.500    21567856.543    89577542.641          43.500  
R16  22663391.414   121063768.908          34.250    22663396.797    94160729.688          35.250  
R19  20657760.047   110505072.067          42.750    20657762.398    85948393.454          41.000  
E04  25931632.125   136271648.829          44.000    25931634.371   103088624.456          45.500  
E11  23025704.820   121000894.031          44.000    23025702.961    91536390.489          43.250  
E12  22769852.734   119656384.722          41.500    22769852.547    90519277.145          45.500  
E19  25650638.758   134794972.124          38.000    25650640.234   101971559.724          37.000  
E24  23705543.570   124573470.474          44.500    23705557.109    94239072.569          45.000  
E25  24679018.102   129689110.941          45.500    24679020.180    98108980.737          44.750  
J01  36901326.641   193917776.861          42.500    36901328.121   151104762.383          37.250    36901330.762   144808730.624          38.750  
C01  37058065.988   149217511.204          38.250    37058074.211   192971121.645          39.500  
C03  37852044.430   152414328.8561         25.250    37852053.531   197105609.859          35.750  
C04  37399040.621   150590270.2331         29.000    37399048.195   194746645.203          36.750  
C07  37359056.867   150429475.070          38.250    37359065.453   194538456.383          40.500  
C08  36731371.617   147902010.934          41.250    36731379.898   191269934.439          41.000  
C10  37126196.105   149491644.367          38.500    37126201.055   193325864.673          39.750  
C13  38351029.641   154423707.460          34.500    38351029.625   199703878.358          41.000  
C17  36941799.984   148749151.6601         27.500    36941806.258   192365687.877          39.000  
> 2018 08 30 02 04 05.0000000  0 30                     
G01  21178384.359   111293165.397          41.500    21178391.293    86721970.141          31.000  
G03  20387818.813   107138704.631          47.500    20387823.832    83484730.939          34.250  
G06  24369966.547   128065070.644          27.500                                                  
G11  21452484.102   112733560.809          44.250    21452486.129    87844341.821          29.000  
G17  22471745.273   118089820.004          46.750    22471748.719    92018041.385          31.250  
G18  22672541.406   119145005.769          41.250    22672544.281    92840263.171          22.250  
G19  24320622.969   127805754.570          37.500    24320624.188    99588890.191          19.000  
G22  21148319.766   111135170.525          43.250    21148321.340    86598832.158          30.750  
G28  20755849.133   109072721.836          44.250    20755851.945    84991740.547          29.000  
R02  23145417.359   123508360.522          37.750    23145423.859    96062072.621          39.000  
R03  20423064.180   109326263.336          44.500    20423069.621    85031535.855          42.500  
R04  21295165.391   114034637.844          43.000    21295169.695    88693608.798          42.500  
R09  21568057.375   115172225.131          41.000    21568062.121    89578396.902          42.500  
R16  22664158.656   121067862.697          34.500    22664163.586    94163913.751          34.750  
R19  20657571.734   110504069.011          42.500    20657574.996    85947613.312          40.750  
E04  25931200.063   136269380.130          44.000    25931202.656   103086908.201          45.500  
E11  23025586.680   121000273.090          44.500    23025584.824    91535920.753          43.000  
E12  22770081.641   119657587.109          41.500    22770081.355    90520186.746          45.000  
E19  25650631.891   134794934.728          38.250    25650633.117   101971531.439          36.750  
E24  23706103.117   124576411.558          44.500    23706116.793    94241297.479          45.000  
E25  24679174.344   129689935.234          45.500    24679177.043    98109604.304          44.500  
J01  36901397.430   193918149.158          43.000    36901399.102   151105052.493          37.000    36901401.637   144809008.643          38.500  
C01  37058130.648   149217771.679          38.250    37058139.734   192971458.493          39.500  
C03  37852105.449   152414574.5541         27.000    37852115.070   197105927.806          35.750  
C04  37399100.848   150590512.7421         28.750    37399107.922   194746958.010          37.000  
C07  37359416.547   150430923.644          37.500    37359425.250   194540329.710          40.000  
C08  36731423.789   147902220.327          41.000    36731431.430   191270205.243          40.750  
C10  37126473.637   149492761.548          38.250    37126479.156   193327309.428          40.500  
C13  38351049.746   154423788.350          33.500    38351050.219   199703982.966          40.750  
C17  36941862.184   148749402.1141         26.500    36941868.469   192366011.296          38.750  
> 2018 08 30 02 04 06.0000000  0 30                     
G01  21178810.539   111295402.707          41.250    21178816.977    86723713.494          30.250  
G03  20387736.805   107138275.260          47.500    20387742.055    83484396.369          33.750  
G06  24369525.266   128062499.2131         27.500                                                  
G11  21452918.258   112735841.859          43.750    21452920.113    87846119.259          28.250  
G17  22471355.188   118087768.716          46.000    22471358.242    92016442.975          31.500  
G18  22673142.914   119148167.628          41.500    22673146.012    92842726.932          22.750  
G19  24320092.281   127802965.803          37.500    24320093.391    99586717.150          18.500  
G22  21148586.516   111136569.914          43.000    21148587.504    86599922.594          30.000  
G28  20755913.000   109073059.367          44.500    20755916.055    84992003.558          29.000  
R02  23146078.352   123511884.072          37.750    23146083.965    96064813.160          39.750  
R03  20423106.648   109326489.946          44.500    20423111.984    85031712.114          42.500  
R04  21294527.633   114031226.766          43.000    21294532.406    88690955.729          42.750  
R09  21568263.672   115173324.232          41.000    21568268.133    89579251.759          42.750  
R16  22664924.422   121071956.630          34.750    22664929.867    94167097.921          34.500  
R19  20657383.992   110503066.065          42.250    20657386.996    85946833.243          40.500  
E04  25930768.789   136267111.521          44.250    25930770.934   103085192.017          45.500  
E11  23025468.367   120999652.181          44.500    23025466.664    91535451.037          43.250  
E12  22770310.492   119658789.515          41.500    22770310.164    90521096.351          44.500  
E19  25650624.672   134794897.726          37.750    25650626.051   101971503.452          37.000  
E24  23706662.742   124579352.833          44.500    23706676.480    94243522.533          45.000  
E25  24679331.625   129690759.979          45.500    24679333.973    98110228.226          44.500  
J01  36901468.563   193918521.491          42.750    36901469.684   151105342.619          37.250    36901472.484   144809286.680          38.000  
C01  37058195.336   149218032.122          37.750    37058204.438   192971795.299          39.500  
C03  37852166.480   152414820.3011         27.000    37852175.688   197106245.665          36.000  
C04  37399160.855   150590754.3661         29.500    37399167.719   194747270.771          37.000  
C07  37359776.309   150432372.240          38.000    37359784.633   194542203.061          40.000  
C08  36731475.660   147902429.671          41.000    36731483.617   191270475.965          41.250  
C10  37126750.992   149493878.838          38.000    37126756.641   193328754.331          40.500  
C13  38351069.773   154423869.232          33.500    38351070.625   199704087.553          40.000  
C17  36941924.125   148749651.5241         25.500    36941930.969   192366334.649          39.000  
> 2018 08 30 02 04 07.0000000  0 30                     
G01  21179236.023   111297639.795          41.500    21179242.840    86725456.675          29.750  
G03  20387655.188   107137846.083          47.500    20387660.426    83484061.949          34.500  
G06  24369084.063   128060433.7721         26.500                                                  
G11  21453352.563   112738122.699          43.750    21453353.930    87847896.550          29.000  
G17  22470965.094   118085717.171          46.000    22470967.859    92014844.385          31.000  
G18  22673745.070   119151329.136          41.500    22673747.750    92845190.460          22.000  
G19  24319560.961   127800176.637          37.750    24319562.684    99584543.782          20.500  
G22  21148852.602   111137969.370          42.750    21148853.762    86601013.081          30.500  
G28  20755977.531   109073397.063          43.500    20755980.059    84992266.704          29.500  
R02  23146739.711   123515407.707          38.250    23146744.676    96067553.761          39.500  
R03  20423149.672   109326717.011          44.500    20423154.496    85031888.723          42.250  
R04  21293891.109   114027815.644          43.000    21293895.625    88688302.636          42.500  
R09  21568469.609   115174423.766          41.250    21568474.242    89580106.965          42.500  
R16  22665690.648   121076050.318          35.000    22665696.566    94170281.896          34.500  
R19  20657197.133   110502062.808          42.500    20657199.688    85946052.937          40.000  
E04  25930337.008   136264842.648          43.250    25930339.195   103083475.634          44.500  
E11  23025350.461   120999031.005          44.250    23025348.453    91534981.132          43.250  
E12  22770539.383   119659991.558          41.000    22770538.926    90522005.697          44.750  
E19  25650617.570   134794860.741          38.000    25650619.020   101971475.475          37.250  
E24  23707222.688   124582293.820          44.250    23707236.145    94245747.374          44.500  
E25  24679488.922   129691584.733          45.000    24679490.922    98110852.149          44.000  
J01  36901539.539   193918893.475          43.000    36901540.750   151105632.480          37.000    36901543.238   144809564.470          38.000  
C01  37058259.824   149218292.236          37.750    37058268.641   192972131.681          39.500  
C03  37852227.469   152415065.8781         26.750    37852236.461   197106563.143          36.000  
C04  37399220.781   150590995.6631         29.250    37399228.672   194747583.080          37.000  
C07  37360135.941   150433820.610          37.500    37360143.898   194544076.131          39.500  
C08  36731527.492   147902638.645          40.500    36731536.055   191270746.203          41.250  
C10  37127028.520   149494995.914          38.000    37127034.117   193330198.951          40.250  
C13  38351089.762   154423949.742          34.000    38351090.516   199704191.669          39.750  
C17  36941986.152   148749901.2811         26.500    36941993.023   192366657.587          38.750  
> 2018 08 30 02 04 08.0000000  0 30                     
G01  21179661.508   111299876.792          41.000    21179668.566    86727199.781          29.250  
G03  20387573.469   107137417.248          47.000    20387578.934    83483727.782          33.750  
G06  24368643.727   128058114.904          26.500                                                  
G11  21453786.258   112740403.477          44.000    21453787.992    87849673.766          27.750  
G17  22470574.039   118083665.319          46.000    22470577.250    92013245.528          31.500  
G18  22674346.914   119154490.443          41.500    22674349.449    92847653.826          22.500  
G19  24319030.344   127797387.121          38.000    24319031.797    99582370.140          20.000  
G22  21149119.070   111139369.108          43.250    21149120.188    86602103.784          30.500  
G28  20756042.063   109073735.065          43.500    20756044.383    84992530.072          29.000  
R02  23147399.953   123518931.584          37.500    23147404.934    96070294.553          39.500  
R03  20423191.492   109326944.648          44.750    20423196.879    85032065.771          42.500  
R04  21293253.719   114024404.613          42.500    21293258.813    88685649.612          42.750  
R09  21568675.922   115175523.761          41.250    21568679.969    89580962.507          42.750  
R16  22666456.086   121080143.876          34.500    22666462.582    94173465.773          34.750  
R19  20657008.070   110501059.400          42.500    20657012.324    85945272.511          40.250  
E04  25929905.188   136262573.611          44.000    25929907.418   103081759.117          44.750  
E11  23025232.336   120998409.520          44.000    23025230.184    91534510.976          43.250  
E12  22770768.125   119661193.360          40.000    22770767.629    90522914.848          45.000  
E19  25650610.727   134794823.897          38.250    25650611.996   101971447.601          37.500  
E24  23707782.375   124585234.725          44.500    23707795.781    94247972.145          44.500  
E25  24679645.539   129692409.676          45.500    24679647.918    98111476.209          44.250  
J01  36901610.016   193919265.253          42.750    36901611.250   151105922.170          37.000    36901613.988   144809842.088          38.250  
C01  37058324.336   149218552.099          38.000    37058333.406   192972467.745          39.250  
C03  37852288.504   152415311.6411         27.250    37852297.656   197106880.256          35.750  
C04  37399280.891   150591237.7011         29.250    37399287.695   194747895.133          37.000  
C07  37360495.762   150435268.799          37.750    37360504.086   194545948.961          40.000  
C08  36731579.500   147902847.330          41.000    36731587.703   191271016.093          41.000  
C10  37127305.930   149496112.823          38.500    37127311.109   193331643.368          39.750  
C13  38351109.547   154424030.021          34.250    38351110.422   199704295.502          40.250  
C17  36942048.102   148750150.7281         25.500    36942054.789   192366980.219          38.750  
> 2018 08 30 02 04 09.0000000  0 30                     
G01  21180087.625   111302113.491          42.000    21180094.172    86728942.664          29.750  
G03  20387492.445   107136988.644          46.750    20387497.398    83483393.808          34.500  
G06  24368200.398   128055795.893          24.500                                                  
G11  21454220.445   112742684.067          44.000    21454221.965    87851450.855          28.500  
G17  22470183.891   118081613.114          46.000    22470186.879    92011646.408          31.500  
G18  22674947.766   119157651.385          41.250    22674950.891    92850116.902          22.000  
G19  24318499.172   127794597.118          38.250    24318500.922    99580196.091          18.500  
G22  21149385.383   111140768.950          43.000    21149386.820    86603194.569          30.500  
G28  20756106.328   109074073.267          43.500    20756108.680    84992793.605          28.750  
R02  23148059.344   123522455.579          37.500    23148065.133    96073035.439          39.750  
R03  20423235.117   109327172.749          44.500    20423239.559    85032243.178          43.000  
R04  21292617.102   114020993.550          42.750    21292622.027    88682996.571          42.750  
R09  21568883.070   115176624.143          41.500    21568885.879    89581818.353          42.750  
R16  22667223.250   121084237.134          34.250    22667228.809    94176649.406          34.500  
R19  20656821.008   110500055.681          42.750    20656824.465    85944491.839          40.000  
E04  25929473.227   136260304.312          43.500    25929475.590   103080042.406          44.500  
E11  23025113.805   120997787.705          44.000    23025111.840    91534040.576          43.250  
E12  22770996.609   119662394.815          40.750    22770996.254    90523823.740          45.000  
E19  25650603.602   134794787.074          38.250    25650604.973   101971419.748          37.250  
E24  23708341.766   124588175.401          44.250    23708355.355    94250196.746          44.750  
E25  24679802.688   129693234.660          45.750    24679804.898    98112100.305          44.000  
J01  36901680.750   193919636.675          43.500    36901681.992   151106211.592          37.500    36901684.648   144810119.445          38.250  
C01  37058388.789   149218811.640          37.500    37058397.945   192972803.397          39.500  
C03  37852349.328   152415556.5541         27.750    37852358.914   197107196.975          35.500  
C04  37399340.875   150591479.2321         28.000    37399347.406   194748206.703          36.750  
C07  37360855.262   150436716.745          37.750    37360864.266   194547821.481          39.500  
C08  36731631.090   147903055.655          41.000    36731639.195   191271285.503          41.250  
C10  37127583.324   149497229.563          38.250    37127588.492   193333087.566          40.500  
C13  38351129.145   154424109.942          34.750    38351130.438   199704398.852          40.250  
C17  36942110.090   148750400.3281         27.000    36942116.531   192367302.413          39.000  
> 2018 08 30 02 04 10.0000000  0 30                     
G01  21180512.516   111304350.118          41.500    21180519.730    86730685.496          29.750  
G03  20387410.625   107136560.323          46.500    20387415.914    83483060.059          34.500  
G06  24367759.063   128053476.546          26.750                                                  
G11  21454653.680   112744964.563          44.500    21454656.129    87853227.862          28.000  
G17  22469793.156   118079560.653          46.500    22469796.270    92010047.098          32.250  
G18  22675549.141   119160812.096          41.500    22675552.359    92852579.785          22.000  
G19  24317967.953   127791806.791          38.000    24317969.906    99578021.811          19.250  
G22  21149651.930   111142169.010          42.500    21149653.141    86604285.520          30.500  
G28  20756170.547   109074411.685          43.250    20756173.039    84993057.310          28.750  
R02  23148721.383   123525979.775          37.750    23148725.844    96075776.482          39.500  
R03  20423277.680   109327401.393          45.000    20423282.648    85032421.023          42.500  
R04  21291979.656   114017582.570          42.500    21291985.105    88680343.598          42.500  
R09  21569087.969   115177724.966          41.500    21569092.113    89582674.552          42.000  
R16  22667989.500   121088330.236          34.250    22667995.301    94179832.939          34.000  
R19  20656634.313   110499051.797          42.500    20656636.387    85943711.048          39.500  
E04  25929041.508   136258034.804          43.250    25929043.719   103078325.545          43.500  
E11  23024995.406   120997165.611          43.750    23024993.469    91533569.976          42.500  
E12  22771225.180   119663595.982          40.750    22771224.832    90524732.413          44.000  
E19  25650596.367   134794750.384          38.500    25650597.992   101971391.993          37.000  
E24  23708901.422   124591115.916          43.750    23708914.918    94252421.230          43.500  
E25  24679959.672   129694059.771          45.000    24679961.906    98112724.509          43.500  
J01  36901750.953   193920007.844          43.000    36901752.730   151106500.819          36.750    36901755.277   144810396.624          37.750  
C01  37058453.176   149219070.937          37.750    37058461.984   192973138.716          39.500  
C03  37852410.102   152415801.2651         27.750    37852419.438   197107513.334          36.000  
C04  37399400.477   150591719.2241         28.750    37399406.977   194748517.961          37.000  
C07  37361214.785   150438164.540          37.250    37361223.523   194549693.790          40.000  
C08  36731682.789   147903263.686          40.250    36731690.906   191271554.526          41.000  
C10  37127860.512   149498346.154          37.750    37127866.039   193334531.559          40.250  
C13  38351148.879   154424189.581          35.000    38351150.148   199704501.836          39.750  
C17  36942171.805   148750648.8291         27.250    36942177.625   192367624.243          39.000  
> 2018 08 30 02 04 11.0000000  0 30                     
G01  21180938.516   111306586.386          41.000    21180945.199    86732428.037          30.500  
G03  20387329.414   107136132.159          46.500    20387334.477    83482726.427          34.750  
G06  24367317.422   128050896.9141         26.500                                                  
G11  21455087.664   112747244.782          44.500    21455090.027    87855004.660          28.500  
G17  22469402.711   118077507.741          46.500    22469405.625    92008447.429          30.750  
G18  22676150.969   119163972.357          41.500    22676153.645    92855042.337          22.250  
G19  24317437.664   127789015.942          38.750    24317438.625    99575847.126          19.250  
G22  21149918.695   111143569.106          42.500    21149919.453    86605376.507          30.250  
G28  20756234.773   109074750.215          43.500    20756237.504    84993321.097          29.250  
R02  23149380.023   123529503.890          37.500    23149386.668    96078517.466          39.500  
R03  20423320.805   109327630.431          45.000    20423325.715    85032599.167          43.250  
R04  21291342.813   114014171.494          42.750    21291347.699    88677690.536          43.500  
R09  21569294.375   115178826.100          41.500    21569298.664    89583530.987          42.500  
R16  22668757.109   121092423.002          34.000    22668760.988    94183016.200          34.500  
R19  20656446.344   110498047.496          42.500    20656448.648    85942929.921          40.000  
E04  25928609.359   136255764.951          44.000    25928611.777   103076608.413          44.000  
E11  23024877.031   120996543.061          43.750    23024875.008    91533099.020          43.250  
E12  22771453.805   119664796.709          40.750    22771453.324    90525640.759          44.250  
E19  25650589.508   134794713.620          38.500    25650590.996   101971364.191          37.000  
E24  23709461.039   124594056.136          44.000    23709474.410    94254645.482          44.250  
E25  24680116.563   129694884.849          45.000    24680118.914    98113348.668          43.750  
J01  36901821.805   193920378.594          43.500    36901823.375   151106789.712          36.750    36901825.871   144810673.482          38.000  
C01  37058517.277   149219329.814          38.500    37058526.648   192973473.504          39.500  
C03  37852470.758   152416045.5021         27.750    37852479.531   197107829.210          36.000  
C04  37399460.027   150591959.0071         28.750    37399467.297   194748828.690          36.750  
C07  37361574.344   150439612.021          37.500    37361582.977   194551565.703          40.000  
C08  36731734.305   147903471.315          40.750    36731742.523   191271823.036          41.500  
C10  37128137.828   149499462.457          38.000    37128142.563   193335975.191          40.500  
C13  38351168.941   154424268.795          34.750    38351169.883   199704604.276          39.500  
C17  36942233.504   148750897.2651         25.500    36942240.102   192367945.602          38.750  
> 2018 08 30 02 04 12.0000000  0 30                     
G01  21181363.258   111308822.341          41.500    21181370.641    86734170.331          30.000  
G03  20387247.578   107135704.114          47.000    20387253.031    83482392.878          34.250  
G06  24366874.922   128048836.8601         26.750                                                  
G11  21455521.758   112749524.701          44.250    21455523.887    87856781.211          28.750  
G17  22469011.383   118075454.369          46.250    22469014.863    92006847.393          30.500  
G18  22676751.102   119167132.159          41.250    22676754.840    92857504.504          22.750  
G19  24316905.531   127786224.516          38.500    24316907.316    99573671.989          19.500  
G22  21150184.797   111144969.210          42.500    21150185.941    86606467.486          29.500  
G28  20756299.438   109075088.805          43.500    20756302.035    84993584.927          29.500  
R02  23150041.383   123533027.999          37.750    23150046.664    96081258.431          40.000  
R03  20423363.031   109327859.843          44.500    20423368.656    85032777.594          44.000  
R04  21290705.609   114010760.311          42.750    21290710.805    88675037.392          43.500  
R09  21569500.695   115179927.503          42.000    21569504.793    89584387.632          42.750  
R16  22669522.133   121096515.407          34.000    22669527.383    94186199.173          34.500  
R19  20656257.734   110497042.792          42.500    20656260.656    85942148.475          40.000  
E04  25928177.477   136253494.705          44.000    25928179.746   103074890.979          44.250  
E11  23024758.477   120995920.073          44.000    23024756.441    91532627.727          43.750  
E12  22771682.359   119665996.978          41.000    22771681.727    90526548.745          45.000  
E19  25650582.281   134794676.748          38.500    25650583.969   101971336.289          36.750  
E24  23710020.305   124596996.018          44.500    23710033.832    94256869.476          44.500  
E25  24680273.805   129695709.865          45.000    24680275.914    98113972.783          44.000  
J01  36901892.102   193920748.878          43.000    36901893.645   151107078.234          37.000    36901896.363   144810949.985          37.750  
C01  37058581.453   149219588.276          38.000    37058591.023   192973807.756          39.500  
C03  37852531.324   152416289.3761         25.500    37852540.227   197108144.536          35.750  
C04  37399519.645   150592199.0641         28.750    37399526.492   194749138.902          37.000  
C07  37361933.633   150441059.146          37.500    37361941.805   194553437.163          40.500  
C08  36731785.695   147903678.490          41.000    36731794.328   191272090.964          41.250  
C10  37128414.777   149500578.478          38.500    37128419.766   193337418.461          39.750  
C13  38351188.371   154424347.621          34.750    38351189.555   199704706.217          39.750  
C17  36942295.047   148751145.0741         27.000    36942301.586   192368266.418          38.500  
> 2018 08 30 02 04 13.0000000  0 30                     
G01  21181789.086   111311058.035          41.500    21181795.980    86735912.439          29.750  
G03  20387166.070   107135276.270          46.750    20387171.559    83482059.493          34.250  
G06  24366435.094   128046516.496          26.750                                                  
G11  21455955.734   112751804.394          43.750    21455957.777    87858557.603          29.000  
G17  22468620.836   118073400.611          46.500    22468624.168    92005247.070          31.000  
G18  22677352.844   119170291.583          41.000    22677356.043    92859966.395          21.250  
G19  24316374.914   127783432.634          39.000    24316376.039    99571496.512          19.500  
G22  21150450.828   111146369.396          42.750    21150452.559    86607558.555          30.000  
G28  20756364.211   109075427.559          43.250    20756366.406    84993848.899          29.000  
R02  23150702.094   123536552.176          38.250    23150707.117    96083999.457          39.500  
R03  20423405.688   109328089.648          44.500    20423411.578    85032956.341          44.000  
R04  21290068.930   114007349.057          42.750    21290073.945    88672384.188          43.000  
R09  21569706.953   115181029.264          42.000    21569710.773    89585244.565          43.000  
R16  22670287.984   121100607.552          34.750    22670293.500    94189381.954          35.000  
R19  20656069.984   110496037.731          42.500    20656072.934    85941366.760          39.750  
E04  25927745.234   136251224.183          43.750    25927747.699   103073173.354          44.750  
E11  23024639.844   120995296.692          43.750    23024637.848    91532156.145          44.000  
E12  22771910.742   119667196.851          41.500    22771910.063    90527456.444          45.250  
E19  25650575.539   134794639.916          38.500    25650576.965   101971308.438          36.500  
E24  23710579.852   124599935.626          44.500    23710593.234    94259093.277          44.750  
E25  24680430.594   129696534.899          45.250    24680432.934    98114596.916          44.500  
J01  36901962.563   193921118.815          42.500    36901964.148   151107366.507          36.250    36901966.758   144811226.240          38.500  
C01  37058645.758   149219846.404          38.500    37058654.836   192974141.570          39.750  
C03  37852591.941   152416533.4561         27.000    37852600.867   197108459.421          36.000  
C04  37399578.961   150592437.9051         29.250    37399585.867   194749448.662          36.750  
C07  37362292.961   150442506.019          36.750    37362302.328   194555308.283          40.250  
C08  36731837.105   147903885.271          40.500    36731845.148   191272358.365          41.000  
C10  37128691.871   149501694.298          38.750    37128696.766   193338861.450          39.750  
C13  38351207.762   154424426.074          34.750    38351208.625   199704807.681          39.750  
C17  36942356.410   148751392.1571         26.750    36942363.219   192368586.764          38.750  
> 2018 08 30 02 04 14.0000000  0 30                     
G01  21182214.781   111313293.781          40.750    21182221.617    86737654.570          30.500  
G03  20387085.148   107134848.941          47.250    20387090.234    83481726.503          34.500  
G06  24365994.250   128044196.127          26.750                                                  
G11  21456389.648   112754084.216          43.500    21456391.641    87860334.085          27.500  
G17  22468230.063   118071346.788          46.750    22468233.348    92003646.680          31.000  
G18  22677954.195   119173450.948          40.750    22677957.121    92862428.222          21.750  
G19  24315843.414   127780640.600          38.500    24315844.617    99569320.872          19.250  
G22  21150717.500   111147770.043          43.250    21150718.980    86608649.966          30.000  
G28  20756428.195   109075766.789          43.000    20756430.871    84994113.229          29.500  
R02  23151362.219   123540076.715          37.750    23151367.742    96086740.754          39.250  
R03  20423448.828   109328320.237          44.500    20423454.609    85033135.685          43.250  
R04  21289431.453   114003938.098          42.500    21289436.793    88669731.221          43.000  
R09  21569913.516   115182131.724          42.250    21569917.184    89586102.029          42.500  
R16  22671054.789   121104699.718          34.500    22671059.609    94192564.742          35.000  
R19  20655882.461   110495032.663          42.000    20655885.051    85940585.037          39.500  
E04  25927313.367   136248953.696          43.750    25927315.621   103071455.741          44.750  
E11  23024521.047   120994673.245          43.750    23024519.195    91531684.512          43.500  
E12  22772139.117   119668396.674          41.000    22772138.379    90528364.098          44.750  
E19  25650568.219   134794603.388          38.250    25650569.984   101971280.803          37.000  
E24  23711139.336   124602875.322          44.500    23711152.625    94261317.129          45.000  
E25  24680587.695   129697360.265          45.000    24680589.984    98115221.295          44.000  
J01  36902033.273   193921488.686          42.250    36902034.492   151107654.711          36.500    36902037.141   144811502.440          38.250  
C01  37058709.777   149220104.423          38.500    37058718.859   192974475.247          39.500  
C03  37852652.598   152416777.6961         27.250    37852660.898   197108774.157          36.000  
C04  37399638.309   150592676.8751         28.750    37399645.758   194749758.295          36.750  
C07  37362652.000   150443952.882          37.250    37362660.516   194557179.399          40.000  
C08  36731888.543   147904091.920          41.000    36731896.500   191272625.620          41.000  
C10  37128968.988   149502810.120          38.500    37128973.992   193340304.461          39.750  
C13  38351227.250   154424504.424          34.500    38351228.000   199704909.004          39.750  
C17  36942418.000   148751640.1541         26.000    36942424.688   192368906.978          38.500  
> 2018 08 30 02 04 15.0000000  0 30                     
G01  21182640.469   111315528.903          40.500    21182646.895    86739396.217          30.000  
G03  20387003.922   107134421.432          46.750    20387008.656    83481393.379          34.250  
G06  24365552.406   128041875.095          26.500                                                  
G11  21456823.359   112756363.439          43.500    21456825.492    87862110.096          28.000  
G17  22467839.406   118069292.216          46.750    22467842.250    92002045.722          30.500  
G18  22678555.117   119176609.550          40.500    22678558.109    92864889.480          22.500  
G19  24315312.008   127777847.733          38.250    24315313.207    99567144.626          20.000  
G22  21150983.844   111149170.393          43.000    21150985.504    86609741.147          29.500  
G28  20756493.047   109076105.789          43.250    20756495.461    84994377.374          29.000  
R02  23152022.875   123543601.002          37.500    23152028.578    96089481.863          38.500  
R03  20423490.758   109328550.870          44.500    20423497.793    85033315.064          43.250  
R04  21288794.289   114000526.687          42.000    21288800.059    88667077.907          43.000  
R09  21570119.805   115183234.114          42.000    21570123.809    89586959.444          42.500  
R16  22671820.266   121108791.270          34.750    22671825.328    94195747.052          35.250  
R19  20655694.945   110494026.864          42.500    20655697.027    85939802.748          39.500  
E04  25926881.016   136246682.523          43.750    25926883.438   103069737.616          45.250  
E11  23024402.414   120994049.042          43.750    23024400.402    91531212.306          44.000  
E12  22772367.273   119669595.730          41.250    22772366.543    90529271.181          45.000  
E19  25650561.688   134794566.472          38.000    25650562.961   101971252.867          37.000  
E24  23711698.445   124605814.391          44.500    23711711.910    94263540.516          44.500  
E25  24680744.641   129698185.297          44.750    24680746.992    98115845.426          44.250  
J01  36902103.547   193921857.833          42.500    36902104.715   151107942.356          37.000    36902107.344   144811778.104          38.000  
C01  37058773.723   149220361.815          38.500    37058782.836   192974808.110          39.500  
C03  37852712.848   152417020.2981         27.250    37852721.141   197109088.081          36.000  
C04  37399697.676   150592915.9211         28.000    37399705.063   194750067.130          37.000  
C07  37363011.094   150445399.192          37.750    37363019.867   194559049.800          39.750  
C08  36731939.605   147904297.903          40.500    36731947.914   191272891.999          41.000  
C10  37129245.996   149503925.429          38.500    37129251.344   193341746.803          40.000  
C13  38351246.574   154424582.095          34.250    38351247.219   199705009.446          40.000  
C17  36942479.258   148751886.8151         27.250    36942486.039   192369226.397          39.000  
> 2018 08 30 02 04 16.0000000  0 30                     
G01  21183065.844   111317763.696          40.500    21183072.242    86741137.619          30.000  
G03  20386922.188   107133994.059          46.750    20386927.309    83481060.359          34.500  
G06  24365110.523   128039553.763          27.500                                                  
G11  21457256.813   112758642.384          44.250    21457259.117    87863885.888          29.000  
G17  22467448.508   118067237.202          47.250    22467451.199    92000444.406          31.000  
G18  22679156.250   119179767.705          40.250    22679159.004    92867350.386          22.250  
G19  24314780.531   127775054.308          38.750    24314781.672    99564967.927          20.000  
G22  21151251.234   111150570.765          42.750    21151251.895    86610832.343          30.000  
G28  20756557.688   109076444.878          43.000    20756560.051    84994641.600          29.500  
R02  23152682.328   123547125.280          37.250    23152688.965    96092222.961          39.500  
R03  20423534.719   109328781.846          45.500    20423541.332    85033494.713          43.500  
R04  21288156.430   113997115.200          42.250    21288162.762    88664424.531          43.500  
R09  21570325.703   115184336.789          42.500    21570330.563    89587817.093          42.750  
R16  22672586.125   121112882.402          35.000    22672591.035    94198929.036          34.750  
R19  20655506.398   110493020.686          42.500    20655508.879    85939020.162          39.500  
E04  25926448.898   136244410.966          43.500    25926451.152   103068019.198          45.250  
E11  23024283.656   120993424.382          43.750    23024281.523    91530739.754          44.000  
E12  22772595.695   119670794.322          41.250    22772594.625    90530177.905          44.750  
E19  25650554.516   134794529.500          38.250    25650555.926   101971224.894          37.500  
E24  23712257.938   124608753.125          44.500    23712271.125    94265763.648          44.500  
E25  24680901.711   129699010.264          44.750    24680903.969    98116469.506          44.750  
J01  36902173.320   193922226.538          42.500    36902174.813   151108229.664          37.000    36902177.598   144812053.438          38.000  
C01  37058837.313   149220618.801          38.500    37058846.023   192975140.453          39.500  
C03  37852772.879   152417262.0181         27.250    37852781.180   197109401.520          36.250  
C04  37399756.926   150593154.4971         28.000    37399763.867   194750375.398          37.000  
C07  37363370.309   150446845.166          37.500    37363378.648   194560919.760          39.750  
C08  36731990.586   147904503.467          40.750    36731999.031   191273157.843          41.500  
C10  37129522.992   149505040.480          38.000    37129527.336   193343188.802          39.250  
C13  38351265.680   154424659.401          34.000    38351266.938   199705109.413          40.250  
C17  36942540.480   148752133.3311         25.500    36942547.438   192369545.262          39.000  
> 2018 08 30 02 04 17.0000000  0 30                     
G01  21183491.422   111319998.950          41.000    21183497.387    86742879.376          30.500  
G03  20386841.516   107133567.594          47.250    20386846.250    83480728.055          34.250  
G06  24364669.242   128036980.6351         27.500                                                  
G11  21457690.984   112760921.841          43.750    21457692.824    87865662.098          29.000  
G17  22467057.758   118065182.515          46.750    22467060.176    91998843.359          31.250  
G18  22679757.500   119182926.208          40.000    22679760.184    92869811.532          22.500  
G19  24314249.398   127772261.150          38.500    24314250.285    99562791.473          20.500  
G22  21151517.281   111151971.956          43.250    21151518.641    86611924.186          30.750  
G28  20756622.422   109076784.831          43.500    20756624.559    84994906.504          30.000  
R02  23153343.484   123550650.430          37.250    23153349.258    96094964.750          39.250  
R03  20423578.266   109329013.970          44.750    20423584.543    85033675.249          43.750  
R04  21287520.320   113993704.368          41.500    21287525.949    88661771.662          43.250  
R09  21570533.133   115185440.554          42.500    21570537.148    89588675.577          42.750  
R16  22673352.609   121116974.028          35.250    22673357.230    94202111.410          34.500  
R19  20655318.773   110492014.902          42.500    20655321.520    85938237.888          39.500  
E04  25926016.609   136242139.851          43.500    25926018.977   103066301.116          45.000  
E11  23024164.797   120992800.051          44.000    23024162.730    91530267.453          43.500  
E12  22772823.672   119671993.263          41.000    22772822.793    90531084.894          44.750  
E19  25650547.703   134794493.235          38.500    25650549.027   101971197.463          37.250  
E24  23712817.180   124611692.318          45.000    23712830.438    94267987.128          44.750  
E25  24681059.031   129699835.976          45.000    24681061.117    98117094.153          44.750  
J01  36902243.555   193922595.599          42.500    36902245.113   151108517.246          36.750    36902247.844   144812329.037          38.500  
C01  37058901.398   149220875.988          38.500    37058910.141   192975473.051          39.750  
C03  37852832.992   152417504.0681         24.750    37852841.961   197109715.164          36.000  
C04  37399816.324   150593393.6681         28.000    37399823.195   194750683.955          37.000  
C07  37363729.535   150448291.420          37.500    37363737.945   194562790.089          39.750  
C08  36732041.711   147904709.222          40.500    36732050.164   191273423.926          41.500  
C10  37129799.898   149506155.804          37.750    37129804.938   193344631.164          40.000  
C13  38351285.152   154424736.842          34.250    38351286.031   199705209.581          40.500  
C17  36942601.676   148752379.7411         27.500    36942608.344   192369864.394          38.750  
> 2018 08 30 02 04 18.0000000  0 30                     
G01  21183916.852   111322233.967          41.000    21183922.742    86744620.940          30.750  
G03  20386760.086   107133141.322          47.500    20386765.082    83480395.892          34.000  
G06  24364226.422   128034653.6001         27.500                                                  
G11  21458124.031   112763201.069          44.250    21458126.445    87867438.120          29.000  
G17  22466666.086   118063127.458          46.750    22466669.090    91997242.015          31.250  
G18  22680358.219   119186084.326          39.750    22680361.199    92872272.410          22.500  
G19  24313717.484   127769467.504          39.000    24313718.773    99560614.593          20.000  
G22  21151784.406   111153373.236          42.500    21151785.219    86613016.082          30.000  
G28  20756686.773   109077124.948          43.250    20756689.277    84995171.526          29.500  
R02  23154004.297   123554175.579          37.500    23154009.980    96097706.530          39.000  
R03  20423621.648   109329246.540          45.250    20423628.145    85033856.142          43.750  
R04  21286882.578   113990293.538          41.500    21286888.797    88659118.802          43.500  
R09  21570739.398   115186544.698          42.000    21570743.305    89589534.359          42.500  
R16  22674118.188   121121065.349          35.250    22674122.676    94205293.543          34.500  
R19  20655129.883   110491008.835          42.500    20655133.156    85937455.391          39.500  
E04  25925584.438   136239868.433          43.500    25925586.738   103064582.808          45.000  
E11  23024045.852   120992175.361          44.250    23024043.848    91529794.882          43.000  
E12  22773051.461   119673191.812          41.250    22773050.863    90531991.587          44.500  
E19  25650540.742   134794456.979          38.500    25650542.121   101971170.035          37.750  
E24  23713376.141   124614631.273          44.750    23713389.695    94270210.424          45.250  
E25  24681215.945   129700661.714          44.500    24681218.246    98117718.815          44.500  
J01  36902314.031   193922964.274          43.000    36902315.191   151108804.519          37.000    36902317.992   144812604.348          38.500  
C01  37058965.199   149221132.824          38.250    37058974.281   192975805.201          39.750  
C03  37852893.066   152417745.9611         25.000    37852902.594   197110028.386          36.000  
C04  37399875.328   150593631.2521         29.500    37399882.930   194750992.045          37.000  
C07  37364088.520   150449737.429          37.750    37364097.039   194564660.098          39.500  
C08  36732092.516   147904914.557          41.000    36732100.758   191273689.472          41.000  
C10  37130076.711   149507270.937          38.000    37130082.008   193346073.277          40.000  
C13  38351304.449   154424813.939          34.500    38351305.453   199705309.279          40.500  
C17  36942663.066   148752626.9341         25.500    36942669.602   192370183.074          38.750  
> 2018 08 30 02 04 19.0000000  0 30                     
G01  21184341.422   111324468.691          40.750    21184348.035    86746362.289          31.000  
G03  20386678.734   107132715.236          47.250    20386683.957    83480063.885          34.000  
G06  24363784.813   128032589.7571         26.500                                                  
G11  21458558.063   112765480.057          43.500    21458560.070    87869213.956          28.750  
G17  22466274.945   118061071.985          46.500    22466277.863    91995640.350          32.000  
G18  22680958.648   119189242.074          39.750    22680962.125    92874732.997          22.500  
G19  24313185.133   127766673.361          38.500    24313187.156    99558437.329          20.000  
G22  21152051.203   111154774.591          42.000    21152051.898    86614108.060          30.250  
G28  20756751.711   109077465.170          43.250    20756754.063    84995436.647          29.500  
R02  23154665.102   123557700.704          37.500    23154670.887    96100448.301          39.250  
R03  20423665.148   109329479.520          45.250    20423671.641    85034037.349          43.000  
R04  21286246.945   113986882.631          42.000    21286251.801    88656465.873          43.000  
R09  21570945.766   115187649.186          42.000    21570950.219    89590393.409          42.000  
R16  22674883.984   121125156.393          35.500    22674888.168    94208475.473          34.500  
R19  20654941.109   110490002.403          42.500    20654945.297    85936672.618          39.250  
E04  25925152.047   136237596.684          44.000    25925154.430   103062864.242          44.000  
E11  23023926.734   120991550.254          44.500    23023924.871    91529321.990          42.500  
E12  22773279.734   119674389.969          40.750    22773278.852    90532897.987          44.000  
E19  25650533.648   134794420.694          38.500    25650535.203   101971142.588          36.750  
E24  23713935.445   124617569.913          44.500    23713948.883    94272433.489          44.000  
E25  24681373.414   129701487.444          44.500    24681375.359    98118343.478          43.750  
J01  36902383.867   193923332.579          42.750    36902385.020   151109091.516          37.000    36902388.160   144812879.385          38.250  
C01  37059028.969   149221389.310          38.250    37059038.094   192976136.883          39.500  
C03  37852953.301   152417988.5031         27.750    37852963.156   197110341.091          36.250  
C04  37399934.328   150593868.8211         28.250    37399941.445   194751299.652          36.500  
C07  37364447.563   150451183.173          37.500    37364456.789   194566529.761          39.750  
C08  36732143.285   147905119.524          40.750    36732152.570   191273954.539          41.000  
C10  37130353.605   149508385.836          37.500    37130359.133   193347515.080          40.000  
C13  38351323.340   154424890.681          34.500    38351324.852   199705408.524          39.750  
C17  36942724.426   148752874.0051         26.500    36942731.172   192370501.296          38.750  
> 2018 08 30 02 04 20.0000000  0 30                     
G01  21184767.328   111326703.230          41.500    21184773.371    86748103.479          30.500  
G03  20386597.719   107132289.460          47.000    20386602.980    83479732.098          34.250  
G06  24363342.719   128030267.850          26.500                                                  
G11  21458992.133   112767758.948          43.500    21458993.867    87870989.695          28.000  
G17  22465883.633   118059016.215          46.750    22465886.684    91994038.441          32.000  
G18  22681559.688   119192399.505          40.000    22681563.066    92877193.307          22.250  
G19  24312653.664   127763878.818          39.250    24312655.297    99556259.747          19.000  
G22  21152317.734   111156176.126          42.750    21152318.617    86615200.149          30.500  
G28  20756816.383   109077805.637          43.500    20756818.871    84995701.931          30.000  
R02  23155325.445   123561225.944          37.250    23155331.215    96103190.143          39.000  
R03  20423709.688   109329713.044          45.500    20423715.168    85034218.972          43.500  
R04  21285609.078   113983471.806          42.000    21285614.727    88653813.002          43.000  
R09  21571153.086   115188754.075          41.750    21571157.254    89591252.766          42.750  
R16  22675649.648   121129247.198          35.500    22675653.863    94211657.190          34.250  
R19  20654752.273   110488995.723          42.500    20654756.926    85935889.644          39.750  
E04  25924719.906   136235324.730          43.750    25924722.098   103061145.517          44.500  
E11  23023807.750   120990924.875          43.500    23023805.863    91528848.892          43.000  
E12  22773507.508   119675587.795          41.000    22773506.789    90533804.131          44.250  
E19  25650527.031   134794384.490          38.000    25650528.316   101971115.192          37.250  
E24  23714494.734   124620508.416          44.250    23714508.039    94274656.442          44.250  
E25  24681530.563   129702313.280          44.500    24681532.508    98118968.214          44.000  
J01  36902454.016   193923700.592          42.500    36902455.129   151109378.266          37.000    36902458.148   144813154.192          38.250  
C01  37059092.723   149221645.484          38.500    37059101.930   192976468.185          39.500  
C03  37853013.156   152418229.5141         26.250    37853022.336   197110653.479          36.500  
C04  37399993.410   150594106.7201         27.500    37400000.828   194751606.900          37.000  
C07  37364806.832   150452628.673          38.250    37364816.000   194568399.112          40.250  
C08  36732194.328   147905324.151          41.000    36732202.703   191274219.174          41.000  
C10  37130630.355   149509500.559          37.750    37130635.531   193348956.674          40.000  
C13  38351342.406   154424967.085          35.000    38351343.445   199705507.335          40.000  
C17  36942785.273   148753119.0111         25.750    36942792.063   192370819.124          38.500  
> 2018 08 30 02 04 21.0000000  0 30                     
G01  21185192.633   111328937.549          41.500    21185198.613    86749844.505          30.500  
G03  20386516.961   107131863.818          47.500    20386522.012    83479400.438          34.250  
G06  24362900.750   128027945.635          27.500                                                  
G11  21459426.422   112770037.591          43.500    21459427.570    87872765.260          29.000  
G17  22465492.586   118056960.046          47.250    22465495.371    91992436.233          31.500  
G18  22682160.172   119195556.590          40.500    22682163.980    92879653.375          22.000  
G19  24312122.508   127761083.840          38.750    24312123.441    99554081.841          19.500  
G22  21152584.844   111157577.749          42.750    21152585.328    86616292.327          30.500  
G28  20756881.539   109078146.275          42.750    20756883.727    84995967.370          28.500  
R02  23155985.484   123564751.310          37.000    23155992.176    96105932.106          39.000  
R03  20423752.953   109329947.000          44.250    20423758.750    85034400.944          43.750  
R04  21284972.320   113980060.850          42.000    21284977.598    88651160.046          43.250  
R09  21571359.453   115189859.346          41.000    21571364.656    89592112.429          42.750  
R16  22676416.391   121133337.751          34.750    22676419.844    94214838.732          34.250  
R19  20654565.328   110487988.660          42.250    20654568.609    85935106.372          39.500  
E04  25924287.430   136233052.478          44.250    25924289.703   103059426.574          44.500  
E11  23023688.563   120990299.039          44.000    23023686.781    91528375.452          42.750  
E12  22773735.531   119676785.263          41.000    22773734.668    90534710.013          44.500  
E19  25650520.266   134794348.279          38.250    25650521.441   101971087.802          37.000  
E24  23715053.867   124623446.667          44.250    23715067.172    94276879.213          44.500  
E25  24681687.844   129703139.119          45.000    24681689.672    98119592.955          44.250  
J01  36902523.875   193924068.247          43.000    36902524.918   151109664.746          36.750    36902528.086   144813428.736          38.000  
C01  37059156.172   149221901.323          38.250    37059164.594   192976799.039          39.250  
C03  37853073.137   152418471.0331         26.500    37853082.031   197110965.421          36.000  
C04  37400052.512   150594344.6991         28.750    37400059.242   194751913.701          37.000  
C07  37365165.672   150454073.912          38.000    37365174.086   194570268.135          39.500  
C08  36732245.141   147905528.424          40.750    36732253.484   191274483.339          41.500  
C10  37130907.152   149510614.994          38.000    37130912.406   193350397.885          40.250  
C13  38351361.141   154425043.140          34.500    38351361.742   199705605.692          40.250  
C17  36942846.238   148753364.4911         26.250    36942852.594   192371136.520          38.500  
> 2018 08 30 02 04 22.0000000  0 30                     
G01  21185616.773   111331171.699          41.250    21185623.633    86751585.403          30.500  
G03  20386436.063   107131438.567          47.500    20386441.105    83479069.080          34.750  
G06  24362459.000   128025623.321          27.500                                                  
G11  21459858.797   112772316.199          44.000    21459861.078    87874540.811          28.750  
G17  22465100.859   118054903.635          47.000    22465103.914    91990833.843          31.500  
G18  22682761.086   119198713.400          40.000    22682764.570    92882113.242          22.000  
G19  24311589.906   127758288.517          39.500    24311591.613    99551903.696          20.000  
G22  21152851.375   111158979.612          43.250    21152852.004    86617384.698          30.250  
G28  20756945.742   109078487.169          43.250    20756948.422    84996233.002          30.000  
R02  23156647.188   123568276.924          37.250    23156653.355    96108674.253          39.250  
R03  20423795.750   109330181.510          44.750    20423802.609    85034583.338          44.000  
R04  21284334.477   113976650.010          42.500    21284341.004    88648507.162          43.000  
R09  21571567.000   115190965.114          41.250    21571571.352    89592972.470          42.750  
R16  22677182.391   121137428.194          34.750    22677186.094    94218020.190          34.000  
R19  20654377.086   110486981.461          42.500    20654379.863    85934322.995          40.500  
E04  25923854.891   136230780.087          44.250    25923857.281   103057707.529          44.750  
E11  23023569.180   120989673.000          44.000    23023567.641    91527901.862          43.000  
E12  22773963.297   119677982.479          41.000    22773962.480    90535615.698          45.000  
E19  25650513.039   134794312.261          38.500    25650514.578   101971060.553          36.750  
E24  23715612.531   124626384.798          44.500    23715626.266    94279101.888          44.500  
E25  24681844.508   129703965.163          45.500    24681846.855    98120217.855          44.500  
J01  36902593.594   193924435.668          43.500    36902595.008   151109951.061          37.250    36902598.016   144813703.121          38.500  
C01  37059219.602   149222156.936          38.500    37059228.469   192977129.593          39.500  
C03  37853132.938   152418711.8261         25.500    37853142.367   197111277.059          36.500  
C04  37400111.313   150594581.4661         28.250    37400118.031   194752220.227          36.750  
C07  37365524.754   150455518.999          38.000    37365532.898   194572136.956          40.250  
C08  36732295.828   147905732.400          41.000    36732304.703   191274747.124          41.000  
C10  37131183.949   149511729.399          38.250    37131189.289   193351839.053          40.250  
C13  38351379.965   154425118.929          34.750    38351380.914   199705703.696          40.250  
C17  36942907.434   148753610.9021         25.000    36942914.063   192371453.617          38.750  
> 2018 08 30 02 04 23.0000000  0 30                     
G01  21186042.492   111333405.954          41.250    21186048.699    86753326.371          30.000  
G03  20386354.813   107131013.787          47.500    20386360.125    83478738.072          35.000  
G06  24362017.555   128023300.874          28.000                                                  
G11  21460292.680   112774594.861          43.750    21460294.820    87876316.382          28.750  
G17  22464709.664   118052847.199          46.750    22464712.637    91989231.425          31.250  
G18  22683362.359   119201870.190          39.750    22683365.375    92884573.083          22.250  
G19  24311058.172   127755493.024          39.750    24311059.684    99549725.403          20.000  
G22  21153118.656   111160381.913          43.000    21153118.910    86618477.386          31.000  
G28  20757011.516   109078828.581          43.250    20757013.480    84996499.041          29.500  
R02  23157308.188   123571802.932          38.500    23157313.633    96111416.698          39.500  
R03  20423841.000   109330416.775          45.000    20423846.629    85034766.321          44.500  
R04  21283699.336   113973239.395          42.750    21283704.098    88645854.465          43.250  
R09  21571774.266   115192071.525          41.500    21571778.371    89593833.005          42.500  
R16  22677947.477   121141518.615          35.000    22677951.711    94221201.620          34.500  
R19  20654188.586   110485974.187          42.000    20654191.699    85933539.560          40.500  
E04  25923422.602   136228507.688          44.000    25923424.859   103055988.471          45.000  
E11  23023450.078   120989046.927          43.750    23023448.504    91527428.231          42.250  
E12  22774191.344   119679179.614          41.000    22774190.305    90536521.318          44.500  
E19  25650506.461   134794276.496          38.500    25650507.785   101971033.498          37.750  
E24  23716172.188   124629322.970          44.500    23716185.395    94281324.591          44.500  
E25  24682002.086   129704791.486          45.500    24682004.098    98120842.961          44.000  
J01  36902664.008   193924803.039          43.500    36902665.117   151110237.318          37.250    36902667.887   144813977.448          38.500  
C01  37059283.133   149222412.403          38.000    37059292.070   192977459.979          39.500  
C03  37853192.609   152418952.0971         27.000    37853201.906   197111588.492          36.000  
C04  37400170.332   150594819.1111         29.500    37400176.734   194752526.545          37.000  
C07  37365883.516   150456964.110          38.000    37365891.820   194574005.798          40.000  
C08  36732346.359   147905936.230          41.000    36732354.773   191275010.739          40.500  
C10  37131460.992   149512843.789          38.000    37131465.938   193353280.199          40.000  
C13  38351398.883   154425194.616          35.000    38351399.352   199705801.581          40.500  
C17  36942968.242   148753855.7511         28.000    36942974.453   192371770.521          38.750  
> 2018 08 30 02 04 24.0000000  0 30                     
G01  21186467.727   111335640.025          41.250    21186473.742    86755067.212          30.750  
G03  20386273.930   107130589.318          47.500    20386279.473    83478407.317          34.250  
G06  24361574.797   128020978.259          28.500                                                  
G11  21460725.797   112776873.418          43.750    21460728.219    87878091.884          28.500  
G17  22464318.484   118050790.457          46.750    22464321.246    91987628.781          31.500  
G18  22683963.313   119205026.686          39.500    22683966.035    92887032.696          21.750  
G19  24310526.695   127752697.177          39.750    24310527.527    99547546.819          20.500  
G22  21153385.195   111161784.363          43.000    21153385.863    86619570.205          30.250  
G28  20757075.414   109079170.211          43.000    20757078.520    84996765.241          29.250  
R02  23157968.305   123575329.151          37.750    23157974.637    96114159.314          39.250  
R03  20423884.594   109330652.564          45.000    20423890.652    85034949.704          43.750  
R04  21283062.008   113969828.906          43.000    21283067.375    88643201.864          43.000  
R09  21571980.961   115193178.435          42.000    21571985.848    89594693.939          42.000  
R16  22678712.250   121145608.892          34.750    22678717.953    94224382.943          34.500  
R19  20654000.617   110484966.728          42.250    20654003.488    85932755.975          40.000  
E04  25922989.914   136226235.103          44.250    25922992.395   103054269.277          45.000  
E11  23023331.125   120988420.536          43.500    23023329.301    91526954.377          42.500  
E12  22774418.852   119680376.465          40.500    22774418.031    90537426.731          45.000  
E19  25650499.867   134794240.831          38.500    25650500.984   101971006.518          38.250  
E24  23716731.094   124632260.995          44.500    23716744.469    94283547.189          44.500  
E25  24682159.164   129705617.947          45.250    24682161.359    98121468.174          44.000  
J01  36902733.328   193925170.128          43.500    36902734.820   151110523.367          37.000    36902737.758   144814251.574          38.500  
C01  37059346.340   149222667.597          38.250    37059355.211   192977789.994          39.500  
C03  37853252.297   152419192.4361         25.250    37853261.344   197111899.604          36.000  
C04  37400229.051   150595055.5481         27.000    37400235.828   194752832.536          37.000  
C07  37366242.352   150458408.980          38.000    37366250.406   194575874.327          39.750  
C08  36732396.816   147906139.785          40.750    36732405.531   191275273.968          40.750  
C10  37131737.633   149513958.001          38.500    37131743.203   193354721.122          40.250  
C13  38351417.484   154425270.021          34.750    38351418.320   199705899.088          40.500  
C17  36943028.977   148754100.3061         26.750    36943035.703   192372087.100          38.500  
> 2018 08 30 02 04 25.0000000  0 30                     
G01  21186892.711   111337873.604          41.000    21186898.656    86756807.658          31.000  
G03  20386193.664   107130164.768          46.750    20386198.543    83478076.502          34.000  
G06  24361132.109   128018655.0651         27.500                                                  
G11  21461159.305   112779151.492          43.500    21461161.820    87879866.999          29.000  
G17  22463927.516   118048733.034          45.750    22463929.629    91986025.583          32.500  
G18  22684563.570   119208182.537          40.000    22684566.777    92889491.784          22.500  
G19  24309994.594   127749900.542          39.250    24309995.609    99545367.597          20.000  
G22  21153651.789   111163186.695          43.250    21153652.797    86620662.942          30.500  
G28  20757141.008   109079511.729          43.000    20757143.520    84997031.359          30.000  
R02  23158628.336   123578855.164          37.000    23158634.988    96116901.772          39.000  
R03  20423928.500   109330888.559          43.750    20423935.020    85035133.251          42.750  
R04  21282424.734   113966418.135          42.500    21282430.879    88640549.047          42.250  
R09  21572188.891   115194285.352          41.750    21572192.480    89595554.862          41.750  
R16  22679478.813   121149698.595          34.250    22679483.723    94227563.827          34.500  
R19  20653811.969   110483958.679          41.750    20653814.621    85931971.935          40.000  
E04  25922557.586   136223961.974          43.250    25922559.816   103052549.668          44.000  
E11  23023211.750   120987793.498          43.000    23023209.965    91526480.023          42.250  
E12  22774646.797   119681572.671          40.500    22774645.672    90538331.657          44.000  
E19  25650493.039   134794204.919          38.500    25650494.164   101970979.354          37.500  
E24  23717290.328   124635198.455          44.500    23717303.461    94285769.356          43.500  
E25  24682316.586   129706444.145          45.000    24682318.574    98122093.184          43.250  
J01  36902803.961   193925536.578          43.500    36902804.832   151110808.906          36.500    36902807.504   144814525.222          38.250  
C01  37059409.563   149222922.265          38.750    37059418.789   192978119.336          39.500  
C03  37853311.813   152419432.0821         25.000    37853320.984   197112209.988          35.750  
C04  37400287.551   150595291.1041         28.750    37400294.570   194753137.810          37.000  
C07  37366601.125   150459853.346          37.750    37366609.305   194577742.229          39.250  
C08  36732447.168   147906342.741          40.500    36732455.477   191275536.442          40.750  
C10  37132014.027   149515071.797          38.250    37132019.367   193356161.510          39.750  
C13  38351435.715   154425344.825          34.500    38351437.023   199705995.837          40.500  
C17  36943089.734   148754344.9491         27.500    36943096.219   192372402.953          38.500  
> 2018 08 30 02 04 26.0000000  0 30                     
G01  21187317.164   111340106.988          41.000    21187323.766    86758547.951          30.000  
G03  20386113.039   107129740.566          46.500    20386117.879    83477745.963          34.500  
G06  24360691.500   128016077.4591         28.250                                                  
G11  21461593.195   112781429.479          43.500    21461595.270    87881642.063          29.750  
G17  22463535.898   118046675.400          45.750    22463538.133    91984422.234          32.000  
G18  22685163.625   119211338.137          39.250    22685167.285    92891950.695          22.500  
G19  24309462.914   127747103.631          39.250    24309463.473    99543188.198          21.000  
G22  21153918.828   111164589.190          42.750    21153919.660    86621755.786          30.500  
G28  20757206.469   109079853.508          43.250    20757208.547    84997297.679          29.500  
R02  23159289.938   123582381.387          37.500    23159295.969    96119644.391          39.000  
R03  20423972.219   109331125.080          43.750    20423979.336    85035317.211          42.000  
R04  21281788.867   113963007.447          42.500    21281793.742    88637896.292          41.000  
R09  21572396.797   115195392.807          41.500    21572399.480    89596416.217          40.500  
R16  22680243.805   121153788.140          34.000    22680249.055    94230744.585          35.500  
R19  20653624.133   110482950.474          42.000    20653626.500    85931187.783          39.250  
E04  25922125.078   136221688.611          43.500    25922127.223   103050829.892          43.500  
E11  23023092.391   120987166.204          43.250    23023090.609    91526005.487          42.000  
E12  22774873.914   119682768.611          40.500    22774873.254    90539236.375          43.500  
E19  25650486.242   134794169.148          38.250    25650487.348   101970952.301          37.000  
E24  23717849.219   124638135.833          44.750    23717862.438    94287991.468          42.750  
E25  24682473.672   129707270.513          45.500    24682475.820    98122718.334          42.250  
J01  36902872.805   193925902.806          43.250    36902874.844   151111094.282          36.750    36902877.164   144814798.710          37.500  
C01  37059472.969   149223176.661          38.000    37059481.664   192978448.324          39.500  
C03  37853371.430   152419672.1351         27.000    37853380.211   197112520.064          35.500  
C04  37400346.258   150595527.4921         29.500    37400353.648   194753442.753          36.750  
C07  37366959.848   150461297.622          37.500    37366967.852   194579609.984          39.500  
C08  36732497.688   147906545.441          40.500    36732506.320   191275798.568          40.500  
C10  37132290.496   149516185.479          37.500    37132296.078   193357601.737          39.500  
C13  38351454.375   154425419.411          34.750    38351455.227   199706092.285          40.500  
C17  36943150.438   148754589.3791         27.000    36943156.938   192372718.482          38.500  
> 2018 08 30 02 04 27.0000000  0 30                     
G01  21187742.563   111342340.395          40.750    21187748.793    86760288.271          30.750  
G03  20386032.680   107129316.813          46.750    20386037.250    83477415.760          35.000  
G06  24360248.180   128013747.7971         25.750                                                  
G11  21462026.336   112783707.550          43.500    21462028.785    87883417.176          29.000  
G17  22463144.070   118044617.640          45.500    22463146.625    91982818.778          31.000  
G18  22685764.133   119214493.643          39.500    22685767.820    92894409.542          22.500  
G19  24308929.758   127744306.487          39.250    24308931.422    99541008.604          21.000  
G22  21154185.883   111165992.065          43.000    21154186.637    86622848.934          31.250  
G28  20757270.625   109080195.703          43.000    20757273.688    84997564.326          29.500  
R02  23159951.016   123585907.906          37.250    23159956.316    96122387.235          39.500  
R03  20424016.484   109331362.359          43.750    20424023.359    85035501.755          42.500  
R04  21281151.938   113959596.943          42.000    21281156.297    88635243.677          41.500  
R09  21572604.391   115196500.876          41.750    21572607.590    89597278.037          41.000  
R16  22681009.852   121157877.708          34.250    22681014.188    94233925.347          35.250  
R19  20653435.289   110481942.209          42.000    20653437.754    85930403.572          39.250  
E04  25921692.430   136219415.244          43.500    25921694.605   103049110.097          44.000  
E11  23022972.891   120986538.808          43.500    23022971.207    91525530.863          42.250  
E12  22775101.695   119683964.438          41.000    22775100.801    90540141.010          44.000  
E19  25650479.688   134794133.625          38.750    25650480.590   101970925.421          37.250  
E24  23718408.195   124641073.210          44.500    23718421.391    94290213.571          43.250  
E25  24682630.789   129708097.156          45.000    24682633.102    98123343.678          43.000  
J01  36902942.641   193926268.925          43.750    36902944.422   151111379.569          37.000    36902946.816   144815072.106          37.500  
C01  37059536.230   149223430.941          38.000    37059545.086   192978777.166          39.500  
C03  37853430.902   152419911.6041         27.000    37853439.930   197112829.944          36.250  
C04  37400404.570   150595762.2911         28.000    37400411.961   194753747.515          36.750  
C07  37367318.551   150462741.807          37.500    37367326.781   194581477.633          40.000  
C08  36732547.945   147906747.911          41.000    36732556.367   191276060.412          41.000  
C10  37132567.297   149517299.109          37.750    37132572.461   193359041.914          40.500  
C13  38351472.707   154425493.849          34.500    38351474.117   199706188.549          40.250  
C17  36943211.109   148754833.6761         27.000    36943217.141   192373033.817          39.000  
> 2018 08 30 02 04 28.0000000  0 30                     
G01  21188168.227   111344573.696          40.500    21188173.789    86762028.516          30.500  
G03  20385951.578   107128893.366          46.500    20385956.641    83477085.810          34.500  
G06  24359806.406   128011426.2591         26.750                                                  
G11  21462460.070   112785985.467          43.250    21462462.441    87885192.178          28.250  
G17  22462752.891   118042559.592          45.500    22462754.977    91981215.104          31.500  
G18  22686364.773   119217648.867          39.500    22686368.309    92896868.144          22.250  
G19  24308396.492   127741508.965          38.750    24308399.129    99538828.705          21.000  
G22  21154453.070   111167395.155          43.000    21154453.516    86623942.251          31.000  
G28  20757336.250   109080538.175          43.000    20757338.754    84997831.189          28.250  
R02  23160611.250   123589434.600          37.250    23160617.676    96125130.217          39.500  
R03  20424061.203   109331600.168          43.750    20424067.852    85035686.724          42.500  
R04  21280514.516   113956186.506          42.250    21280519.391    88632591.127          41.500  
R09  21572811.977   115197609.408          42.000    21572815.426    89598140.231          41.750  
R16  22681775.766   121161967.071          34.500    22681779.598    94237105.965          35.250  
R19  20653247.023   110480933.721          41.500    20653249.570    85929619.198          39.250  
E04  25921259.727   136217141.692          43.250    25921261.973   103047390.173          44.250  
E11  23022853.453   120985911.125          43.500    23022851.762    91525056.028          42.250  
E12  22775328.930   119685159.971          40.500    22775328.313    90541045.425          44.000  
E19  25650472.422   134794098.234          39.000    25650473.855   101970898.656          37.000  
E24  23718967.273   124644010.448          44.500    23718980.320    94292435.571          43.250  
E25  24682788.070   129708923.923          45.500    24682790.438    98123969.122          43.250  
J01  36903012.414   193926634.776          43.750    36903013.883   151111664.656          37.000    36903016.379   144815345.309          37.500  
C01  37059599.199   149223684.924          37.750    37059608.352   192979105.620          39.500  
C03  37853490.637   152420152.1321         27.750    37853499.992   197113139.505          36.500  
C04  37400463.176   150595998.2731         28.500    37400470.031   194754051.941          36.750  
C07  37367677.375   150464185.788          37.750    37367685.547   194583345.026          39.250  
C08  36732598.281   147906950.123          41.000    36732606.453   191276321.915          41.500  
C10  37132843.797   149518412.598          37.500    37132849.422   193360481.898          40.500  
C13  38351491.320   154425567.967          34.500    38351492.180   199706284.403          40.000  
C17  36943271.586   148755077.1911         26.500    36943277.969   192373348.807          38.500  
> 2018 08 30 02 04 29.0000000  0 30                     
G01  21188593.469   111346806.881          41.000    21188598.766    86763768.665          30.750  
G03  20385871.094   107128470.290          46.500    20385876.086    83476756.135          34.250  
G06  24359364.156   128009102.2191         25.750                                                  
G11  21462893.094   112788263.353          42.750    21462895.910    87886967.151          28.500  
G17  22462360.625   118040501.334          46.000    22462363.160    91979611.272          30.500  
G18  22686965.219   119220803.916          39.500    22686968.777    92899326.621          22.000  
G19  24307865.125   127738711.145          38.500    24307866.656    99536648.579          20.000  
G22  21154720.008   111168798.479          43.250    21154720.367    86625035.750          30.750  
G28  20757401.469   109080880.967          42.750    20757403.902    84998098.299          29.500  
R02  23161272.492   123592961.491          37.250    23161278.766    96127873.346          39.500  
R03  20424105.914   109331838.572          43.500    20424112.574    85035872.140          42.500  
R04  21279878.055   113952776.219          42.250    21279882.723    88629938.683          41.750  
R09  21573019.758   115198718.487          41.500    21573023.250    89599002.838          42.500  
R16  22682541.438   121166056.357          34.750    22682545.383    94240286.516          35.500  
R19  20653057.359   110479925.105          42.250    20653060.793    85928834.711          39.250  
E04  25920827.094   136214868.022          43.500    25920829.313   103045670.156          44.250  
E11  23022734.141   120985283.218          43.000    23022732.266    91524581.017          42.500  
E12  22775556.719   119686355.312          40.500    22775555.762    90541949.687          44.000  
E19  25650466.117   134794062.971          38.500    25650467.160   101970871.983          37.500  
E24  23719526.063   124646947.575          44.500    23719539.238    94294657.487          43.500  
E25  24682945.234   129709750.887          44.750    24682947.785    98124594.716          43.000  
J01  36903082.172   193927000.447          43.750    36903083.320   151111949.580          37.250    36903085.930   144815618.369          38.250  
C01  37059662.293   149223938.705          38.250    37059671.141   192979433.814          39.500  
C03  37853550.195   152420391.9481         27.000    37853559.172   197113448.750          36.000  
C04  37400521.539   150596233.2761         28.000    37400528.313   194754356.075          36.750  
C07  37368035.863   150465629.662          37.500    37368044.063   194585212.275          39.750  
C08  36732648.188   147907152.091          41.000    36732656.508   191276583.103          41.000  
C10  37133120.148   149519525.997          37.500    37133125.867   193361921.771          40.500  
C13  38351509.742   154425641.839          35.000    38351511.516   199706379.944          40.250  
C17  36943331.898   148755320.0431         26.500    36943338.492   192373663.519          38.500  
> 2018 08 30 02 04 30.0000000  0 30                     
G01  21189017.719   111349039.870          40.750    21189023.488    86765508.657          30.750  
G03  20385790.945   107128047.477          46.250    20385795.652    83476426.670          33.750  
G06  24358922.031   128006778.8371         27.500                                                  
G11  21463327.031   112790541.111          43.000    21463329.199    87888742.040          28.250  
G17  22461968.664   118038442.757          46.000    22461971.445    91978007.174          31.000  
G18  22687565.086   119223958.589          39.250    22687568.977    92901784.787          22.250  
G19  24307332.195   127735912.923          38.500    24307334.148    99534468.134          19.500  
G22  21154986.922   111170202.009          43.500    21154987.574    86626129.410          30.250  
G28  20757466.930   109081223.960          43.000    20757469.176    84998365.572          28.750  
R02  23161931.625   123596488.493          37.250    23161939.738    96130616.568          39.500  
R03  20424151.391   109332077.454          43.250    20424156.730    85036057.935          42.500  
R04  21279240.805   113949365.939          42.500    21279245.727    88627286.239          41.750  
R09  21573227.984   115199827.956          41.500    21573230.934    89599865.761          41.750  
R16  22683306.766   121170145.417          35.500    22683311.207    94243466.898          35.500  
R19  20652869.836   110478916.192          41.500    20652872.074    85928050.009          39.250  
E04  25920394.336   136212594.120          43.750    25920396.574   103043949.961          44.250  
E11  23022614.406   120984655.030          43.500    23022612.723    91524105.800          43.000  
E12  22775784.422   119687550.340          40.500    22775783.156    90542853.717          44.250  
E19  25650459.117   134794027.780          38.750    25650460.445   101970845.360          37.250  
E24  23720084.883   124649884.505          44.500    23720098.102    94296879.258          43.500  
E25  24683102.922   129710577.922          45.000    24683105.129    98125220.365          43.250  
J01  36903151.227   193927365.802          43.750    36903152.910   151112234.272          37.500    36903155.438   144815891.199          38.000  
C01  37059725.066   149224192.173          37.750    37059733.953   192979761.597          39.500  
C03  37853609.527   152420630.8531         27.250    37853618.258   197113757.617          35.500  
C04  37400580.035   150596468.8161         28.250    37400586.625   194754659.823          37.000  
C07  37368394.625   150467073.301          37.500    37368402.594   194587079.224          39.000  
C08  36732698.250   147907353.703          40.750    36732706.734   191276843.831          40.500  
C10  37133396.805   149520639.226          38.000    37133402.297   193363361.419          40.000  
C13  38351527.988   154425715.420          34.750    38351528.719   199706475.098          40.250  
C17  36943392.254   148755563.0711         26.750    36943398.586   192373977.811          38.500  
> 2018 08 30 02 04 31.0000000  0 30                     
G01  21189442.828   111351273.001          41.000    21189448.438    86767248.754          30.000  
G03  20385710.609   107127625.221          46.750    20385715.340    83476097.643          34.000  
G06  24358480.547   128004713.1101         28.250                                                  
G11  21463760.289   112792818.996          42.750    21463762.750    87890517.011          27.750  
G17  22461576.898   118036384.182          46.250    22461579.781    91976403.092          31.750  
G18  22688165.352   119227113.290          39.500    22688169.297    92904243.006          23.500  
G19  24306799.164   127733114.623          38.500    24306801.719    99532287.632          19.000  
G22  21155254.164   111171605.980          43.250    21155254.816    86627223.415          31.000  
G28  20757532.211   109081567.465          42.500    20757534.363    84998633.243          30.000  
R02  23162594.742   123600015.980          37.500    23162600.879    96133360.166          39.500  
R03  20424194.617   109332317.147          43.250    20424201.656    85036244.356          42.500  
R04  21278603.406   113945955.988          42.500    21278608.703    88624634.057          41.750  
R09  21573435.922   115200938.176          41.250    21573438.898    89600729.262          41.750  
R16  22684070.961   121174234.584          35.250    22684076.266    94246647.359          35.750  
R19  20652680.539   110477907.354          42.000    20652683.418    85927265.358          39.250  
E04  25919961.703   136210320.291          43.750    25919963.887   103042229.821          44.500  
E11  23022494.781   120984026.779          43.500    23022493.172    91523630.534          43.000  
E12  22776011.852   119688745.279          40.500    22776010.570    90543757.682          44.000  
E19  25650452.445   134793992.999          39.000    25650453.824   101970819.051          37.250  
E24  23720643.648   124652821.603          45.000    23720657.008    94299101.152          44.000  
E25  24683259.930   129711405.374          45.250    24683262.578    98125846.328          43.750  
J01  36903221.148   193927731.172          44.000    36903222.352   151112518.978          37.500    36903224.941   144816164.039          38.250  
C01  37059788.168   149224445.591          37.750    37059796.820   192980089.316          39.750  
C03  37853668.809   152420869.5571         26.250    37853677.234   197114066.414          36.250  
C04  37400638.230   150596703.1431         29.000    37400645.391   194754963.472          37.000  
C07  37368752.973   150468516.956          37.750    37368761.039   194588946.193          39.250  
C08  36732748.344   147907555.259          41.000    36732756.602   191277104.485          41.000  
C10  37133673.594   149521752.502          38.250    37133678.875   193364801.130          39.500  
C13  38351546.117   154425788.941          35.000    38351547.398   199706570.177          39.750  
C17  36943452.598   148755806.0521         25.250    36943459.641   192374292.060          39.000  
> 2018 08 30 02 04 32.0000000  0 30                     
G01  21189867.516   111353506.004          41.000    21189873.375    86768988.761          30.500  
G03  20385630.289   107127203.330          46.500    20385635.035    83475768.899          34.000  
G06  24358039.195   128002388.965          29.000                                                  
G11  21464193.313   112795096.833          42.500    21464196.227    87892291.942          28.000  
G17  22461185.531   118034325.358          45.500    22461187.965    91974798.821          31.500  
G18  22688766.148   119230267.732          39.500    22688769.523    92906701.035          22.000  
G19  24306266.914   127730315.985          37.500    24306269.168    99530106.908          19.250  
G22  21155521.227   111173010.187          43.500    21155521.945    86628317.605          30.500  
G28  20757597.219   109081911.302          42.500    20757599.738    84998901.169          29.000  
R02  23163257.336   123603543.674          37.750    23163262.109    96136103.924          39.750  
R03  20424240.633   109332557.398          43.250    20424246.246    85036431.218          42.500  
R04  21277967.234   113942546.139          42.250    21277972.066    88621981.954          42.000  
R09  21573643.594   115202048.852          41.000    21573646.848    89601593.124          42.000  
R16  22684837.258   121178323.631          34.500    22684841.832    94249827.734          34.500  
R19  20652491.438   110476898.314          41.250    20652495.082    85926480.559          38.750  
E04  25919529.305   136208046.298          43.250    25919531.148   103040509.561          43.750  
E11  23022375.313   120983398.298          43.250    23022373.559    91523155.095          42.500  
E12  22776238.977   119689940.079          40.500    22776237.910    90544661.544          43.750  
E19  25650446.016   134793958.324          38.500    25650447.227   101970792.817          37.000  
E24  23721202.719   124655758.534          44.750    23721215.895    94301322.926          43.500  
E25  24683417.742   129712232.975          44.750    24683420.070    98126472.397          43.250  
J01  36903290.336   193928096.309          43.500    36903291.977   151112803.505          37.500    36903294.398   144816436.705          38.250  
C01  37059850.910   149224698.755          37.500    37059860.063   192980416.722          39.500  
C03  37853727.973   152421107.7861         27.250    37853736.609   197114374.884          36.250  
C04  37400696.438   150596937.5221         27.500    37400703.484   194755266.848          36.500  
C07  37369111.184   150469960.481          37.500    37369119.461   194590812.989          39.250  
C08  36732798.336   147907756.506          41.000    36732806.773   191277364.751          40.000  
C10  37133950.102   149522865.664          38.000    37133955.234   193366240.691          39.750  
C13  38351564.281   154425862.180          35.000    38351565.469   199706664.892          40.000  
C17  36943512.754   148756048.2751         26.250    36943519.672   192374605.996          38.750  
> 2018 08 30 02 04 33.0000000  0 30                     
G01  21190292.258   111355738.905          41.250    21190298.273    86770728.672          30.250  
G03  20385549.875   107126781.768          46.750    20385554.844    83475440.402          34.250  
G06  24357596.719   127999814.2751         29.000                                                  
G11  21464627.008   112797374.594          43.500    21464629.668    87894066.818          28.000  
G17  22460793.391   118032266.309          46.000    22460796.117    91973194.361          31.750  
G18  22689366.266   119233422.021          40.000    22689369.906    92909158.926          22.500  
G19  24305734.180   127727516.988          38.250    24305736.480    99527925.885          20.000  
G22  21155788.438   111174414.650          43.250    21155789.086    86629411.990          30.000  
G28  20757662.930   109082255.412          42.500    20757665.340    84999169.299          29.250  
R02  23163917.383   123607071.629          37.500    23163923.137    96138847.884          39.750  
R03  20424284.570   109332798.231          43.500    20424291.574    85036618.532          42.000  
R04  21277329.781   113939136.403          42.000    21277335.590    88619329.928          41.500  
R09  21573851.469   115203160.076          41.250    21573854.840    89602457.405          41.500  
R16  22685603.820   121182412.505          35.500    22685607.582    94253007.965          34.750  
R19  20652303.359   110475889.126          41.750    20652306.387    85925695.633          38.750  
E04  25919096.008   136205772.162          43.500    25919098.398   103038789.191          43.500  
E11  23022255.664   120982769.615          43.250    23022253.918    91522679.495          42.000  
E12  22776466.047   119691134.586          40.750    22776465.223    90545565.173          43.500  
E19  25650439.547   134793923.812          38.750    25650440.668   101970766.709          37.250  
E24  23721761.641   124658695.368          44.500    23721774.746    94303544.615          43.250  
E25  24683575.195   129713060.736          44.750    24683577.590    98127098.592          42.750  
J01  36903360.203   193928461.241          43.250    36903361.035   151113087.869          37.000    36903363.805   144816709.223          38.250  
C01  37059913.582   149224951.702          37.500    37059923.234   192980743.834          39.750  
C03  37853786.973   152421345.3541         24.500    37853796.148   197114683.050          35.750  
C04  37400754.715   150597172.1801         27.000    37400761.781   194755569.902          36.750  
C07  37369469.570   150471403.851          37.500    37369477.570   194592679.584          39.250  
C08  36732848.352   147907957.482          40.500    36732856.805   191277624.670          40.500  
C10  37134226.484   149523978.704          38.250    37134232.219   193367680.100          39.750  
C13  38351582.523   154425935.194          35.250    38351583.469   199706759.314          40.000  
C17  36943573.027   148756290.9691         26.250    36943580.078   192374919.591          38.750  
> 2018 08 30 02 04 34.0000000  0 30                     
G01  21190717.297   111357971.635          41.750    21190723.195    86772468.478          30.500  
G03  20385469.797   107126360.518          46.500    20385474.805    83475112.158          34.250  
G06  24357154.531   127997490.5621         28.500                                                  
G11  21465061.063   112799652.265          42.750    21465063.074    87895841.628          29.000  
G17  22460401.828   118030206.977          46.000    22460404.324    91971589.679          32.000  
G18  22689966.828   119236575.986          40.250    22689970.285    92911616.538          22.500  
G19  24305201.406   127724717.666          38.750    24305203.875    99525744.577          20.500  
G22  21156056.117   111175819.313          43.250    21156056.559    86630506.538          31.250  
G28  20757728.070   109082599.799          43.250    20757730.973    84999437.652          28.750  
R02  23164578.305   123610599.789          37.500    23164584.211    96141592.008          39.000  
R03  20424330.367   109333039.608          43.500    20424336.723    85036806.272          43.000  
R04  21276693.008   113935726.795          42.500    21276698.785    88616678.005          42.000  
R09  21574060.227   115204271.724          41.500    21574063.332    89603322.021          42.500  
R16  22686368.164   121186501.244          35.000    22686372.863    94256188.097          35.000  
R19  20652114.656   110474879.654          41.750    20652117.715    85924910.490          39.250  
E04  25918663.523   136203497.853          43.500    25918665.613   103037068.696          44.000  
E11  23022135.977   120982140.620          43.000    23022134.227    91522203.666          42.500  
E12  22776693.234   119692328.820          41.500    22776692.492    90546468.610          43.250  
E19  25650432.570   134793889.412          38.750    25650434.133   101970740.689          37.000  
E24  23722320.328   124661632.053          44.500    23722333.598    94305766.197          43.750  
E25  24683732.875   129713888.624          44.500    24683735.125    98127724.889          43.500  
J01  36903429.516   193928825.891          43.500    36903430.770   151113372.016          37.000    36903433.219   144816981.521          38.000  
C01  37059976.410   149225204.375          38.250    37059985.773   192981070.593          39.500  
C03  37853846.047   152421583.2211         27.250    37853855.156   197114990.871          36.250  
C04  37400812.656   150597405.4841         29.250    37400820.063   194755872.621          37.000  
C07  37369828.039   150472847.019          37.000    37369836.375   194594545.918          39.500  
C08  36732898.242   147908158.176          40.500    36732906.570   191277884.203          40.000  
C10  37134502.656   149525091.611          38.250    37134508.625   193369119.336          40.250  
C13  38351600.570   154426007.941          35.000    38351601.563   199706853.388          39.750  
C17  36943633.133   148756532.9911         26.750    36943640.070   192375232.865          38.500  
> 2018 08 30 02 04 35.0000000  0 30                     
G01  21191142.406   111360204.349          41.500    21191147.934    86774208.247          30.750  
G03  20385389.805   107125939.662          46.500    20385394.660    83474784.211          34.000  
G06  24356711.430   127995162.0501         28.000                                                  
G11  21465494.219   112801929.921          43.000    21465496.637    87897616.422          28.250  
G17  22460010.023   118028147.510          46.000    22460012.359    91969984.899          31.500  
G18  22690566.461   119239729.795          40.500    22690570.559    92914074.046          22.500  
G19  24304668.484   127721918.096          38.250    24304671.188    99523563.104          19.000  
G22  21156323.484   111177224.297          43.500    21156323.789    86631601.324          31.250  
G28  20757794.188   109082944.551          43.250    20757796.688    84999706.289          29.000  
R02  23165240.313   123614128.231          37.750    23165245.336    96144336.348          39.500  
R03  20424375.570   109333281.663          44.000    20424381.969    85036994.534          42.500  
R04  21276056.492   113932317.350          42.500    21276062.133    88614026.217          41.500  
R09  21574268.406   115205383.975          41.000    21574271.617    89604187.101          41.750  
R16  22687133.578   121190589.880          35.000    22687137.977    94259368.134          35.500  
R19  20651925.813   110473870.093          41.500    20651929.039    85924125.273          39.500  
E04  25918230.648   136201223.435          43.500    25918232.805   103035348.111          43.750  
E11  23022016.258   120981511.443          43.250    23022014.492    91521727.695          42.000  
E12  22776920.406   119693522.894          41.500    22776919.727    90547371.913          43.250  
E19  25650426.516   134793855.213          39.000    25650427.625   101970714.812          36.750  
E24  23722878.977   124664568.727          43.750    23722892.441    94307987.769          43.250  
E25  24683890.211   129714716.773          44.500    24683892.715    98128351.372          43.000  
J01  36903498.445   193929190.429          43.500    36903500.156   151113656.068          37.000    36903502.574   144817253.740          38.250  
C01  37060039.063   149225456.859          38.000    37060047.953   192981397.117          39.750  
C03  37853905.082   152421820.9301         27.000    37853913.781   197115298.4711         36.000  
C04  37400870.598   150597638.7921         29.000    37400878.461   194756175.107          36.750  
C07  37370186.277   150474290.091          37.000    37370194.594   194596412.143          39.500  
C08  36732947.949   147908358.670          40.500    36732955.977   191278143.494          40.500  
C10  37134778.992   149526204.485          38.000    37134784.758   193370558.520          40.000  
C13  38351618.395   154426080.479          35.250    38351619.813   199706947.192          40.000  
C17  36943693.188   148756774.8081         25.000    36943699.875   192375545.927          38.750  
